Vers 72
USE_SERIAL_FEEDBACK=true
DEVELOPMENT_MODE=false
USE_RMC_ONLY=false

$GPRMC,195804.750,A,4309.3055,N,07735.0729,W,0.94,27.37,070924,,,A*4C
$GPGGA,195805.000,4309.3055,N,07735.0730,W,1,05,1.84,155.1,M,-34.4,M,,*57
lng=-77.584548, lat=43.155094, altitude=154.80, speed=0.94, satellites=5, angle=27.3700, fixquality=1
$GPRMC,195805.250,A,4309.3054,N,07735.0730,W,0.70,27.09,070924,,,A*46
$GPGGA,195805.500,4309.3053,N,07735.0731,W,1,05,1.83,155.0,M,-34.4,M,,*53
lng=-77.584556, lat=43.155086, altitude=155.10, speed=0.70, satellites=5, angle=27.0900, fixquality=1
$GPGGA,195809.500,4309.3048,N,07735.0745,W,1,05,1.83,155.7,M,-34.4,M,,*51
$GPRMC,195809.500,A,4309.3048,N,07735.0745,W,0.04,319.81,070924,,,A*7A
lng=-77.584579, lat=43.155078, altitude=155.70, speed=0.10, satellites=5, angle=339.6600, fixquality=1
$GPGGA,195809.750,4309.3048,N,07735.0745,W,1,05,1.83,155.7,M,-34.4,M,,*56
$GPRMC,195809.750,A,4309.3048,N,07735.0745,W,0.05,317.35,070924,,,A*7D
lng=-77.584579, lat=43.155078, altitude=155.70, speed=0.04, satellites=5, angle=319.8100, fixquality=1
$GPGGA,195857.500,4309.3055,N,07735.0734,W,1,05,1.82,155.9,M,-34.4,M,,*5F
$GPRMC,195857.500,A,4309.3055,N,07735.0734,W,0.30,31.17,070924,,,A*4A
lng=-77.584556, lat=43.155094, altitude=155.90, speed=0.25, satellites=5, angle=30.0200, fixquality=1
$GPGGA,195857.750,4309.3055,N,07735.0734,W,1,05,1.82,155.9,M,-34.4,M,,*58
$GPRMC,195857.750,A,4309.3055,N,07735.0734,W,0.30,33.46,070924,,,A*4B
lng=-77.584556, lat=43.155094, altitude=155.90, speed=0.30, satellites=5, angle=31.1700, fixquality=1
$GPGGA,195936.000,4309.3044,N,07735.0735,W,1,05,1.80,156.2,M,-34.4,M,,*57
$GPRMC,195936.000,A,4309.3044,N,07735.0735,W,0.37,217.31,070924,,,A*7D
lng=-77.584564, lat=43.155071, altitude=156.20, speed=0.41, satellites=5, angle=217.4000, fixquality=1
$GPGGA,195936.250,4309.3044,N,07735.0736,W,1,05,1.80,156.2,M,-34.4,M,,*53
$GPRMC,195936.250,A,4309.3044,N,07735.0736,W,0.27,226.41,070924,,,A*7D
lng=-77.584564, lat=43.155071, altitude=156.20, speed=0.37, satellites=5, angle=217.3100, fixquality=1
$GPGGA,200158.000,4309.3045,N,07735.0751,W,1,07,1.30,156.3,M,-34.4,M,,*53
$GPRMC,200158.000,A,4309.3045,N,07735.0751,W,1.10,318.47,070924,,,A*7A
lng=-77.584587, lat=43.155078, altitude=156.30, speed=0.92, satellites=7, angle=318.1700, fixquality=1
$GPGGA,200158.250,4309.3047,N,07735.0752,W,1,07,1.30,156.4,M,-34.4,M,,*52
$GPRMC,200158.250,A,4309.3047,N,07735.0752,W,1.17,319.24,070924,,,A*7F
lng=-77.584587, lat=43.155078, altitude=156.40, speed=1.10, satellites=7, angle=318.4700, fixquality=1
$GPGGA,200159.500,4309.3060,N,07735.0753,W,1,07,1.49,156.2,M,-34.4,M,,*5D
$GPRMC,200159.500,A,4309.3060,N,07735.0753,W,2.44,7.80,070924,,$GPGGA,200159.750,4309.3062,N,07735.0752,W,1,07,1.49,156.2,M,-34.4,M,,*59
lng=-77.584587, lat=43.155101, altitude=156.20, speed=1.88, satellites=7, angle=345.5600, fixquality=1
$GPRMC,200200.000,A,4309.3064,N,07735.0751,W,3.22,23.11,070924,,,A*4C
$GPGGA,200200.250,4309.3067,N,07735.0750,W,1,07,1.30,156.2,M,-34.4,M,,*5A
lng=-77.584587, lat=43.155109, altitude=156.20, speed=3.22, satellites=7, angle=23.1100, fixquality=1
$GPRMC,200200.500,A,4309.3070,N,07735.0748,W,3.89,22.38,070924,,,A*4F
$GPGGA,200200.750,4309.3074,N,07735.0747,W,1,07,1.49,156.2,M,-34.4,M,,*55
lng=-77.584579, lat=43.155117, altitude=156.20, speed=3.89, satellites=7, angle=22.3800, fixquality=1
$GPRMC,200201.000,A,4309.3078,N,07735.0746,W,4.99,19.27,070924,,,A*4D
$GPGGA,200201.250,4309.3083,N,07735.0744,W,1,07,1.49,156.2,M,-34.4,M,,*5A
lng=-77.584579, lat=43.155128, altitude=156.20, speed=4.99, satellites=7, angle=19.2700, fixquality=1
$GPRMC,200201.500,A,4309.3088,N,07735.0742,W,6.34,17.60,070924,,,A*4B
$GPGGA,200201.750,4309.3093,N,07735.0740,W,1,07,1.49,156.2,M,-34.4,M,,*5A
lng=-77.584571, lat=43.155143, altitude=156.20, speed=6.34, satellites=7, angle=17.6000, fixquality=1
$GPRMC,200202.000,A,4309.3098,N,07735.0738,W,6.68,16.48,070924,,,A*43
$GPGGA,200202.250,4309.3103,N,07735.0736,W,1,07,1.49,156.1,M,-34.4,M,,*56
lng=-77.584564, lat=43.155158, altitude=156.20, speed=6.68, satellites=7, angle=16.4800, fixquality=1
$GPRMC,200202.500,A,4309.3108,N,07735.0733,W,6.54,14.73,070924,,,A*40
$GPGGA,200202.750,4309.3112,N,07735.0730,W,1,07,1.49,156.0,M,-34.4,M,,*54
lng=-77.584556, lat=43.155185, altitude=156.10, speed=6.54, satellites=7, angle=14.7300, fixquality=1
$GPRMC,200203.000,A,4309.3117,N,07735.0728,W,6.51,17.04,070924,,,A*46
$GPGGA,200203.250,4309.3122,N,07735.0726,W,1,07,1.49,156.0,M,-34.4,M,,*54
lng=-77.584548, lat=43.155193, altitude=156.00, speed=6.51, satellites=7, angle=17.0400, fixquality=1
$GPRMC,200203.500,A,4309.3126,N,07735.0723,W,6.57,18.92,070924,,,A*4C
$GPGGA,200203.750,4309.3131,N,07735.0721,W,1,07,1.49,155.8,M,-34.4,M,,*5F
lng=-77.584541, lat=43.155208, altitude=156.00, speed=6.57, satellites=7, angle=18.9200, fixquality=1
$GPRMC,200204.000,A,4309.3136,N,07735.0718,W,6.36,17.12,070924,,,A*47
$GPGGA,200204.250,4309.3140,N,07735.0716,W,1,07,1.49,155.7,M,-34.4,M,,*50
lng=-77.584526, lat=43.155223, altitude=155.80, speed=6.36, satellites=7, angle=17.1200, fixquality=1
$GPRMC,200204.500,A,4309.3145,N,07735.0713,W,6.21,19.11,070924,,,A*46
$GPGGA,200204.750,4309.3149,N,07735.0710,W,1,07,1.49,155.6,M,-34.4,M,,*5B
lng=-77.584518, lat=43.155239, altitude=155.70, speed=6.21, satellites=7, angle=19.1100, fixquality=1
$GPRMC,200205.000,A,4309.3154,N,07735.0708,W,6.39,19.90,070924,,,A*48
$GPGGA,200205.250,4309.3158,N,07735.0705,W,1,07,1.49,155.5,M,-34.4,M,,*58
lng=-77.584510, lat=43.155258, altitude=155.60, speed=6.39, satellites=7, angle=19.9000, fixquality=1
$GPRMC,200205.500,A,4309.3162,N,07735.0703,W,6.30,21.51,070924,,,A*4C
$GPGGA,200205.750,4309.3166,N,07735.0700,W,1,07,1.49,155.4,M,-34.4,M,,*54
lng=-77.584503, lat=43.155273, altitude=155.50, speed=6.30, satellites=7, angle=21.5100, fixquality=1
$GPRMC,200206.000,A,4309.3171,N,07735.0699,W,6.41,19.63,070924,,,A*46
$GPGGA,200206.250,4309.3175,N,07735.0697,W,1,07,1.49,155.3,M,-34.4,M,,*58
lng=-77.584495, lat=43.155281, altitude=155.40, speed=6.41, satellites=7, angle=19.6300, fixquality=1
$GPRMC,200206.500,A,4309.3180,N,07735.0694,W,6.45,21.01,070924,,,A*4B
$GPGGA,200206.750,4309.3184,N,07735.0692,W,1,07,1.49,155.2,M,-34.4,M,,*57
lng=-77.584487, lat=43.155296, altitude=155.30, speed=6.45, satellites=7, angle=21.0100, fixquality=1
$GPRMC,200207.000,A,4309.3189,N,07735.0689,W,6.74,18.24,070924,,,A*45
$GPGGA,200207.250,4309.3195,N,07735.0686,W,1,07,1.49,155.1,M,-34.4,M,,*55
lng=-77.584480, lat=43.155315, altitude=155.20, speed=6.74, satellites=7, angle=18.2400, fixquality=1
$GPRMC,200207.500,A,4309.3202,N,07735.0683,W,7.82,18.42,070924,,,A*42
$GPGGA,200207.750,4309.3206,N,07735.0681,W,1,07,1.49,155.0,M,-34.4,M,,*5F
lng=-77.584472, lat=43.155338, altitude=155.10, speed=7.82, satellites=7, angle=18.4200, fixquality=1
$GPRMC,200208.000,A,4309.3210,N,07735.0678,W,6.88,21.35,070924,,,A*4E
$GPGGA,200208.250,4309.3215,N,07735.0676,W,1,07,1.49,155.1,M,-34.4,M,,*5E
lng=-77.584465, lat=43.155345, altitude=155.00, speed=6.88, satellites=7, angle=21.3500, fixquality=1
$GPRMC,200208.500,A,4309.3220,N,07735.0674,W,6.76,18.43,070924,,,A*4E
$GPGGA,200208.750,4309.3224,N,07735.0672,W,1,07,1.49,155.0,M,-34.4,M,,*5C
lng=-77.584457, lat=43.155361, altitude=155.10, speed=6.76, satellites=7, angle=18.4300, fixquality=1
$GPRMC,200209.000,A,4309.3229,N,07735.0669,W,7.00,21.18,070924,,,A*4B
$GPGGA,200209.250,4309.3234,N,07735.0667,W,1,07,1.49,155.0,M,-34.4,M,,*5D
lng=-77.584449, lat=43.155380, altitude=155.00, speed=7.00, satellites=7, angle=21.1800, fixquality=1
$GPRMC,200209.500,A,4309.3238,N,07735.0665,W,6.96,23.08,070924,,,A*4F
$GPGGA,200209.750,4309.3243,N,07735.0662,W,1,07,1.49,154.9,M,-34.4,M,,*55
lng=-77.584442, lat=43.155395, altitude=155.00, speed=6.96, satellites=7, angle=23.0800, fixquality=1
$GPRMC,200210.000,A,4309.3248,N,07735.0659,W,7.28,23.93,070924,,,A*4C
$GPGGA,200210.250,4309.3253,N,07735.0657,W,1,07,1.49,154.9,M,-34.4,M,,*5F
lng=-77.584434, lat=43.155410, altitude=154.90, speed=7.28, satellites=7, angle=23.9300, fixquality=1
$GPRMC,200210.500,A,4309.3258,N,07735.0654,W,7.49,21.48,070924,,,A*46
$GPGGA,200210.750,4309.3263,N,07735.0652,W,1,07,1.49,155.0,M,-34.4,M,,*54
lng=-77.584426, lat=43.155429, altitude=154.90, speed=7.49, satellites=7, angle=21.4800, fixquality=1
$GPRMC,200211.000,A,4309.3270,N,07735.0649,W,8.22,18.64,070924,,,A*42
$GPGGA,200211.250,4309.3275,N,07735.0646,W,1,07,1.49,155.0,M,-34.4,M,,*52
lng=-77.584419, lat=43.155452, altitude=155.00, speed=8.22, satellites=7, angle=18.6400, fixquality=1
$GPRMC,200211.500,A,4309.3281,N,07735.0644,W,8.11,20.04,070924,,,A*49
$GPGGA,200211.750,4309.3286,N,07735.0641,W,1,07,1.49,155.0,M,-34.4,M,,*5C
lng=-77.584403, lat=43.155467, altitude=155.00, speed=8.11, satellites=7, angle=20.0400, fixquality=1
$GPRMC,200212.000,A,4309.3290,N,07735.0639,W,7.65,22.35,070924,,,A*49
$GPGGA,200212.250,4309.3295,N,07735.0636,W,1,07,1.49,155.0,M,-34.4,M,,*58
lng=-77.584396, lat=43.155483, altitude=155.00, speed=7.65, satellites=7, angle=22.3500, fixquality=1
$GPRMC,200212.500,A,4309.3299,N,07735.0633,W,6.65,24.00,070924,,,A*4E
$GPGGA,200212.750,4309.3302,N,07735.0631,W,1,07,1.49,154.9,M,-34.4,M,,*5D
lng=-77.584388, lat=43.155502, altitude=155.00, speed=6.65, satellites=7, angle=24.0000, fixquality=1
$GPRMC,200213.000,A,4309.3306,N,07735.0630,W,5.73,22.73,070924,,,A*48
$GPGGA,200213.250,4309.3309,N,07735.0628,W,1,07,1.49,154.9,M,-34.4,M,,*5A
lng=-77.584381, lat=43.155509, altitude=154.90, speed=5.73, satellites=7, angle=22.7300, fixquality=1
$GPRMC,200213.500,A,4309.3311,N,07735.0626,W,4.97,23.93,070924,,,A*48
$GPGGA,200213.750,4309.3314,N,07735.0625,W,1,07,1.49,154.9,M,-34.4,M,,*5E
lng=-77.584373, lat=43.155517, altitude=154.90, speed=4.97, satellites=7, angle=23.9300, fixquality=1
$GPRMC,200214.000,A,4309.3317,N,07735.0624,W,4.29,19.96,070924,,,A*47
$GPGGA,200214.250,4309.3319,N,07735.0623,W,1,07,1.49,154.9,M,-34.4,M,,*57
lng=-77.584373, lat=43.155525, altitude=154.90, speed=4.29, satellites=7, angle=19.9600, fixquality=1
$GPRMC,200214.500,A,4309.3321,N,07735.0622,W,3.41,17.78,070924,,,A*46
$GPGGA,200214.750,4309.3323,N,07735.0622,W,1,07,1.31,154.7,M,-34.4,M,,*5B
lng=-77.584365, lat=43.155532, altitude=154.90, speed=3.41, satellites=7, angle=17.7800, fixquality=1
$GPRMC,200215.000,A,4309.3324,N,07735.0620,W,2.76,22.50,070924,,,A*4C
$GPGGA,200215.250,4309.3325,N,07735.0619,W,1,07,1.31,154.5,M,-34.4,M,,*53
lng=-77.584365, lat=43.155540, altitude=154.70, speed=2.76, satellites=7, angle=22.5000, fixquality=1
$GPRMC,200215.500,A,4309.3325,N,07735.0619,W,1.19,32.68,070924,,,A*42
$GPGGA,200215.750,4309.3325,N,07735.0619,W,1,07,1.31,154.4,M,-34.4,M,,*57
lng=-77.584365, lat=43.155540, altitude=154.50, speed=1.19, satellites=7, angle=32.6800, fixquality=1
$GPGGA,200223.250,4309.3334,N,07735.0607,W,1,07,1.31,153.9,M,-34.4,M,,*52
$GPRMC,200223.250,A,4309.3334,N,07735.0607,W,0.80,26.01,070924,$GPGGA,200223.500,4309.3334,N,07735.0607,W,1,07,1.31,153.9,M,-34.4,M,,*50
lng=-77.584342, lat=43.155559, altitude=153.90, speed=0.73, satellites=7, angle=29.5000, fixquality=1
$GPRMC,200223.750,A,4309.3335,N,07735.0607,W,0.92,23.76,070924,,,A*43
$GPGGA,200224.000,4309.3335,N,07735.0606,W,1,07,1.31,153.8,M,-34.4,M,,*53
lng=-77.584342, lat=43.155559, altitude=153.90, speed=0.92, satellites=7, angle=23.7600, fixquality=1
$GPGGA,200226.750,4309.3348,N,07735.0598,W,1,07,1.31,153.5,M,-34.4,M,,*50
$GPRMC,200226.750,A,4309.3348,N,07735.0598,W,2.34,24.28,070924,,,A*4B
lng=-77.584327, lat=43.155582, altitude=153.50, speed=2.32, satellites=7, angle=21.9400, fixquality=1
$GPGGA,200227.000,4309.3349,N,07735.0597,W,1,07,1.31,153.5,M,-34.4,M,,*5D
$GPRMC,200227.000,A,4309.3349,N,07735.0597,W,2.07,21.59,070924,,,A*45
lng=-77.584327, lat=43.155582, altitude=153.50, speed=2.34, satellites=7, angle=24.2800, fixquality=1
$GPGGA,200230.000,4309.3362,N,07735.0583,W,1,07,1.31,153.1,M,-34.4,M,,*53
$GPRMC,200230.000,A,4309.3362,N,07735.0583,W,2.44,45.49,070924,,,A*4B
lng=-77.584304, lat=43.155605, altitude=153.10, speed=1.90, satellites=7, angle=42.5400, fixquality=1
$GPGGA,200230.250,4309.3363,N,07735.0580,W,1,07,1.31,153.1,M,-34.4,M,,*56
$GPRMC,200230.250,A,4309.3363,N,07735.0580,W,3.16,56.89,070924,,,A*46
lng=-77.584304, lat=43.155605, altitude=153.10, speed=2.44, satellites=7, angle=45.4900, fixquality=1
$GPGGA,200230.500,4309.3365,N,07735.0576,W,1,07,1.31,153.1,M,-34.4,M,,*5B
$GPRMC,200230.500,A,4309.3365,N,07735.0576,W,3.87,65.11,070924,$GPGGA,200230.750,4309.3366,N,07735.0572,W,1,07,1.31,153.1,M,-34.4,M,,*5B
lng=-77.584297, lat=43.155605, altitude=153.10, speed=3.16, satellites=7, angle=56.8900, fixquality=1
$GPRMC,200231.000,A,4309.3368,N,07735.0566,W,5.54,73.17,070924,,,A*43
$GPGGA,200231.250,4309.3369,N,07735.0560,W,1,07,1.49,153.1,M,-34.4,M,,*5C
lng=-77.584274, lat=43.155616, altitude=153.10, speed=5.54, satellites=7, angle=73.1700, fixquality=1
$GPRMC,200231.500,A,4309.3369,N,07735.0553,W,6.72,82.56,070924,,,A*4D
$GPGGA,200231.750,4309.3370,N,07735.0546,W,1,07,1.49,153.0,M,-34.4,M,,*54
lng=-77.584251, lat=43.155616, altitude=153.10, speed=6.72, satellites=7, angle=82.5600, fixquality=1
$GPRMC,200232.000,A,4309.3371,N,07735.0538,W,7.65,87.59,070924,,,A*42
$GPGGA,200232.250,4309.3369,N,07735.0530,W,1,07,1.49,153.0,M,-34.4,M,,*5B
lng=-77.584228, lat=43.155616, altitude=153.00, speed=7.65, satellites=7, angle=87.5900, fixquality=1
$GPRMC,200232.500,A,4309.3367,N,07735.0520,W,9.04,100.86,070924,,,A*7C
$GPGGA,200232.750,4309.3366,N,07735.0511,W,1,07,1.49,153.0,M,-34.4,M,,*52
lng=-77.584197, lat=43.155616, altitude=153.00, speed=9.04, satellites=7, angle=100.8600, fixquality=1
$GPRMC,200233.000,A,4309.3365,N,07735.0501,W,10.34,100.40,070924,,,A*48
$GPGGA,200233.250,4309.3363,N,07735.0490,W,1,07,1.49,153.1,M,-34.4,M,,*5A
lng=-77.584175, lat=43.155605, altitude=153.00, speed=10.34, satellites=7, angle=100.4000, fixquality=1
$GPRMC,200233.500,A,4309.3362,N,07735.0481,W,11.40,102.17,070924,,,A*41
$GPGGA,200233.750,4309.3361,N,07735.0471,W,1,07,1.49,153.2,M,-34.4,M,,*51
lng=-77.584136, lat=43.155605, altitude=153.10, speed=11.40, satellites=7, angle=102.1700, fixquality=1
$GPRMC,200234.000,A,4309.3359,N,07735.0461,W,12.25,104.67,070924,,,A*44
$GPGGA,200234.250,4309.3357,N,07735.0450,W,1,07,1.49,153.3,M,-34.4,M,,*54
lng=-77.584098, lat=43.155597, altitude=153.20, speed=12.25, satellites=7, angle=104.6700, fixquality=1
$GPRMC,200234.500,A,4309.3353,N,07735.0438,W,13.02,107.98,070924,,,A*40
$GPGGA,200234.750,4309.3350,N,07735.0426,W,1,07,1.50,153.3,M,-34.4,M,,*5F
lng=-77.584068, lat=43.155590, altitude=153.30, speed=13.02, satellites=7, angle=107.9800, fixquality=1
$GPRMC,200235.000,A,4309.3347,N,07735.0414,W,13.59,110.16,070924,,,A*41
$GPGGA,200235.250,4309.3343,N,07735.0401,W,1,07,1.50,153.4,M,-34.4,M,,*5B
lng=-77.584022, lat=43.155574, altitude=153.30, speed=13.59, satellites=7, angle=110.1600, fixquality=1
$GPRMC,200235.500,A,4309.3339,N,07735.0388,W,14.41,112.13,070924,,,A*46
$GPGGA,200235.750,4309.3335,N,07735.0375,W,1,07,1.50,153.5,M,-34.4,M,,*5A
lng=-77.583976, lat=43.155567, altitude=153.40, speed=14.41, satellites=7, angle=112.1300, fixquality=1
$GPRMC,200236.000,A,4309.3330,N,07735.0361,W,15.29,112.71,070924,,,A*45
$GPGGA,200236.250,4309.3325,N,07735.0346,W,1,07,1.49,153.5,M,-34.4,M,,*55
lng=-77.583938, lat=43.155551, altitude=153.50, speed=15.29, satellites=7, angle=112.7100, fixquality=1
$GPRMC,200236.500,A,4309.3320,N,07735.0331,W,16.22,111.82,070924,,,A*43
$GPGGA,200236.750,4309.3315,N,07735.0316,W,1,07,1.50,153.4,M,-34.4,M,,*5F
lng=-77.583885, lat=43.155532, altitude=153.50, speed=16.22, satellites=7, angle=111.8200, fixquality=1
$GPRMC,200237.000,A,4309.3311,N,07735.0299,W,17.39,111.73,070924,,,A*43
$GPGGA,200237.250,4309.3306,N,07735.0282,W,1,07,1.50,153.2,M,-34.4,M,,*53
lng=-77.583831, lat=43.155517, altitude=153.40, speed=17.39, satellites=7, angle=111.7300, fixquality=1
$GPRMC,200237.500,A,4309.3301,N,07735.0265,W,18.12,112.75,070924,,,A*47
$GPGGA,200237.750,4309.3296,N,07735.0247,W,1,07,1.50,153.1,M,-34.4,M,,*54
lng=-77.583770, lat=43.155502, altitude=153.20, speed=18.12, satellites=7, angle=112.7500, fixquality=1
$GPRMC,200238.000,A,4309.3291,N,07735.0230,W,18.80,112.62,070924,,,A*48
$GPGGA,200238.250,4309.3286,N,07735.0211,W,1,07,1.50,152.9,M,-34.4,M,,*55
lng=-77.583717, lat=43.155483, altitude=153.10, speed=18.80, satellites=7, angle=112.6200, fixquality=1
$GPRMC,200238.500,A,4309.3281,N,07735.0192,W,19.52,111.86,070924,,,A*40
$GPGGA,200238.750,4309.3277,N,07735.0174,W,1,07,1.50,152.6,M,-34.4,M,,*51
lng=-77.583648, lat=43.155467, altitude=152.90, speed=19.52, satellites=7, angle=111.8600, fixquality=1
$GPRMC,200239.000,A,4309.3271,N,07735.0154,W,20.40,111.94,070924,,,A*4B
$GPGGA,200239.250,4309.3266,N,07735.0135,W,1,07,1.50,152.4,M,-34.4,M,,*52
lng=-77.583595, lat=43.155452, altitude=152.60, speed=20.40, satellites=7, angle=111.9400, fixquality=1
$GPRMC,200239.500,A,4309.3260,N,07735.0115,W,21.45,112.29,070924,,,A*4A
$GPGGA,200239.750,4309.3255,N,07735.0094,W,1,07,1.50,152.1,M,-34.4,M,,*58
lng=-77.583526, lat=43.155437, altitude=152.40, speed=21.45, satellites=7, angle=112.2900, fixquality=1
$GPRMC,200240.000,A,4309.3249,N,07735.0074,W,22.27,112.26,070924,,,A*44
$GPGGA,200240.250,4309.3243,N,07735.0054,W,1,07,1.50,152.0,M,-34.4,M,,*59
lng=-77.583457, lat=43.155410, altitude=152.10, speed=22.27, satellites=7, angle=112.2600, fixquality=1
$GPRMC,200240.500,A,4309.3237,N,07735.0033,W,22.59,112.52,070924,,,A*41
$GPGGA,200240.750,4309.3231,N,07735.0013,W,1,07,1.50,151.8,M,-34.4,M,,*51
lng=-77.583389, lat=43.155395, altitude=152.00, speed=22.59, satellites=7, angle=112.5200, fixquality=1
$GPRMC,200241.000,A,4309.3225,N,07734.9993,W,22.66,112.79,070924,,,A*48
$GPGGA,200241.250,4309.3219,N,07734.9972,W,1,07,1.50,151.8,M,-34.4,M,,*59
lng=-77.583328, lat=43.155372, altitude=151.80, speed=22.66, satellites=7, angle=112.7900, fixquality=1
$GPRMC,200241.500,A,4309.3213,N,07734.9952,W,22.92,112.36,070924,,,A*45
$GPGGA,200241.750,4309.3207,N,07734.9932,W,1,07,1.50,151.8,M,-34.4,M,,*57
lng=-77.583251, lat=43.155353, altitude=151.80, speed=22.92, satellites=7, angle=112.3600, fixquality=1
$GPRMC,200242.000,A,4309.3201,N,07734.9912,W,22.64,112.20,070924,,,A*4A
$GPGGA,200242.250,4309.3195,N,07734.9892,W,1,07,1.50,151.8,M,-34.4,M,,*52
lng=-77.583183, lat=43.155338, altitude=151.80, speed=22.64, satellites=7, angle=112.2000, fixquality=1
$GPRMC,200242.500,A,4309.3190,N,07734.9873,W,22.40,112.11,070924,,,A*46
$GPGGA,200242.750,4309.3184,N,07734.9853,W,1,07,1.50,151.8,M,-34.4,M,,*5A
lng=-77.583122, lat=43.155315, altitude=151.80, speed=22.40, satellites=7, angle=112.1100, fixquality=1
$GPRMC,200243.000,A,4309.3178,N,07734.9834,W,22.09,112.48,070924,,,A*46
$GPGGA,200243.250,4309.3172,N,07734.9814,W,1,07,1.50,151.8,M,-34.4,M,,*54
lng=-77.583053, lat=43.155296, altitude=151.80, speed=22.09, satellites=7, angle=112.4800, fixquality=1
$GPRMC,200243.500,A,4309.3166,N,07734.9794,W,22.08,112.76,070924,,,A*45
$GPGGA,200243.750,4309.3161,N,07734.9775,W,1,07,1.50,151.8,M,-34.4,M,,*5B
lng=-77.582992, lat=43.155273, altitude=151.80, speed=22.08, satellites=7, angle=112.7600, fixquality=1
$GPRMC,200244.000,A,4309.3155,N,07734.9756,W,21.63,113.05,070924,,,A*42
$GPGGA,200244.250,4309.3150,N,07734.9736,W,1,07,1.50,151.6,M,-34.4,M,,*52
lng=-77.582923, lat=43.155258, altitude=151.80, speed=21.63, satellites=7, angle=113.0500, fixquality=1
$GPRMC,200244.500,A,4309.3145,N,07734.9717,W,21.34,112.49,070924,,,A*48
$GPGGA,200244.750,4309.3140,N,07734.9698,W,1,07,1.50,151.5,M,-34.4,M,,*50
lng=-77.582862, lat=43.155239, altitude=151.60, speed=21.34, satellites=7, angle=112.4900, fixquality=1
$GPRMC,200245.000,A,4309.3135,N,07734.9680,W,21.08,112.85,070924,,,A*4B
$GPGGA,200245.250,4309.3130,N,07734.9661,W,1,07,1.50,151.3,M,-34.4,M,,*53
lng=-77.582794, lat=43.155223, altitude=151.50, speed=21.08, satellites=7, angle=112.8500, fixquality=1
$GPRMC,200245.500,A,4309.3124,N,07734.9643,W,20.75,113.49,070924,,,A*4B
$GPGGA,200245.750,4309.3119,N,07734.9625,W,1,07,1.50,151.2,M,-34.4,M,,*5C
lng=-77.582740, lat=43.155208, altitude=151.30, speed=20.75, satellites=7, angle=113.4900, fixquality=1
$GPRMC,200246.000,A,4309.3114,N,07734.9607,W,20.02,113.77,070924,,,A*43
$GPGGA,200246.250,4309.3108,N,07734.9590,W,1,07,1.50,151.2,M,-34.4,M,,*57
lng=-77.582679, lat=43.155193, altitude=151.20, speed=20.02, satellites=7, angle=113.7700, fixquality=1
$GPRMC,200246.500,A,4309.3103,N,07734.9573,W,18.76,114.91,070924,,,A*47
$GPGGA,200246.750,4309.3099,N,07734.9558,W,1,07,1.50,151.2,M,-34.4,M,,*5F
lng=-77.582626, lat=43.155166, altitude=151.20, speed=18.76, satellites=7, angle=114.9100, fixquality=1
$GPRMC,200247.000,A,4309.3094,N,07734.9543,W,17.04,115.23,070924,,,A*4D
$GPGGA,200247.250,4309.3091,N,07734.9530,W,1,07,1.50,151.3,M,-34.4,M,,*5C
lng=-77.582565, lat=43.155158, altitude=151.20, speed=17.04, satellites=7, angle=115.2300, fixquality=1
$GPRMC,200247.500,A,4309.3087,N,07734.9517,W,15.18,114.45,070924,,,A*45
$GPGGA,200247.750,4309.3083,N,07734.9505,W,1,07,1.50,151.3,M,-34.4,M,,*5C
lng=-77.582527, lat=43.155143, altitude=151.30, speed=15.18, satellites=7, angle=114.4500, fixquality=1
$GPRMC,200248.000,A,4309.3080,N,07734.9493,W,14.02,113.64,070924,,,A*4B
$GPGGA,200248.250,4309.3077,N,07734.9482,W,1,07,1.50,151.3,M,-34.4,M,,*53
lng=-77.582489, lat=43.155136, altitude=151.30, speed=14.02, satellites=7, angle=113.6400, fixquality=1
$GPRMC,200248.500,A,4309.3075,N,07734.9471,W,12.72,109.94,070924,,,A*4D
$GPGGA,200248.750,4309.3073,N,07734.9460,W,1,07,1.50,151.5,M,-34.4,M,,*58
lng=-77.582450, lat=43.155128, altitude=151.30, speed=12.72, satellites=7, angle=109.9400, fixquality=1
$GPRMC,200249.000,A,4309.3072,N,07734.9449,W,12.08,103.67,070924,,,A*4E
$GPGGA,200249.250,4309.3074,N,07734.9438,W,1,07,1.50,151.7,M,-34.4,M,,*54
lng=-77.582412, lat=43.155117, altitude=151.50, speed=12.08, satellites=7, angle=103.6700, fixquality=1
$GPRMC,200249.500,A,4309.3076,N,07734.9427,W,11.83,93.78,070924,,,A*71
$GPGGA,200249.750,4309.3079,N,07734.9416,W,1,07,1.50,151.6,M,-34.4,M,,*51
lng=-77.582382, lat=43.155128, altitude=151.70, speed=11.83, satellites=7, angle=93.7800, fixquality=1
$GPRMC,200250.000,A,4309.3081,N,07734.9406,W,11.46,85.00,070924,,,A*76
$GPGGA,200250.250,4309.3085,N,07734.9396,W,1,07,1.50,151.4,M,-34.4,M,,*52
lng=-77.582344, lat=43.155136, altitude=151.60, speed=11.46, satellites=7, angle=85.0000, fixquality=1
$GPRMC,200250.500,A,4309.3088,N,07734.9388,W,10.74,68.61,070924,,,A*7F
$GPGGA,200250.750,4309.3092,N,07734.9379,W,1,07,1.31,151.5,M,-34.4,M,,*56
lng=-77.582313, lat=43.155143, altitude=151.40, speed=10.74, satellites=7, angle=68.6100, fixquality=1
$GPRMC,200251.000,A,4309.3097,N,07734.9371,W,10.80,56.99,070924,,,A*72
$GPGGA,200251.250,4309.3102,N,07734.9363,W,1,07,1.50,151.6,M,-34.4,M,,*55
lng=-77.582283, lat=43.155158, altitude=151.50, speed=10.80, satellites=7, angle=56.9900, fixquality=1
$GPRMC,200251.500,A,4309.3108,N,07734.9356,W,11.16,44.47,070924,,,A*7B
$GPGGA,200251.750,4309.3115,N,07734.9351,W,1,07,1.50,151.7,M,-34.4,M,,*56
lng=-77.582260, lat=43.155185, altitude=151.60, speed=11.16, satellites=7, angle=44.4700, fixquality=1
$GPRMC,200252.000,A,4309.3124,N,07734.9345,W,11.83,35.12,070924,,,A*7B
$GPGGA,200252.250,4309.3132,N,07734.9340,W,1,07,1.50,151.8,M,-34.4,M,,*5A
lng=-77.582244, lat=43.155208, altitude=151.70, speed=11.83, satellites=7, angle=35.1200, fixquality=1
$GPRMC,200252.500,A,4309.3141,N,07734.9335,W,12.84,28.34,070924,,,A*76
$GPGGA,200252.750,4309.3149,N,07734.9329,W,1,07,1.31,151.8,M,-34.4,M,,*5B
lng=-77.582229, lat=43.155231, altitude=151.80, speed=12.84, satellites=7, angle=28.3400, fixquality=1
$GPRMC,200253.000,A,4309.3157,N,07734.9325,W,12.78,25.94,070924,,,A*70
$GPGGA,200253.250,4309.3164,N,07734.9322,W,1,07,1.50,151.8,M,-34.4,M,,*5C
lng=-77.582206, lat=43.155265, altitude=151.80, speed=12.78, satellites=7, angle=25.9400, fixquality=1
$GPRMC,200253.500,A,4309.3172,N,07734.9321,W,11.69,17.97,070924,,,A*77
$GPGGA,200253.750,4309.3180,N,07734.9318,W,1,07,1.31,152.0,M,-34.4,M,,*56
lng=-77.582199, lat=43.155288, altitude=151.80, speed=11.69, satellites=7, angle=17.9700, fixquality=1
$GPRMC,200254.000,A,4309.3187,N,07734.9315,W,11.20,15.05,070924,,,A*7C
$GPGGA,200254.250,4309.3195,N,07734.9312,W,1,07,1.50,152.0,M,-34.4,M,,*5D
lng=-77.582191, lat=43.155315, altitude=152.00, speed=11.20, satellites=7, angle=15.0500, fixquality=1
$GPRMC,200254.500,A,4309.3203,N,07734.9309,W,10.83,13.44,070924,,,A*70
$GPGGA,200254.750,4309.3211,N,07734.9307,W,1,07,1.50,152.1,M,-34.4,M,,*52
lng=-77.582176, lat=43.155338, altitude=152.00, speed=10.83, satellites=7, angle=13.4400, fixquality=1
$GPRMC,200255.000,A,4309.3218,N,07734.9304,W,10.55,13.19,070924,,,A*70
$GPGGA,200255.250,4309.3226,N,07734.9301,W,1,07,1.50,152.1,M,-34.4,M,,*54
lng=-77.582168, lat=43.155361, altitude=152.10, speed=10.55, satellites=7, angle=13.1900, fixquality=1
$GPRMC,200255.500,A,4309.3233,N,07734.9299,W,10.54,13.72,070924,,,A*75
$GPGGA,200255.750,4309.3241,N,07734.9296,W,1,07,1.50,152.2,M,-34.4,M,,*5C
lng=-77.582160, lat=43.155387, altitude=152.10, speed=10.54, satellites=7, angle=13.7200, fixquality=1
$GPRMC,200256.000,A,4309.3248,N,07734.9293,W,10.60,15.52,070924,,,A*76
$GPGGA,200256.250,4309.3256,N,07734.9290,W,1,07,1.50,152.2,M,-34.4,M,,*5A
lng=-77.582153, lat=43.155410, altitude=152.20, speed=10.60, satellites=7, angle=15.5200, fixquality=1
$GPRMC,200256.500,A,4309.3263,N,07734.9287,W,11.01,16.53,070924,,,A*7B
$GPGGA,200256.750,4309.3270,N,07734.9284,W,1,07,1.50,152.2,M,-34.4,M,,*5E
lng=-77.582145, lat=43.155437, altitude=152.20, speed=11.01, satellites=7, angle=16.5300, fixquality=1
$GPRMC,200257.000,A,4309.3277,N,07734.9281,W,10.99,16.75,070924,,,A*78
$GPGGA,200257.250,4309.3284,N,07734.9279,W,1,07,1.50,152.1,M,-34.4,M,,*50
lng=-77.582138, lat=43.155460, altitude=152.20, speed=10.99, satellites=7, angle=16.7500, fixquality=1
$GPRMC,200257.500,A,4309.3291,N,07734.9276,W,10.71,17.55,070924,,,A*78
$GPGGA,200257.750,4309.3298,N,07734.9273,W,1,07,1.31,152.1,M,-34.4,M,,*55
lng=-77.582130, lat=43.155483, altitude=152.10, speed=10.71, satellites=7, angle=17.5500, fixquality=1
$GPRMC,200258.000,A,4309.3305,N,07734.9270,W,10.66,18.15,070924,,,A*75
$GPGGA,200258.250,4309.3311,N,07734.9268,W,1,07,1.50,152.0,M,-34.4,M,,*53
lng=-77.582115, lat=43.155509, altitude=152.10, speed=10.66, satellites=7, angle=18.1500, fixquality=1
$GPRMC,200258.500,A,4309.3318,N,07734.9265,W,10.64,18.22,070924,,,A*7E
$GPGGA,200258.750,4309.3324,N,07734.9262,W,1,07,1.31,152.0,M,-34.4,M,,*5D
lng=-77.582107, lat=43.155532, altitude=152.00, speed=10.64, satellites=7, angle=18.2200, fixquality=1
$GPRMC,200259.000,A,4309.3331,N,07734.9259,W,10.43,18.78,070924,,,A*74
$GPGGA,200259.250,4309.3337,N,07734.9255,W,1,07,1.50,151.9,M,-34.4,M,,*52
lng=-77.582099, lat=43.155551, altitude=152.00, speed=10.43, satellites=7, angle=18.7800, fixquality=1
$GPRMC,200259.500,A,4309.3344,N,07734.9252,W,10.31,19.37,070924,,,A*77
$GPGGA,200259.750,4309.3350,N,07734.9249,W,1,07,1.50,151.8,M,-34.4,M,,*5A
lng=-77.582084, lat=43.155574, altitude=151.90, speed=10.31, satellites=7, angle=19.3700, fixquality=1
$GPRMC,200300.000,A,4309.3357,N,07734.9246,W,10.00,20.43,070924,,,A*73
$GPGGA,200300.250,4309.3363,N,07734.9243,W,1,07,1.50,151.7,M,-34.4,M,,*57
lng=-77.582077, lat=43.155597, altitude=151.80, speed=10.00, satellites=7, angle=20.4300, fixquality=1
$GPRMC,200300.500,A,4309.3369,N,07734.9240,W,9.67,20.24,070924,,,A*45
$GPGGA,200300.750,4309.3375,N,07734.9238,W,1,07,1.50,151.6,M,-34.4,M,,*58
lng=-77.582061, lat=43.155616, altitude=151.70, speed=9.67, satellites=7, angle=20.2400, fixquality=1
$GPRMC,200301.000,A,4309.3381,N,07734.9235,W,9.35,19.71,070924,,,A*48
$GPGGA,200301.250,4309.3387,N,07734.9233,W,1,07,1.50,151.5,M,-34.4,M,,*59
lng=-77.582054, lat=43.155632, altitude=151.60, speed=9.35, satellites=7, angle=19.7100, fixquality=1
$GPRMC,200301.500,A,4309.3393,N,07734.9232,W,9.06,17.79,070924,,,A*4F
$GPGGA,200301.750,4309.3398,N,07734.9229,W,1,07,1.50,151.4,M,-34.4,M,,*58
lng=-77.582054, lat=43.155654, altitude=151.50, speed=9.06, satellites=7, angle=17.7900, fixquality=1
$GPRMC,200302.000,A,4309.3404,N,07734.9227,W,9.05,18.06,070924,,,A*40
$GPGGA,200302.250,4309.3410,N,07734.9224,W,1,07,1.50,151.4,M,-34.4,M,,*54
lng=-77.582046, lat=43.155673, altitude=151.40, speed=9.05, satellites=7, angle=18.0600, fixquality=1
$GPRMC,200302.500,A,4309.3417,N,07734.9221,W,9.33,20.25,070924,,,A*4E
$GPGGA,200302.750,4309.3422,N,07734.9218,W,1,07,1.50,151.2,M,-34.4,M,,*59
lng=-77.582031, lat=43.155696, altitude=151.40, speed=9.33, satellites=7, angle=20.2500, fixquality=1
$GPRMC,200303.000,A,4309.3428,N,07734.9215,W,9.25,21.55,070924,,,A*40
$GPGGA,200303.250,4309.3433,N,07734.9212,W,1,07,1.50,151.2,M,-34.4,M,,*57
lng=-77.582023, lat=43.155712, altitude=151.20, speed=9.25, satellites=7, angle=21.5500, fixquality=1
$GPRMC,200303.500,A,4309.3438,N,07734.9209,W,8.96,23.11,070924,,,A*42
$GPGGA,200303.750,4309.3444,N,07734.9206,W,1,07,1.50,151.0,M,-34.4,M,,*55
lng=-77.582015, lat=43.155727, altitude=151.20, speed=8.96, satellites=7, angle=23.1100, fixquality=1
$GPRMC,200304.000,A,4309.3449,N,07734.9202,W,8.99,23.10,070924,,,A*43
$GPGGA,200304.250,4309.3455,N,07734.9199,W,1,07,1.50,150.9,M,-34.4,M,,*5A
lng=-77.582008, lat=43.155746, altitude=151.00, speed=8.99, satellites=7, angle=23.1000, fixquality=1
$GPRMC,200304.500,A,4309.3461,N,07734.9196,W,8.94,23.29,070924,,,A*45
$GPGGA,200304.750,4309.3466,N,07734.9193,W,1,07,1.50,150.8,M,-34.4,M,,*54
lng=-77.581993, lat=43.155769, altitude=150.90, speed=8.94, satellites=7, angle=23.2900, fixquality=1
$GPRMC,200305.000,A,4309.3472,N,07734.9189,W,8.68,23.99,070924,,,A*45
$GPGGA,200305.250,4309.3477,N,07734.9186,W,1,07,1.50,150.7,M,-34.4,M,,*5B
lng=-77.581985, lat=43.155784, altitude=150.80, speed=8.68, satellites=7, angle=23.9900, fixquality=1
$GPRMC,200305.500,A,4309.3482,N,07734.9183,W,8.45,24.43,070924,,,A*4A
$GPGGA,200305.750,4309.3488,N,07734.9180,W,1,07,1.50,150.6,M,-34.4,M,,*59
lng=-77.581977, lat=43.155803, altitude=150.70, speed=8.45, satellites=7, angle=24.4300, fixquality=1
$GPRMC,200306.000,A,4309.3493,N,07734.9177,W,8.12,23.04,070924,,,A*41
$GPGGA,200306.250,4309.3498,N,07734.9174,W,1,07,1.50,150.5,M,-34.4,M,,*56
lng=-77.581954, lat=43.155818, altitude=150.60, speed=8.12, satellites=7, angle=23.0400, fixquality=1
$GPRMC,200306.500,A,4309.3503,N,07734.9172,W,7.35,21.58,070924,,,A*48
$GPGGA,200306.750,4309.3507,N,07734.9170,W,1,07,1.50,150.5,M,-34.4,M,,*50
lng=-77.581947, lat=43.155834, altitude=150.50, speed=7.35, satellites=7, angle=21.5800, fixquality=1
$GPRMC,200307.000,A,4309.3511,N,07734.9167,W,6.46,18.71,070924,,,A*4F
$GPGGA,200307.250,4309.3515,N,07734.9166,W,1,07,1.50,150.5,M,-34.4,M,,*50
lng=-77.581939, lat=43.155849, altitude=150.50, speed=6.46, satellites=7, angle=18.7100, fixquality=1
$GPRMC,200307.500,A,4309.3518,N,07734.9164,W,5.36,20.00,070924,,,A*49
$GPGGA,200307.750,4309.3521,N,07734.9163,W,1,07,1.50,150.5,M,-34.4,M,,*57
lng=-77.581939, lat=43.155860, altitude=150.50, speed=5.36, satellites=7, angle=20.0000, fixquality=1
$GPRMC,200308.000,A,4309.3524,N,07734.9162,W,4.11,15.80,070924,,,A*40
$GPGGA,200308.250,4309.3525,N,07734.9162,W,1,07,1.50,150.4,M,-34.4,M,,*59
lng=-77.581932, lat=43.155876, altitude=150.50, speed=4.11, satellites=7, angle=15.8000, fixquality=1
$GPRMC,200308.500,A,4309.3526,N,07734.9161,W,2.54,14.91,070924,,,A*42
$GPGGA,200308.750,4309.3527,N,07734.9161,W,1,07,1.50,150.4,M,-34.4,M,,*5D
lng=-77.581932, lat=43.155876, altitude=150.40, speed=2.54, satellites=7, angle=14.9100, fixquality=1
$GPRMC,200309.000,A,4309.3527,N,07734.9160,W,1.32,14.91,070924,,,A*45
$GPGGA,200309.250,4309.3527,N,07734.9160,W,1,07,1.31,150.3,M,-34.4,M,,*58
lng=-77.581932, lat=43.155876, altitude=150.40, speed=1.32, satellites=7, angle=14.9100, fixquality=1
$GPGGA,200311.250,4309.3538,N,07734.9152,W,1,07,1.31,149.9,M,-34.4,M,,*5C
$GPRMC,200311.250,A,4309.3538,N,07734.9152,W,2.43,14.91,070924,$GPGGA,200311.500,4309.3541,N,07734.9151,W,1,07,1.31,149.9,M,-34.4,M,,*53
lng=-77.581916, lat=43.155899, altitude=149.90, speed=1.90, satellites=7, angle=14.9100, fixquality=1
$GPRMC,200311.750,A,4309.3544,N,07734.9149,W,3.78,26.82,070924,,,A*4F
$GPGGA,200312.000,4309.3548,N,07734.9145,W,1,07,1.31,149.9,M,-34.4,M,,*59
lng=-77.581916, lat=43.155906, altitude=149.90, speed=3.78, satellites=7, angle=26.8200, fixquality=1
$GPRMC,200312.250,A,4309.3552,N,07734.9141,W,5.72,41.58,070924,,,A*4C
$GPGGA,200312.500,4309.3555,N,07734.9134,W,1,07,1.50,149.8,M,-34.4,M,,*50
lng=-77.581901, lat=43.155918, altitude=149.90, speed=5.72, satellites=7, angle=41.5800, fixquality=1
$GPRMC,200312.750,A,4309.3558,N,07734.9129,W,6.82,53.37,070924,,,A*4B
$GPGGA,200313.000,4309.3561,N,07734.9123,W,1,07,1.50,149.8,M,-34.4,M,,*55
lng=-77.581886, lat=43.155933, altitude=149.80, speed=6.82, satellites=7, angle=53.3700, fixquality=1
$GPRMC,200313.250,A,4309.3563,N,07734.9117,W,7.19,62.37,070924,,,A*4B
$GPGGA,200313.500,4309.3565,N,07734.9110,W,1,07,1.50,149.7,M,-34.4,M,,*5B
lng=-77.581863, lat=43.155941, altitude=149.80, speed=7.19, satellites=7, angle=62.3700, fixquality=1
$GPRMC,200313.750,A,4309.3568,N,07734.9103,W,7.69,68.66,070924,,,A*49
$GPGGA,200314.000,4309.3570,N,07734.9094,W,1,07,1.31,149.6,M,-34.4,M,,*56
lng=-77.581832, lat=43.155948, altitude=149.70, speed=7.69, satellites=7, angle=68.6600, fixquality=1
$GPRMC,200314.250,A,4309.3572,N,07734.9083,W,9.29,75.48,070924,,,A*43
$GPGGA,200314.500,4309.3574,N,07734.9074,W,1,07,1.50,149.5,M,-34.4,M,,*5D
lng=-77.581802, lat=43.155956, altitude=149.60, speed=9.29, satellites=7, angle=75.4800, fixquality=1
$GPRMC,200314.750,A,4309.3576,N,07734.9064,W,10.19,79.45,070924,,,A*71
$GPGGA,200315.000,4309.3577,N,07734.9053,W,1,06,1.56,149.4,M,-34.4,M,,*59
lng=-77.581771, lat=43.155956, altitude=149.50, speed=10.19, satellites=7, angle=79.4500, fixquality=1
$GPRMC,200315.250,A,4309.3579,N,07734.9041,W,11.28,83.40,070924,,,A*7E
$GPGGA,200315.500,4309.3580,N,07734.9029,W,1,06,1.56,149.4,M,-34.4,M,,*59
lng=-77.581741, lat=43.155963, altitude=149.40, speed=11.28, satellites=6, angle=83.4000, fixquality=1
$GPRMC,200315.750,A,4309.3581,N,07734.9016,W,12.49,84.22,070924,,,A*79
$GPGGA,200316.000,4309.3583,N,07734.9002,W,1,07,1.50,149.3,M,-34.4,M,,*55
lng=-77.581687, lat=43.155963, altitude=149.40, speed=12.49, satellites=6, angle=84.2200, fixquality=1
$GPRMC,200316.250,A,4309.3585,N,07734.8987,W,14.51,83.94,070924,,,A*7E
$GPGGA,200316.500,4309.3586,N,07734.8972,W,1,07,1.50,149.3,M,-34.4,M,,*5A
lng=-77.581649, lat=43.155971, altitude=149.30, speed=14.51, satellites=7, angle=83.9400, fixquality=1
$GPRMC,200316.750,A,4309.3588,N,07734.8957,W,15.60,84.59,070924,,,A*7E
$GPGGA,200317.000,4309.3589,N,07734.8941,W,1,07,1.31,149.3,M,-34.4,M,,*56
lng=-77.581588, lat=43.155982, altitude=149.30, speed=15.60, satellites=7, angle=84.5900, fixquality=1
$GPRMC,200317.250,A,4309.3590,N,07734.8925,W,16.54,84.05,070924,,,A*7B
$GPGGA,200317.500,4309.3591,N,07734.8909,W,1,07,1.50,149.2,M,-34.4,M,,*50
lng=-77.581542, lat=43.155982, altitude=149.30, speed=16.54, satellites=7, angle=84.0500, fixquality=1
$GPRMC,200317.750,A,4309.3593,N,07734.8892,W,17.26,84.11,070924,,,A*71
$GPGGA,200318.000,4309.3595,N,07734.8875,W,1,07,1.50,149.2,M,-34.4,M,,*54
lng=-77.581489, lat=43.155990, altitude=149.20, speed=17.26, satellites=7, angle=84.1100, fixquality=1
$GPRMC,200318.250,A,4309.3596,N,07734.8857,W,17.92,84.20,070924,,,A*7A
$GPGGA,200318.500,4309.3598,N,07734.8838,W,1,07,1.50,149.2,M,-34.4,M,,*55
lng=-77.581428, lat=43.155990, altitude=149.20, speed=17.92, satellites=7, angle=84.2000, fixquality=1
$GPRMC,200318.750,A,4309.3600,N,07734.8820,W,18.98,83.23,070924,,,A*72
$GPGGA,200319.000,4309.3602,N,07734.8801,W,1,07,1.50,149.1,M,-34.4,M,,*58
lng=-77.581367, lat=43.155998, altitude=149.20, speed=18.98, satellites=7, angle=83.2300, fixquality=1
$GPRMC,200319.250,A,4309.3603,N,07734.8781,W,19.67,83.54,070924,,,A*70
$GPGGA,200319.500,4309.3605,N,07734.8762,W,1,07,1.50,149.0,M,-34.4,M,,*51
lng=-77.581298, lat=43.156005, altitude=149.10, speed=19.67, satellites=7, angle=83.5400, fixquality=1
$GPRMC,200319.750,A,4309.3606,N,07734.8742,W,20.12,83.99,070924,,,A*76
$GPGGA,200320.000,4309.3608,N,07734.8722,W,1,07,1.31,149.0,M,-34.4,M,,*50
lng=-77.581230, lat=43.156013, altitude=149.00, speed=20.12, satellites=7, angle=83.9900, fixquality=1
$GPRMC,200320.250,A,4309.3608,N,07734.8699,W,21.29,84.55,070924,,,A*7E
$GPGGA,200320.500,4309.3607,N,07734.8675,W,1,07,1.50,149.0,M,-34.4,M,,*5E
lng=-77.581169, lat=43.156013, altitude=149.00, speed=21.29, satellites=7, angle=84.5500, fixquality=1
$GPRMC,200320.750,A,4309.3607,N,07734.8652,W,22.21,86.95,070924,,,A*76
$GPGGA,200321.000,4309.3608,N,07734.8629,W,1,07,1.50,149.1,M,-34.4,M,,*5D
lng=-77.581085, lat=43.156013, altitude=149.00, speed=22.21, satellites=7, angle=86.9500, fixquality=1
$GPRMC,200321.250,A,4309.3609,N,07734.8606,W,23.20,87.26,070924,,,A*74
$GPGGA,200321.500,4309.3610,N,07734.8583,W,1,07,1.50,149.1,M,-34.4,M,,*52
lng=-77.581016, lat=43.156013, altitude=149.10, speed=23.20, satellites=7, angle=87.2600, fixquality=1
$GPRMC,200321.750,A,4309.3611,N,07734.8560,W,23.81,86.99,070924,,,A*75
$GPGGA,200322.000,4309.3612,N,07734.8537,W,1,07,1.50,149.1,M,-34.4,M,,*59
lng=-77.580932, lat=43.156021, altitude=149.10, speed=23.81, satellites=7, angle=86.9900, fixquality=1
$GPRMC,200322.250,A,4309.3613,N,07734.8513,W,24.54,86.59,070924,,,A*76
$GPGGA,200322.500,4309.3613,N,07734.8488,W,1,07,1.50,149.1,M,-34.4,M,,*58
lng=-77.580848, lat=43.156021, altitude=149.10, speed=24.54, satellites=7, angle=86.5900, fixquality=1
$GPRMC,200322.750,A,4309.3613,N,07734.8461,W,25.56,86.66,070924,,,A*78
$GPGGA,200323.000,4309.3614,N,07734.8434,W,1,07,1.50,149.2,M,-34.4,M,,*5F
lng=-77.580772, lat=43.156021, altitude=149.10, speed=25.56, satellites=7, angle=86.6600, fixquality=1
$GPRMC,200323.250,A,4309.3615,N,07734.8408,W,26.80,85.35,070924,,,A*78
$GPGGA,200323.500,4309.3616,N,07734.8381,W,1,07,1.50,149.2,M,-34.4,M,,*51
lng=-77.580680, lat=43.156021, altitude=149.20, speed=26.80, satellites=7, angle=85.3500, fixquality=1
$GPRMC,200323.750,A,4309.3618,N,07734.8353,W,27.65,85.11,070924,,,A*75
$GPGGA,200324.000,4309.3619,N,07734.8325,W,1,07,1.50,149.3,M,-34.4,M,,*53
lng=-77.580589, lat=43.156028, altitude=149.20, speed=27.65, satellites=7, angle=85.1100, fixquality=1
$GPRMC,200324.250,A,4309.3620,N,07734.8296,W,28.35,85.15,070924,,,A*7A
$GPGGA,200324.500,4309.3622,N,07734.8267,W,1,07,1.50,149.4,M,-34.4,M,,*5E
lng=-77.580490, lat=43.156028, altitude=149.30, speed=28.35, satellites=7, angle=85.1500, fixquality=1
$GPRMC,200324.750,A,4309.3624,N,07734.8238,W,28.82,85.37,070924,,,A*73
$GPGGA,200325.000,4309.3625,N,07734.8210,W,1,07,1.50,149.4,M,-34.4,M,,*5D
lng=-77.580398, lat=43.156040, altitude=149.40, speed=28.82, satellites=7, angle=85.3700, fixquality=1
$GPRMC,200325.250,A,4309.3627,N,07734.8180,W,29.30,85.90,070924,,,A*71
$GPGGA,200325.500,4309.3628,N,07734.8151,W,1,07,1.50,149.5,M,-34.4,M,,*52
lng=-77.580299, lat=43.156047, altitude=149.40, speed=29.30, satellites=7, angle=85.9000, fixquality=1
$GPRMC,200325.750,A,4309.3630,N,07734.8123,W,29.39,86.08,070924,,,A*70
$GPGGA,200326.000,4309.3631,N,07734.8094,W,1,07,1.31,149.5,M,-34.4,M,,*53
lng=-77.580207, lat=43.156047, altitude=149.50, speed=29.39, satellites=7, angle=86.0800, fixquality=1
$GPRMC,200326.250,A,4309.3633,N,07734.8066,W,29.22,85.80,070924,,,A*7C
$GPGGA,200326.500,4309.3635,N,07734.8037,W,1,07,1.50,149.5,M,-34.4,M,,*5C
lng=-77.580108, lat=43.156055, altitude=149.50, speed=29.22, satellites=7, angle=85.8000, fixquality=1
$GPRMC,200326.750,A,4309.3636,N,07734.8009,W,28.99,85.51,070924,,,A*78
$GPGGA,200327.000,4309.3638,N,07734.7981,W,1,07,1.50,149.5,M,-34.4,M,,*5E
lng=-77.580009, lat=43.156063, altitude=149.50, speed=28.99, satellites=7, angle=85.5100, fixquality=1
$GPRMC,200327.250,A,4309.3639,N,07734.7953,W,28.80,85.57,070924,,,A*74
$GPGGA,200327.500,4309.3640,N,07734.7925,W,1,07,1.50,149.6,M,-34.4,M,,*59
lng=-77.579925, lat=43.156063, altitude=149.50, speed=28.80, satellites=7, angle=85.5700, fixquality=1
$GPRMC,200327.750,A,4309.3642,N,07734.7898,W,28.04,86.10,070924,,,A*77
$GPGGA,200328.000,4309.3643,N,07734.7871,W,1,07,1.31,149.5,M,-34.4,M,,*54
lng=-77.579833, lat=43.156070, altitude=149.60, speed=28.04, satellites=7, angle=86.1000, fixquality=1
$GPRMC,200328.250,A,4309.3644,N,07734.7844,W,28.06,86.77,070924,,,A*79
$GPGGA,200328.500,4309.3645,N,07734.7818,W,1,07,1.31,149.5,M,-34.4,M,,*58
lng=-77.579734, lat=43.156070, altitude=149.50, speed=28.06, satellites=7, angle=86.7700, fixquality=1
$GPRMC,200328.750,A,4309.3646,N,07734.7791,W,28.01,86.89,070924,,,A*7F
$GPGGA,200329.000,4309.3647,N,07734.7764,W,1,07,1.31,149.5,M,-34.4,M,,*5A
lng=-77.579658, lat=43.156078, altitude=149.50, speed=28.01, satellites=7, angle=86.8900, fixquality=1
$GPRMC,200329.250,A,4309.3648,N,07734.7737,W,28.06,86.83,070924,,,A*74
$GPGGA,200329.500,4309.3650,N,07734.7710,W,1,07,1.50,149.6,M,-34.4,M,,*5E
lng=-77.579566, lat=43.156078, altitude=149.50, speed=28.06, satellites=7, angle=86.8300, fixquality=1
$GPRMC,200329.750,A,4309.3651,N,07734.7683,W,28.28,87.18,070924,,,A*78
$GPGGA,200330.000,4309.3651,N,07734.7654,W,1,07,1.50,149.7,M,-34.4,M,,*52
lng=-77.579467, lat=43.156085, altitude=149.60, speed=28.28, satellites=7, angle=87.1800, fixquality=1
$GPRMC,200330.250,A,4309.3652,N,07734.7626,W,28.47,87.27,070924,,,A*7C
$GPGGA,200330.500,4309.3653,N,07734.7597,W,1,07,1.50,149.6,M,-34.4,M,,*58
lng=-77.579376, lat=43.156085, altitude=149.70, speed=28.47, satellites=7, angle=87.2700, fixquality=1
$GPRMC,200330.750,A,4309.3654,N,07734.7569,W,28.69,87.16,070924,,,A*79
$GPGGA,200331.000,4309.3655,N,07734.7540,W,1,07,1.31,149.6,M,-34.4,M,,*57
lng=-77.579277, lat=43.156085, altitude=149.60, speed=28.69, satellites=7, angle=87.1600, fixquality=1
$GPRMC,200331.250,A,4309.3656,N,07734.7513,W,28.64,87.01,070924,,,A*79
$GPGGA,200331.500,4309.3658,N,07734.7485,W,1,07,1.50,149.6,M,-34.4,M,,*50
lng=-77.579193, lat=43.156093, altitude=149.60, speed=28.64, satellites=7, angle=87.0100, fixquality=1
$GPRMC,200331.750,A,4309.3659,N,07734.7458,W,28.56,86.78,070924,,,A*73
$GPGGA,200332.000,4309.3660,N,07734.7431,W,1,07,1.50,149.5,M,-34.4,M,,*51
lng=-77.579093, lat=43.156093, altitude=149.60, speed=28.56, satellites=7, angle=86.7800, fixquality=1
$GPRMC,200332.250,A,4309.3661,N,07734.7403,W,28.44,86.94,070924,,,A*71
$GPGGA,200332.500,4309.3662,N,07734.7376,W,1,07,1.50,149.5,M,-34.4,M,,*52
lng=-77.579002, lat=43.156105, altitude=149.50, speed=28.44, satellites=7, angle=86.9400, fixquality=1
$GPRMC,200332.750,A,4309.3663,N,07734.7349,W,28.16,86.93,070924,,,A*7F
$GPGGA,200333.000,4309.3664,N,07734.7321,W,1,07,1.50,149.4,M,-34.4,M,,*53
lng=-77.578910, lat=43.156105, altitude=149.50, speed=28.16, satellites=7, angle=86.9300, fixquality=1
$GPRMC,200333.250,A,4309.3665,N,07734.7294,W,28.43,86.82,070924,,,A*7C
$GPGGA,200333.500,4309.3665,N,07734.7266,W,1,07,1.50,149.4,M,-34.4,M,,*55
lng=-77.578826, lat=43.156112, altitude=149.40, speed=28.43, satellites=7, angle=86.8200, fixquality=1
$GPRMC,200333.750,A,4309.3666,N,07734.7238,W,28.71,86.98,070924,,,A*76
$GPGGA,200334.000,4309.3667,N,07734.7211,W,1,07,1.50,149.4,M,-34.4,M,,*55
lng=-77.578727, lat=43.156112, altitude=149.40, speed=28.71, satellites=7, angle=86.9800, fixquality=1
$GPRMC,200334.250,A,4309.3668,N,07734.7183,W,28.83,86.50,070924,,,A*70
$GPGGA,200334.500,4309.3669,N,07734.7154,W,1,07,1.50,149.3,M,-34.4,M,,*5B
lng=-77.578636, lat=43.156112, altitude=149.40, speed=28.83, satellites=7, angle=86.5000, fixquality=1
$GPRMC,200334.750,A,4309.3669,N,07734.7126,W,28.98,86.65,070924,,,A*77
$GPGGA,200335.000,4309.3670,N,07734.7098,W,1,07,1.50,149.3,M,-34.4,M,,*56
lng=-77.578536, lat=43.156112, altitude=149.30, speed=28.98, satellites=7, angle=86.6500, fixquality=1
$GPRMC,200335.250,A,4309.3671,N,07734.7070,W,29.73,86.51,070924,,,A*7B
$GPGGA,200335.500,4309.3672,N,07734.7041,W,1,07,1.50,149.3,M,-34.4,M,,*55
lng=-77.578453, lat=43.156120, altitude=149.30, speed=29.73, satellites=7, angle=86.5100, fixquality=1
$GPRMC,200335.750,A,4309.3673,N,07734.7012,W,30.04,86.55,070924,,,A*74
$GPGGA,200336.000,4309.3675,N,07734.6982,W,1,07,1.50,149.2,M,-34.4,M,,*52
lng=-77.578353, lat=43.156120, altitude=149.30, speed=30.04, satellites=7, angle=86.5500, fixquality=1
$GPRMC,200336.250,A,4309.3676,N,07734.6953,W,30.54,86.87,070924,,,A*70
$GPGGA,200336.500,4309.3677,N,07734.6923,W,1,07,1.50,149.2,M,-34.4,M,,*5E
lng=-77.578254, lat=43.156127, altitude=149.20, speed=30.54, satellites=7, angle=86.8700, fixquality=1
$GPRMC,200336.750,A,4309.3678,N,07734.6893,W,30.60,87.07,070924,,,A*78
$GPGGA,200337.000,4309.3679,N,07734.6863,W,1,07,1.31,149.2,M,-34.4,M,,*56
lng=-77.578155, lat=43.156127, altitude=149.20, speed=30.60, satellites=7, angle=87.0700, fixquality=1
$GPRMC,200337.250,A,4309.3680,N,07734.6833,W,31.15,87.68,070924,,,A*7B
$GPGGA,200337.500,4309.3681,N,07734.6803,W,1,07,1.50,149.1,M,-34.4,M,,*56
lng=-77.578048, lat=43.156135, altitude=149.20, speed=31.15, satellites=7, angle=87.6800, fixquality=1
$GPRMC,200337.750,A,4309.3682,N,07734.6773,W,31.38,87.59,070924,,,A*7A
$GPGGA,200338.000,4309.3683,N,07734.6742,W,1,07,1.50,149.1,M,-34.4,M,,*54
lng=-77.577957, lat=43.156135, altitude=149.10, speed=31.38, satellites=7, angle=87.5900, fixquality=1
$GPRMC,200338.250,A,4309.3684,N,07734.6712,W,31.52,87.42,070924,,,A*77
$GPGGA,200338.500,4309.3685,N,07734.6681,W,1,07,1.50,149.1,M,-34.4,M,,*59
lng=-77.577857, lat=43.156135, altitude=149.10, speed=31.52, satellites=7, angle=87.4200, fixquality=1
$GPRMC,200338.750,A,4309.3686,N,07734.6650,W,31.99,87.23,070924,,,A*77
$GPGGA,200339.000,4309.3687,N,07734.6619,W,1,07,1.50,149.1,M,-34.4,M,,*5E
lng=-77.577751, lat=43.156143, altitude=149.10, speed=31.99, satellites=7, angle=87.2300, fixquality=1
$GPRMC,200339.250,A,4309.3689,N,07734.6588,W,32.48,86.49,070924,,,A*78
$GPGGA,200339.500,4309.3689,N,07734.6557,W,1,07,1.50,149.1,M,-34.4,M,,*5C
lng=-77.577644, lat=43.156150, altitude=149.10, speed=32.48, satellites=7, angle=86.4900, fixquality=1
$GPRMC,200339.750,A,4309.3690,N,07734.6525,W,32.51,87.15,070924,,,A*72
$GPGGA,200340.000,4309.3691,N,07734.6494,W,1,07,1.50,149.2,M,-34.4,M,,*53
lng=-77.577537, lat=43.156150, altitude=149.10, speed=32.51, satellites=7, angle=87.1500, fixquality=1
$GPRMC,200340.250,A,4309.3692,N,07734.6462,W,32.79,87.46,070924,,,A*75
$GPGGA,200340.500,4309.3692,N,07734.6431,W,1,07,1.50,149.3,M,-34.4,M,,*5B
lng=-77.577430, lat=43.156150, altitude=149.20, speed=32.79, satellites=7, angle=87.4600, fixquality=1
$GPRMC,200340.750,A,4309.3693,N,07734.6399,W,32.79,87.43,070924,,,A*77
$GPGGA,200341.000,4309.3694,N,07734.6368,W,1,07,1.50,149.3,M,-34.4,M,,*52
lng=-77.577339, lat=43.156150, altitude=149.30, speed=32.79, satellites=7, angle=87.4300, fixquality=1
$GPRMC,200341.250,A,4309.3695,N,07734.6337,W,32.79,87.72,070924,,,A*73
$GPGGA,200341.500,4309.3696,N,07734.6305,W,1,07,1.50,149.3,M,-34.4,M,,*5E
lng=-77.577232, lat=43.156162, altitude=149.30, speed=32.79, satellites=7, angle=87.7200, fixquality=1
$GPRMC,200341.750,A,4309.3697,N,07734.6273,W,33.20,87.47,070924,,,A*7E
$GPGGA,200342.000,4309.3698,N,07734.6240,W,1,07,1.50,149.3,M,-34.4,M,,*56
lng=-77.577125, lat=43.156162, altitude=149.30, speed=33.20, satellites=7, angle=87.4700, fixquality=1
$GPRMC,200342.250,A,4309.3699,N,07734.6208,W,33.43,87.13,070924,,,A*7E
$GPGGA,200342.500,4309.3699,N,07734.6175,W,1,07,1.50,149.3,M,-34.4,M,,*57
lng=-77.577011, lat=43.156169, altitude=149.30, speed=33.43, satellites=7, angle=87.1300, fixquality=1
$GPRMC,200342.750,A,4309.3700,N,07734.6142,W,33.83,87.51,070924,,,A*7D
$GPGGA,200343.000,4309.3701,N,07734.6109,W,1,07,1.50,149.4,M,-34.4,M,,*5F
lng=-77.576904, lat=43.156169, altitude=149.30, speed=33.83, satellites=7, angle=87.5100, fixquality=1
$GPRMC,200343.250,A,4309.3702,N,07734.6076,W,34.22,87.26,070924,,,A*71
$GPGGA,200343.500,4309.3704,N,07734.6042,W,1,07,1.50,149.4,M,-34.4,M,,*51
lng=-77.576789, lat=43.156169, altitude=149.40, speed=34.22, satellites=7, angle=87.2600, fixquality=1
$GPRMC,200343.750,A,4309.3705,N,07734.6008,W,34.49,87.39,070924,,,A*79
$GPGGA,200344.000,4309.3705,N,07734.5974,W,1,07,1.50,149.4,M,-34.4,M,,*5D
lng=-77.576675, lat=43.156177, altitude=149.40, speed=34.49, satellites=7, angle=87.3900, fixquality=1
$GPRMC,200344.250,A,4309.3706,N,07734.5941,W,34.58,87.14,070924,,,A*70
$GPGGA,200344.500,4309.3707,N,07734.5907,W,1,07,1.50,149.4,M,-34.4,M,,*5E
lng=-77.576568, lat=43.156177, altitude=149.40, speed=34.58, satellites=7, angle=87.1400, fixquality=1
$GPRMC,200344.750,A,4309.3708,N,07734.5873,W,35.01,87.17,070924,,,A*75
$GPGGA,200345.000,4309.3709,N,07734.5838,W,1,07,1.50,149.5,M,-34.4,M,,*58
lng=-77.576454, lat=43.156177, altitude=149.40, speed=35.01, satellites=7, angle=87.1700, fixquality=1
$GPRMC,200345.250,A,4309.3709,N,07734.5804,W,35.14,87.00,070924,,,A*72
$GPGGA,200345.500,4309.3710,N,07734.5770,W,1,07,1.50,149.4,M,-34.4,M,,*57
lng=-77.576339, lat=43.156185, altitude=149.50, speed=35.14, satellites=7, angle=87.0000, fixquality=1
$GPRMC,200345.750,A,4309.3710,N,07734.5737,W,35.18,86.88,070924,,,A*7D
$GPGGA,200346.000,4309.3711,N,07734.5703,W,1,07,1.50,149.2,M,-34.4,M,,*52
lng=-77.576225, lat=43.156185, altitude=149.40, speed=35.18, satellites=7, angle=86.8800, fixquality=1
$GPRMC,200346.250,A,4309.3711,N,07734.5668,W,35.62,86.34,070924,,,A*7B
$GPGGA,200346.500,4309.3712,N,07734.5634,W,1,07,1.50,149.0,M,-34.4,M,,*53
lng=-77.576118, lat=43.156185, altitude=149.20, speed=35.62, satellites=7, angle=86.3400, fixquality=1
$GPRMC,200346.750,A,4309.3713,N,07734.5600,W,35.96,85.56,070924,,,A*7E
$GPGGA,200347.000,4309.3713,N,07734.5565,W,1,07,1.50,148.6,M,-34.4,M,,*56
lng=-77.576004, lat=43.156185, altitude=149.00, speed=35.96, satellites=7, angle=85.5600, fixquality=1
$GPRMC,200347.250,A,4309.3715,N,07734.5530,W,36.41,85.00,070924,,,A*76
$GPGGA,200347.500,4309.3716,N,07734.5495,W,1,07,1.50,148.2,M,-34.4,M,,*5C
lng=-77.575889, lat=43.156192, altitude=148.60, speed=36.41, satellites=7, angle=85.0000, fixquality=1
$GPRMC,200347.750,A,4309.3718,N,07734.5459,W,36.55,85.41,070924,,,A*70
$GPGGA,200348.000,4309.3720,N,07734.5423,W,1,07,1.50,147.9,M,-34.4,M,,*5A
lng=-77.575767, lat=43.156192, altitude=148.20, speed=36.55, satellites=7, angle=85.4100, fixquality=1
$GPRMC,200348.250,A,4309.3721,N,07734.5387,W,38.04,85.90,070924,,,A*72
$GPGGA,200348.500,4309.3723,N,07734.5350,W,1,07,1.50,147.5,M,-34.4,M,,*53
lng=-77.575645, lat=43.156200, altitude=147.90, speed=38.04, satellites=7, angle=85.9000, fixquality=1
$GPRMC,200348.750,A,4309.3724,N,07734.5314,W,38.51,86.20,070924,,,A*70
$GPGGA,200349.000,4309.3726,N,07734.5277,W,1,07,1.50,147.2,M,-34.4,M,,*51
lng=-77.575523, lat=43.156208, altitude=147.50, speed=38.51, satellites=7, angle=86.2000, fixquality=1
$GPRMC,200349.250,A,4309.3727,N,07734.5240,W,38.61,86.65,070924,,,A*75
$GPGGA,200349.500,4309.3729,N,07734.5204,W,1,07,1.50,146.9,M,-34.4,M,,*55
lng=-77.575401, lat=43.156208, altitude=147.20, speed=38.61, satellites=7, angle=86.6500, fixquality=1
$GPRMC,200349.750,A,4309.3730,N,07734.5167,W,38.59,86.54,070924,,,A*79
$GPGGA,200350.000,4309.3732,N,07734.5131,W,1,07,1.50,146.7,M,-34.4,M,,*59
lng=-77.575279, lat=43.156215, altitude=146.90, speed=38.59, satellites=7, angle=86.5400, fixquality=1
$GPRMC,200350.250,A,4309.3734,N,07734.5094,W,38.55,86.40,070924,,,A*74
$GPGGA,200350.500,4309.3735,N,07734.5058,W,1,07,1.50,146.4,M,-34.4,M,,*56
lng=-77.575157, lat=43.156227, altitude=146.70, speed=38.55, satellites=7, angle=86.4000, fixquality=1
$GPRMC,200350.750,A,4309.3737,N,07734.5023,W,38.26,86.14,070924,,,A*7B
$GPGGA,200351.000,4309.3739,N,07734.4987,W,1,07,1.31,146.1,M,-34.4,M,,*56
lng=-77.575042, lat=43.156227, altitude=146.40, speed=38.26, satellites=7, angle=86.1400, fixquality=1
$GPRMC,200351.250,A,4309.3742,N,07734.4951,W,38.02,85.82,070924,,,A*7A
$GPGGA,200351.500,4309.3744,N,07734.4916,W,1,07,1.31,145.8,M,-34.4,M,,*5B
lng=-77.574920, lat=43.156234, altitude=146.10, speed=38.02, satellites=7, angle=85.8200, fixquality=1
$GPRMC,200351.750,A,4309.3746,N,07734.4880,W,37.81,85.53,070924,,,A*7E
$GPGGA,200352.000,4309.3749,N,07734.4845,W,1,07,1.31,145.6,M,-34.4,M,,*59
lng=-77.574798, lat=43.156242, altitude=145.80, speed=37.81, satellites=7, angle=85.5300, fixquality=1
$GPRMC,200352.250,A,4309.3751,N,07734.4810,W,37.69,85.31,070924,,,A*75
$GPGGA,200352.500,4309.3753,N,07734.4774,W,1,07,1.31,145.3,M,-34.4,M,,*5F
lng=-77.574684, lat=43.156250, altitude=145.60, speed=37.69, satellites=7, angle=85.3100, fixquality=1
$GPRMC,200352.750,A,4309.3755,N,07734.4738,W,37.65,85.31,070924,,,A*7D
$GPGGA,200353.000,4309.3757,N,07734.4703,W,1,07,1.31,145.0,M,-34.4,M,,*5C
lng=-77.574562, lat=43.156257, altitude=145.30, speed=37.65, satellites=7, angle=85.3100, fixquality=1
$GPRMC,200353.250,A,4309.3759,N,07734.4667,W,37.61,85.32,070924,,,A*79
$GPGGA,200353.500,4309.3762,N,07734.4632,W,1,07,1.31,144.8,M,-34.4,M,,*55
lng=-77.574447, lat=43.156265, altitude=145.00, speed=37.61, satellites=7, angle=85.3200, fixquality=1
$GPRMC,200353.750,A,4309.3764,N,07734.4596,W,37.62,85.32,070924,,,A*7C
$GPGGA,200354.000,4309.3767,N,07734.4559,W,1,07,1.31,144.5,M,-34.4,M,,*51
lng=-77.574325, lat=43.156272, altitude=144.80, speed=37.62, satellites=7, angle=85.3200, fixquality=1
$GPRMC,200354.250,A,4309.3770,N,07734.4521,W,38.06,85.01,070924,,,A*7A
$GPGGA,200354.500,4309.3775,N,07734.4480,W,1,07,1.31,144.3,M,-34.4,M,,*54
lng=-77.574203, lat=43.156284, altitude=144.50, speed=38.06, satellites=7, angle=85.0100, fixquality=1
$GPRMC,200354.750,A,4309.3789,N,07734.4422,W,40.70,83.21,070924,,,A*71
$GPGGA,200355.000,4309.3805,N,07734.4381,W,1,07,1.31,144.0,M,-34.4,M,,*5D
lng=-77.574043, lat=43.156314, altitude=144.30, speed=40.70, satellites=7, angle=83.2100, fixquality=1
$GPRMC,200355.250,A,4309.3825,N,07734.4340,W,40.77,79.70,070924,,,A*79
$GPGGA,200355.500,4309.3835,N,07734.4298,W,1,07,1.31,143.6,M,-34.4,M,,*53
lng=-77.573898, lat=43.156372, altitude=144.00, speed=40.77, satellites=7, angle=79.7000, fixquality=1
$GPRMC,200355.750,A,4309.3844,N,07734.4255,W,40.83,79.46,070924,,,A*70
$GPGGA,200356.000,4309.3846,N,07734.4213,W,1,07,1.31,143.1,M,-34.4,M,,*55
lng=-77.573753, lat=43.156406, altitude=143.60, speed=40.83, satellites=7, angle=79.4600, fixquality=1
$GPRMC,200356.250,A,4309.3850,N,07734.4172,W,40.81,81.23,070924,,,A*73
$GPGGA,200356.500,4309.3852,N,07734.4133,W,1,07,1.31,142.7,M,-34.4,M,,*53
lng=-77.573616, lat=43.156414, altitude=143.10, speed=40.81, satellites=7, angle=81.2300, fixquality=1
$GPRMC,200356.750,A,4309.3853,N,07734.4093,W,40.77,83.17,070924,,,A*77
$GPGGA,200357.000,4309.3847,N,07734.4054,W,1,07,1.31,142.1,M,-34.4,M,,*55
lng=-77.573486, lat=43.156421, altitude=142.70, speed=40.77, satellites=7, angle=83.1700, fixquality=1
$GPRMC,200357.250,A,4309.3843,N,07734.4016,W,40.66,89.33,070924,,,A*73
$GPGGA,200357.500,4309.3841,N,07734.3978,W,1,07,1.31,141.7,M,-34.4,M,,*53
lng=-77.573356, lat=43.156406, altitude=142.10, speed=40.66, satellites=7, angle=89.3300, fixquality=1
$GPRMC,200357.750,A,4309.3838,N,07734.3940,W,39.49,91.26,070924,,,A*79
$GPGGA,200358.000,4309.3836,N,07734.3904,W,1,07,1.31,141.5,M,-34.4,M,,*50
lng=-77.573234, lat=43.156394, altitude=141.70, speed=39.49, satellites=7, angle=91.2600, fixquality=1
$GPRMC,200358.250,A,4309.3834,N,07734.3868,W,39.30,91.58,070924,,,A*73
$GPGGA,200358.500,4309.3832,N,07734.3833,W,1,07,1.31,141.4,M,-34.4,M,,*55
lng=-77.573112, lat=43.156387, altitude=141.50, speed=39.30, satellites=7, angle=91.5800, fixquality=1
$GPRMC,200358.750,A,4309.3831,N,07734.3797,W,38.74,91.22,070924,,,A*70
$GPGGA,200359.000,4309.3829,N,07734.3762,W,1,07,1.31,141.4,M,-34.4,M,,*50
lng=-77.572998, lat=43.156387, altitude=141.40, speed=38.74, satellites=7, angle=91.2200, fixquality=1
$GPRMC,200359.250,A,4309.3828,N,07734.3727,W,38.22,90.66,070924,,,A*75
$GPGGA,200359.500,4309.3827,N,07734.3692,W,1,07,1.50,141.5,M,-34.4,M,,*53
lng=-77.572875, lat=43.156379, altitude=141.40, speed=38.22, satellites=7, angle=90.6600, fixquality=1
$GPRMC,200359.750,A,4309.3825,N,07734.3657,W,36.62,89.74,070924,,,A*7A
$GPGGA,200400.000,4309.3824,N,07734.3623,W,1,07,1.31,141.6,M,-34.4,M,,*50
lng=-77.572761, lat=43.156372, altitude=141.50, speed=36.62, satellites=7, angle=89.7400, fixquality=1
$GPRMC,200400.250,A,4309.3823,N,07734.3588,W,35.69,88.53,070924,,,A*7F
$GPGGA,200400.500,4309.3822,N,07734.3554,W,1,07,1.50,141.7,M,-34.4,M,,*56
lng=-77.572647, lat=43.156372, altitude=141.60, speed=35.69, satellites=7, angle=88.5300, fixquality=1
$GPRMC,200400.750,A,4309.3821,N,07734.3519,W,35.32,88.14,070924,,,A*7D
$GPGGA,200401.000,4309.3821,N,07734.3485,W,1,07,1.50,141.8,M,-34.4,M,,*53
lng=-77.572532, lat=43.156372, altitude=141.70, speed=35.32, satellites=7, angle=88.1400, fixquality=1
$GPRMC,200401.250,A,4309.3822,N,07734.3451,W,34.82,87.26,070924,,,A*73
$GPGGA,200401.500,4309.3822,N,07734.3417,W,1,07,1.50,141.8,M,-34.4,M,,*5E
lng=-77.572418, lat=43.156372, altitude=141.80, speed=34.82, satellites=7, angle=87.2600, fixquality=1
$GPRMC,200401.750,A,4309.3823,N,07734.3384,W,34.71,87.12,070924,,,A*73
$GPGGA,200402.000,4309.3823,N,07734.3350,W,1,07,1.31,141.7,M,-34.4,M,,*55
lng=-77.572303, lat=43.156372, altitude=141.80, speed=34.71, satellites=7, angle=87.1200, fixquality=1
$GPRMC,200402.250,A,4309.3824,N,07734.3316,W,34.28,87.46,070924,,,A*74
$GPGGA,200402.500,4309.3824,N,07734.3283,W,1,07,1.50,141.7,M,-34.4,M,,*5F
lng=-77.572189, lat=43.156372, altitude=141.70, speed=34.28, satellites=7, angle=87.4600, fixquality=1
$GPRMC,200402.750,A,4309.3824,N,07734.3249,W,34.07,87.91,070924,,,A*7D
$GPGGA,200403.000,4309.3824,N,07734.3216,W,1,07,1.31,141.6,M,-34.4,M,,*51
lng=-77.572074, lat=43.156372, altitude=141.70, speed=34.07, satellites=7, angle=87.9100, fixquality=1
$GPRMC,200403.250,A,4309.3824,N,07734.3183,W,33.84,88.25,070924,,,A*70
$GPGGA,200403.500,4309.3824,N,07734.3151,W,1,07,1.50,141.5,M,-34.4,M,,*50
lng=-77.571975, lat=43.156372, altitude=141.60, speed=33.84, satellites=7, angle=88.2500, fixquality=1
$GPRMC,200403.750,A,4309.3825,N,07734.3119,W,33.52,88.41,070924,,,A*7E
$GPGGA,200404.000,4309.3825,N,07734.3087,W,1,07,1.50,141.4,M,-34.4,M,,*58
lng=-77.571868, lat=43.156372, altitude=141.50, speed=33.52, satellites=7, angle=88.4100, fixquality=1
$GPRMC,200404.250,A,4309.3824,N,07734.3056,W,33.08,88.93,070924,,,A*77
$GPGGA,200404.500,4309.3824,N,07734.3025,W,1,07,1.50,141.4,M,-34.4,M,,*54
lng=-77.571762, lat=43.156372, altitude=141.40, speed=33.08, satellites=7, angle=88.9300, fixquality=1
$GPRMC,200404.750,A,4309.3824,N,07734.2994,W,32.58,89.04,070924,,,A*7F
$GPGGA,200405.000,4309.3824,N,07734.2964,W,1,07,1.50,141.5,M,-34.4,M,,*5C
lng=-77.571655, lat=43.156372, altitude=141.40, speed=32.58, satellites=7, angle=89.0400, fixquality=1
$GPRMC,200405.250,A,4309.3824,N,07734.2935,W,31.46,89.36,070924,,,A*7D
$GPGGA,200405.500,4309.3824,N,07734.2905,W,1,07,1.50,141.6,M,-34.4,M,,*5D
lng=-77.571556, lat=43.156372, altitude=141.50, speed=31.46, satellites=7, angle=89.3600, fixquality=1
$GPRMC,200405.750,A,4309.3824,N,07734.2876,W,31.33,89.57,070924,,,A*7B
$GPGGA,200406.000,4309.3824,N,07734.2846,W,1,07,1.50,141.8,M,-34.4,M,,*53
lng=-77.571456, lat=43.156372, altitude=141.60, speed=31.33, satellites=7, angle=89.5700, fixquality=1
$GPRMC,200406.250,A,4309.3823,N,07734.2816,W,30.93,89.40,070924,,,A*71
$GPGGA,200406.500,4309.3824,N,07734.2786,W,1,07,1.50,141.9,M,-34.4,M,,*54
lng=-77.571365, lat=43.156372, altitude=141.80, speed=30.93, satellites=7, angle=89.4000, fixquality=1
$GPRMC,200406.750,A,4309.3824,N,07734.2757,W,30.51,89.15,070924,,,A*77
$GPGGA,200407.000,4309.3824,N,07734.2728,W,1,07,1.50,142.1,M,-34.4,M,,*5F
lng=-77.571266, lat=43.156372, altitude=141.90, speed=30.51, satellites=7, angle=89.1500, fixquality=1
$GPRMC,200407.250,A,4309.3824,N,07734.2699,W,29.80,88.50,070924,,,A*74
$GPGGA,200407.500,4309.3825,N,07734.2670,W,1,07,1.50,142.1,M,-34.4,M,,*57
lng=-77.571166, lat=43.156372, altitude=142.10, speed=29.80, satellites=7, angle=88.5000, fixquality=1
$GPRMC,200407.750,A,4309.3826,N,07734.2642,W,29.82,87.95,070924,,,A*71
$GPGGA,200408.000,4309.3827,N,07734.2613,W,1,07,1.51,142.1,M,-34.4,M,,*5B
