Vers 72
USE_SERIAL_FEEDBACK=true
DEVELOPMENT_MODE=false
USE_RMC_ONLY=false

$GPRMC,143234.750,A,4308.3050,N,07726.2710,W,0.08,247.33,120924,,,A*71
$GPGGA,143235.000,4308.3050,N,07726.2710,W,1,04,1.73,171.1,M,-34.4,M,,*5C
lng=-77.437850, lat=43.138420, altitude=174.30, speed=0.08, satellites=4, angle=247.3300, fixquality=1
$GPRMC,143235.250,A,4308.3049,N,07726.2709,W,0.09,164.84,120924,,,A*7A
$GPGGA,143235.500,4308.3049,N,07726.2709,W,1,04,1.73,170.4,M,-34.4,M,,*5D
lng=-77.437850, lat=43.138412, altitude=171.10, speed=0.09, satellites=4, angle=164.8400, fixquality=1
$GPGGA,143239.500,4308.3047,N,07726.2697,W,1,04,1.73,164.6,M,-34.4,M,,*5E
$GPRMC,143239.500,A,4308.3047,N,07726.2697,W,0.10,21.31,120924,,,A*4A
lng=-77.437828, lat=43.138412, altitude=164.60, speed=0.10, satellites=4, angle=20.1000, fixquality=1
$GPGGA,143239.750,4308.3047,N,07726.2697,W,1,04,1.73,164.5,M,-34.4,M,,*5A
$GPRMC,143239.750,A,4308.3047,N,07726.2697,W,0.08,22.95,120924,,,A*49
lng=-77.437828, lat=43.138412, altitude=164.50, speed=0.10, satellites=4, angle=21.3100, fixquality=1
$GPGGA,143247.250,4308.3044,N,07726.2708,W,1,04,1.73,167.6,M,-34.4,M,,*52
$GPRMC,143247.250,A,4308.3044,N,07726.2708,W,0.07,342.29,120924,,,A*7C
lng=-77.437850, lat=43.138404, altitude=167.60, speed=0.07, satellites=4, angle=342.5500, fixquality=1
$GPGGA,143247.500,4308.3044,N,07726.2708,W,1,04,1.73,167.7,M,-34.4,M,,*51
$GPRMC,143247.500,A,4308.3044,N,07726.2708,W,0.06,344.92,120924,,,A*79
lng=-77.437850, lat=43.138404, altitude=167.70, speed=0.07, satellites=4, angle=342.2900, fixquality=1
$GPGGA,143255.750,4308.3040,N,07726.2697,W,1,05,1.65,162.0,M,-34.4,M,,*52
$GPRMC,143255.750,A,4308.3040,N,07726.2697,W,0.04,32.58,120924,,,A*48
lng=-77.437828, lat=43.138404, altitude=162.00, speed=0.03, satellites=5, angle=71.9600, fixquality=1
$GPGGA,143256.000,4308.3040,N,07726.2696,W,1,05,1.65,161.7,M,-34.4,M,,*56
$GPRMC,143256.000,A,4308.3040,N,07726.2696,W,0.04,291.80,120924,,,A*76
lng=-77.437828, lat=43.138404, altitude=161.70, speed=0.04, satellites=5, angle=32.5800, fixquality=1
$GPGGA,143339.000,4308.3056,N,07726.2694,W,1,05,2.10,155.1,M,-34.4,M,,*5B
$GPRMC,143339.000,A,4308.3056,N,07726.2694,W,1.28,358.93,120924,,,A*72
lng=-77.437828, lat=43.138427, altitude=155.10, speed=1.03, satellites=5, angle=2.4900, fixquality=1
$GPGGA,143339.250,4308.3058,N,07726.2695,W,1,05,2.10,155.2,M,-34.4,M,,*50
$GPRMC,143339.250,A,4308.3058,N,07726.2695,W,1.46,358.63,120924,,,A*7D
lng=-77.437828, lat=43.138427, altitude=155.20, speed=1.28, satellites=5, angle=358.9300, fixquality=1
$GPRMC,143340.000,A,4308.3065,N,07726.2696,W,2.68,358.68,120924,,,A*7D
$GPGGA,143340.250,4308.3067,N,07726.2697,W,1,05,2.10,155.3,M,-34.4,M,,*51
lng=-77.437828, lat=43.138442, altitude=155.30, speed=2.68, satellites=5, angle=358.6800, fixquality=1
$GPRMC,143340.500,A,4308.3069,N,07726.2697,W,3.23,357.76,120924,,,A*7B
$GPGGA,143340.750,4308.3071,N,07726.2697,W,1,05,2.10,155.3,M,-34.4,M,,*53
lng=-77.437828, lat=43.138450, altitude=155.30, speed=3.23, satellites=5, angle=357.7600, fixquality=1
$GPRMC,143341.000,A,4308.3073,N,07726.2697,W,3.12,359.60,120924,,,A*7F
$GPGGA,143341.250,4308.3076,N,07726.2697,W,1,05,2.10,155.4,M,-34.4,M,,*57
lng=-77.437828, lat=43.138450, altitude=155.30, speed=3.12, satellites=5, angle=359.6000, fixquality=1
$GPRMC,143341.500,A,4308.3079,N,07726.2697,W,3.68,0.68,120924,,,A*7A
$GPGGA,143341.750,4308.3082,N,07726.2697,W,1,05,2.10,155.4,M,-34.4,M,,*59
lng=-77.437828, lat=43.138469, altitude=155.40, speed=3.68, satellites=5, angle=0.6800, fixquality=1
$GPRMC,143342.000,A,4308.3084,N,07726.2698,W,4.06,359.52,120924,,,A*78
$GPGGA,143342.250,4308.3088,N,07726.2698,W,1,05,2.10,155.4,M,-34.4,M,,*5A
lng=-77.437835, lat=43.138477, altitude=155.40, speed=4.06, satellites=5, angle=359.5200, fixquality=1
$GPRMC,143342.500,A,4308.3091,N,07726.2699,W,4.39,355.13,120924,,,A*7D
$GPGGA,143342.750,4308.3094,N,07726.2700,W,1,05,2.10,155.4,M,-34.4,M,,*52
lng=-77.437835, lat=43.138484, altitude=155.40, speed=4.39, satellites=5, angle=355.1300, fixquality=1
$GPRMC,143343.000,A,4308.3097,N,07726.2700,W,4.73,357.25,120924,,,A*77
$GPGGA,143343.250,4308.3100,N,07726.2700,W,1,05,2.10,155.5,M,-34.4,M,,*5B
lng=-77.437835, lat=43.138492, altitude=155.40, speed=4.73, satellites=5, angle=357.2500, fixquality=1
$GPRMC,143343.500,A,4308.3103,N,07726.2699,W,4.52,5.46,120924,,,A*7D
$GPGGA,143343.750,4308.3106,N,07726.2699,W,1,05,2.10,155.5,M,-34.4,M,,*59
lng=-77.437835, lat=43.138500, altitude=155.50, speed=4.52, satellites=5, angle=5.4600, fixquality=1
$GPRMC,143344.000,A,4308.3109,N,07726.2699,W,4.32,5.67,120924,,,A*70
$GPGGA,143344.250,4308.3112,N,07726.2698,W,1,05,2.10,155.5,M,-34.4,M,,*5F
lng=-77.437835, lat=43.138515, altitude=155.50, speed=4.32, satellites=5, angle=5.6700, fixquality=1
$GPRMC,143344.500,A,4308.3116,N,07726.2698,W,4.46,5.63,120924,,,A*7D
$GPGGA,143344.750,4308.3119,N,07726.2698,W,1,05,2.10,155.5,M,-34.4,M,,*51
lng=-77.437835, lat=43.138526, altitude=155.50, speed=4.46, satellites=5, angle=5.6300, fixquality=1
$GPRMC,143345.000,A,4308.3123,N,07726.2698,W,5.02,5.59,120924,,,A*77
$GPGGA,143345.250,4308.3126,N,07726.2697,W,1,05,2.09,155.4,M,-34.4,M,,*5F
lng=-77.437835, lat=43.138542, altitude=155.50, speed=5.02, satellites=5, angle=5.5900, fixquality=1
$GPRMC,143345.500,A,4308.3130,N,07726.2697,W,5.13,7.87,120924,,,A*7E
$GPGGA,143345.750,4308.3134,N,07726.2696,W,1,05,2.10,155.4,M,-34.4,M,,*50
lng=-77.437828, lat=43.138549, altitude=155.40, speed=5.13, satellites=5, angle=7.8700, fixquality=1
$GPRMC,143346.000,A,4308.3138,N,07726.2696,W,5.60,6.51,120924,,,A*7F
$GPGGA,143346.250,4308.3142,N,07726.2695,W,1,05,2.09,155.3,M,-34.4,M,,*5B
lng=-77.437828, lat=43.138565, altitude=155.40, speed=5.60, satellites=5, angle=6.5100, fixquality=1
$GPRMC,143346.500,A,4308.3146,N,07726.2695,W,5.76,8.24,120924,,,A*7B
$GPGGA,143346.750,4308.3151,N,07726.2695,W,1,05,2.09,155.3,M,-34.4,M,,*5C
lng=-77.437828, lat=43.138572, altitude=155.30, speed=5.76, satellites=5, angle=8.2400, fixquality=1
$GPRMC,143347.000,A,4308.3155,N,07726.2694,W,6.08,7.53,120924,,,A*79
$GPGGA,143347.250,4308.3159,N,07726.2694,W,1,05,2.09,155.3,M,-34.4,M,,*51
lng=-77.437828, lat=43.138591, altitude=155.30, speed=6.08, satellites=5, angle=7.5300, fixquality=1
$GPRMC,143347.500,A,4308.3162,N,07726.2692,W,5.15,11.41,120924,,,A*45
$GPGGA,143347.750,4308.3165,N,07726.2690,W,1,05,2.09,155.3,M,-34.4,M,,*5F
lng=-77.437820, lat=43.138607, altitude=155.30, speed=5.15, satellites=5, angle=11.4100, fixquality=1
$GPRMC,143348.000,A,4308.3167,N,07726.2687,W,4.57,36.29,120924,,,A*42
$GPGGA,143348.250,4308.3170,N,07726.2684,W,1,05,1.65,155.3,M,-34.4,M,,*5D
lng=-77.437812, lat=43.138614, altitude=155.30, speed=4.57, satellites=5, angle=36.2900, fixquality=1
$GPRMC,143348.500,A,4308.3171,N,07726.2682,W,4.10,45.64,120924,,,A*4B
$GPGGA,143348.750,4308.3173,N,07726.2679,W,1,05,2.09,155.2,M,-34.4,M,,*51
lng=-77.437797, lat=43.138614, altitude=155.30, speed=4.10, satellites=5, angle=45.6400, fixquality=1
$GPRMC,143349.000,A,4308.3174,N,07726.2677,W,3.09,47.64,120924,,,A*4D
$GPGGA,143349.250,4308.3175,N,07726.2676,W,1,05,1.65,155.1,M,-34.4,M,,*56
lng=-77.437789, lat=43.138622, altitude=155.20, speed=3.09, satellites=5, angle=47.6400, fixquality=1
$GPRMC,143349.500,A,4308.3176,N,07726.2674,W,2.20,38.56,120924,,,A*4A
$GPGGA,143349.750,4308.3176,N,07726.2673,W,1,05,1.65,155.0,M,-34.4,M,,*54
lng=-77.437789, lat=43.138622, altitude=155.10, speed=2.20, satellites=5, angle=38.5600, fixquality=1
$GPGGA,143351.500,4308.3177,N,07726.2686,W,1,05,1.65,154.8,M,-34.4,M,,*58
$GPRMC,143351.500,A,4308.3177,N,07726.2686,W,1.65,290.52,120924,,,A*79
lng=-77.437812, lat=43.138629, altitude=154.80, speed=1.43, satellites=5, angle=295.6800, fixquality=1
$GPGGA,143351.750,4308.3177,N,07726.2690,W,1,05,1.65,154.8,M,-34.4,M,,*58
$GPRMC,143351.750,A,4308.3177,N,07726.2690,W,1.99,284.71,120924,,,A*7E
lng=-77.437820, lat=43.138629, altitude=154.80, speed=1.65, satellites=5, angle=290.5200, fixquality=1
$GPRMC,143352.250,A,4308.3177,N,07726.2699,W,2.81,279.61,120924,,,A*78
$GPGGA,143352.500,4308.3177,N,07726.2705,W,1,05,1.65,154.8,M,-34.4,M,,*51
lng=-77.437835, lat=43.138629, altitude=154.80, speed=2.81, satellites=5, angle=279.6100, fixquality=1
$GPRMC,143352.750,A,4308.3177,N,07726.2715,W,5.71,278.38,120924,,,A*7D
$GPGGA,143353.000,4308.3178,N,07726.2722,W,1,05,2.09,154.8,M,-34.4,M,,*56
lng=-77.437858, lat=43.138629, altitude=154.80, speed=5.71, satellites=5, angle=278.3800, fixquality=1
$GPRMC,143353.250,A,4308.3178,N,07726.2729,W,6.90,278.48,120924,,,A*72
$GPGGA,143353.500,4308.3179,N,07726.2738,W,1,05,2.09,154.7,M,-34.4,M,,*56
lng=-77.437881, lat=43.138629, altitude=154.80, speed=6.90, satellites=5, angle=278.4800, fixquality=1
$GPRMC,143353.750,A,4308.3180,N,07726.2747,W,8.82,279.15,120924,,,A*7C
$GPGGA,143354.000,4308.3181,N,07726.2756,W,1,05,2.09,154.6,M,-34.4,M,,*5A
lng=-77.437911, lat=43.138629, altitude=154.70, speed=8.82, satellites=5, angle=279.1500, fixquality=1
$GPRMC,143354.250,A,4308.3182,N,07726.2765,W,9.69,279.95,120924,,,A*70
$GPGGA,143354.500,4308.3183,N,07726.2775,W,1,05,2.09,154.5,M,-34.4,M,,*5F
lng=-77.437942, lat=43.138637, altitude=154.60, speed=9.69, satellites=5, angle=279.9500, fixquality=1
$GPRMC,143354.750,A,4308.3185,N,07726.2785,W,10.80,281.19,120924,,,A*40
$GPGGA,143355.000,4308.3186,N,07726.2796,W,1,05,1.65,154.4,M,-34.4,M,,*5B
lng=-77.437973, lat=43.138637, altitude=154.50, speed=10.80, satellites=5, angle=281.1900, fixquality=1
$GPRMC,143355.250,A,4308.3187,N,07726.2806,W,11.39,279.81,120924,,,A*47
$GPGGA,143355.500,4308.3188,N,07726.2817,W,1,05,2.09,154.3,M,-34.4,M,,*58
lng=-77.438011, lat=43.138648, altitude=154.40, speed=11.39, satellites=5, angle=279.8100, fixquality=1
$GPRMC,143355.750,A,4308.3188,N,07726.2827,W,11.81,280.83,120924,,,A*49
$GPGGA,143356.000,4308.3189,N,07726.2838,W,1,05,2.09,154.3,M,-34.4,M,,*52
lng=-77.438041, lat=43.138648, altitude=154.30, speed=11.81, satellites=5, angle=280.8300, fixquality=1
$GPRMC,143356.250,A,4308.3191,N,07726.2849,W,12.04,280.85,120924,,,A*47
$GPGGA,143356.500,4308.3193,N,07726.2860,W,1,05,1.65,154.2,M,-34.4,M,,*59
lng=-77.438079, lat=43.138656, altitude=154.30, speed=12.04, satellites=5, angle=280.8500, fixquality=1
$GPRMC,143356.750,A,4308.3196,N,07726.2871,W,12.93,282.85,120924,,,A*42
$GPGGA,143357.000,4308.3199,N,07726.2883,W,1,05,2.09,154.1,M,-34.4,M,,*50
lng=-77.438117, lat=43.138664, altitude=154.20, speed=12.93, satellites=5, angle=282.8500, fixquality=1
$GPRMC,143357.250,A,4308.3202,N,07726.2894,W,13.70,285.43,120924,,,A*42
$GPGGA,143357.500,4308.3205,N,07726.2906,W,1,05,1.65,154.0,M,-34.4,M,,*57
lng=-77.438156, lat=43.138671, altitude=154.10, speed=13.70, satellites=5, angle=285.4300, fixquality=1
$GPRMC,143357.750,A,4308.3209,N,07726.2918,W,14.37,288.42,120924,,,A*41
$GPGGA,143358.000,4308.3212,N,07726.2931,W,1,05,2.09,153.9,M,-34.4,M,,*58
lng=-77.438201, lat=43.138679, altitude=154.00, speed=14.37, satellites=5, angle=288.4200, fixquality=1
$GPRMC,143358.250,A,4308.3216,N,07726.2943,W,14.75,290.65,120924,,,A*41
$GPGGA,143358.500,4308.3222,N,07726.2955,W,1,05,1.65,153.9,M,-34.4,M,,*55
lng=-77.438240, lat=43.138694, altitude=153.90, speed=14.75, satellites=5, angle=290.6500, fixquality=1
$GPRMC,143358.750,A,4308.3226,N,07726.2967,W,15.25,293.31,120924,,,A*47
$GPGGA,143359.000,4308.3231,N,07726.2979,W,1,05,1.65,153.9,M,-34.4,M,,*5D
lng=-77.438278, lat=43.138713, altitude=153.90, speed=15.25, satellites=5, angle=293.3100, fixquality=1
$GPRMC,143359.250,A,4308.3235,N,07726.2992,W,15.37,294.52,120924,,,A*4A
$GPGGA,143359.500,4308.3240,N,07726.3005,W,1,05,1.65,153.9,M,-34.4,M,,*5D
lng=-77.438323, lat=43.138729, altitude=153.90, speed=15.37, satellites=5, angle=294.5200, fixquality=1
$GPRMC,143359.750,A,4308.3246,N,07726.3018,W,15.85,295.28,120924,,,A*44
$GPGGA,143400.000,4308.3252,N,07726.3031,W,1,05,1.65,153.8,M,-34.4,M,,*56
lng=-77.438362, lat=43.138744, altitude=153.90, speed=15.85, satellites=5, angle=295.2800, fixquality=1
$GPRMC,143400.250,A,4308.3259,N,07726.3043,W,16.39,297.44,120924,,,A*46
$GPGGA,143400.500,4308.3265,N,07726.3056,W,1,05,1.65,153.8,M,-34.4,M,,*56
lng=-77.438400, lat=43.138759, altitude=153.80, speed=16.39, satellites=5, angle=297.4400, fixquality=1
$GPRMC,143400.750,A,4308.3272,N,07726.3069,W,17.08,298.05,120924,,,A*4B
$GPGGA,143401.000,4308.3278,N,07726.3082,W,1,05,2.09,153.7,M,-34.4,M,,*51
lng=-77.438453, lat=43.138786, altitude=153.80, speed=17.08, satellites=5, angle=298.0500, fixquality=1
$GPRMC,143401.250,A,4308.3285,N,07726.3095,W,17.47,299.73,120924,,,A*4F
$GPGGA,143401.500,4308.3293,N,07726.3109,W,1,05,2.09,153.7,M,-34.4,M,,*53
lng=-77.438491, lat=43.138809, altitude=153.70, speed=17.47, satellites=5, angle=299.7300, fixquality=1
$GPRMC,143401.750,A,4308.3300,N,07726.3123,W,18.85,300.81,120924,,,A*47
$GPGGA,143402.000,4308.3308,N,07726.3138,W,1,05,2.09,153.7,M,-34.4,M,,*54
lng=-77.438545, lat=43.138835, altitude=153.70, speed=18.85, satellites=5, angle=300.8100, fixquality=1
$GPRMC,143402.250,A,4308.3316,N,07726.3154,W,20.58,301.47,120924,,,A*46
$GPGGA,143402.500,4308.3324,N,07726.3170,W,1,05,2.09,153.7,M,-34.4,M,,*53
lng=-77.438591, lat=43.138858, altitude=153.70, speed=20.58, satellites=5, angle=301.4700, fixquality=1
$GPRMC,143402.750,A,4308.3333,N,07726.3187,W,22.87,302.62,120924,,,A*4E
$GPGGA,143403.000,4308.3342,N,07726.3205,W,1,05,2.09,153.8,M,-34.4,M,,*59
lng=-77.438644, lat=43.138893, altitude=153.70, speed=22.87, satellites=5, angle=302.6200, fixquality=1
$GPRMC,143403.250,A,4308.3351,N,07726.3224,W,24.19,303.05,120924,,,A*45
$GPGGA,143403.500,4308.3361,N,07726.3243,W,1,05,2.09,153.8,M,-34.4,M,,*5F
lng=-77.438705, lat=43.138916, altitude=153.80, speed=24.19, satellites=5, angle=303.0500, fixquality=1
$GPRMC,143403.750,A,4308.3371,N,07726.3263,W,25.74,303.51,120924,,,A*4A
$GPGGA,143404.000,4308.3382,N,07726.3283,W,1,05,2.09,153.9,M,-34.4,M,,*5D
lng=-77.438766, lat=43.138950, altitude=153.80, speed=25.74, satellites=5, angle=303.5100, fixquality=1
$GPRMC,143404.250,A,4308.3393,N,07726.3304,W,27.14,304.46,120924,,,A*41
$GPGGA,143404.500,4308.3404,N,07726.3326,W,1,05,2.09,154.0,M,-34.4,M,,*51
lng=-77.438842, lat=43.138988, altitude=153.90, speed=27.14, satellites=5, angle=304.4600, fixquality=1
$GPRMC,143404.750,A,4308.3415,N,07726.3348,W,28.04,304.59,120924,,,A*45
$GPGGA,143405.000,4308.3426,N,07726.3370,W,1,05,2.09,154.1,M,-34.4,M,,*57
lng=-77.438919, lat=43.139022, altitude=154.00, speed=28.04, satellites=5, angle=304.5900, fixquality=1
$GPRMC,143405.250,A,4308.3438,N,07726.3392,W,28.23,305.23,120924,,,A*40
$GPGGA,143405.500,4308.3449,N,07726.3413,W,1,05,1.65,154.2,M,-34.4,M,,*53
lng=-77.438987, lat=43.139060, altitude=154.10, speed=28.23, satellites=5, angle=305.2300, fixquality=1
$GPRMC,143405.750,A,4308.3460,N,07726.3435,W,28.38,305.08,120924,,,A*41
$GPGGA,143406.000,4308.3471,N,07726.3456,W,1,05,1.65,154.2,M,-34.4,M,,*5F
lng=-77.439056, lat=43.139102, altitude=154.20, speed=28.38, satellites=5, angle=305.0800, fixquality=1
$GPRMC,143406.250,A,4308.3482,N,07726.3476,W,27.09,304.99,120924,,,A*48
$GPGGA,143406.500,4308.3493,N,07726.3496,W,1,05,1.65,154.2,M,-34.4,M,,*5A
lng=-77.439125, lat=43.139137, altitude=154.20, speed=27.09, satellites=5, angle=304.9900, fixquality=1
$GPRMC,143406.750,A,4308.3505,N,07726.3515,W,26.50,307.05,120924,,,A*4C
$GPGGA,143407.000,4308.3516,N,07726.3535,W,1,05,2.09,154.2,M,-34.4,M,,*53
lng=-77.439193, lat=43.139175, altitude=154.20, speed=26.50, satellites=5, angle=307.0500, fixquality=1
$GPRMC,143407.250,A,4308.3527,N,07726.3553,W,25.91,308.93,120924,,,A*44
$GPGGA,143407.500,4308.3538,N,07726.3571,W,1,05,1.65,154.2,M,-34.4,M,,*53
lng=-77.439254, lat=43.139209, altitude=154.20, speed=25.91, satellites=5, angle=308.9300, fixquality=1
$GPRMC,143407.750,A,4308.3550,N,07726.3590,W,25.58,310.60,120924,,,A*4E
$GPGGA,143408.000,4308.3562,N,07726.3607,W,1,05,2.09,154.1,M,-34.4,M,,*5E
lng=-77.439315, lat=43.139247, altitude=154.20, speed=25.58, satellites=5, angle=310.6000, fixquality=1
$GPRMC,143408.250,A,4308.3574,N,07726.3623,W,25.06,313.56,120924,,,A*44
$GPGGA,143408.500,4308.3587,N,07726.3639,W,1,05,2.09,154.1,M,-34.4,M,,*5D
lng=-77.439369, lat=43.139289, altitude=154.10, speed=25.06, satellites=5, angle=313.5600, fixquality=1
$GPRMC,143408.750,A,4308.3600,N,07726.3653,W,24.52,317.10,120924,,,A*40
$GPGGA,143409.000,4308.3613,N,07726.3667,W,1,05,2.09,154.2,M,-34.4,M,,*5F
lng=-77.439422, lat=43.139331, altitude=154.10, speed=24.52, satellites=5, angle=317.1000, fixquality=1
$GPRMC,143409.250,A,4308.3627,N,07726.3681,W,24.32,320.61,120924,,,A*4A
$GPGGA,143409.500,4308.3641,N,07726.3693,W,1,05,1.65,154.2,M,-34.4,M,,*5F
lng=-77.439468, lat=43.139381, altitude=154.20, speed=24.32, satellites=5, angle=320.6100, fixquality=1
$GPRMC,143409.750,A,4308.3655,N,07726.3705,W,23.91,325.77,120924,,,A*4B
$GPGGA,143410.000,4308.3670,N,07726.3716,W,1,05,2.09,154.3,M,-34.4,M,,*54
lng=-77.439506, lat=43.139427, altitude=154.20, speed=23.91, satellites=5, angle=325.7700, fixquality=1
$GPRMC,143410.250,A,4308.3685,N,07726.3726,W,23.91,330.37,120924,,,A*4A
$GPGGA,143410.500,4308.3700,N,07726.3735,W,1,05,1.65,154.3,M,-34.4,M,,*5F
lng=-77.439544, lat=43.139476, altitude=154.30, speed=23.91, satellites=5, angle=330.3700, fixquality=1
$GPRMC,143410.750,A,4308.3715,N,07726.3744,W,23.66,335.44,120924,,,A*4A
$GPGGA,143411.000,4308.3731,N,07726.3752,W,1,05,2.09,154.3,M,-34.4,M,,*51
lng=-77.439575, lat=43.139526, altitude=154.30, speed=23.66, satellites=5, angle=335.4400, fixquality=1
$GPRMC,143411.250,A,4308.3745,N,07726.3759,W,22.96,338.50,120924,,,A*41
$GPGGA,143411.500,4308.3761,N,07726.3766,W,1,05,2.09,154.3,M,-34.4,M,,*56
lng=-77.439598, lat=43.139575, altitude=154.30, speed=22.96, satellites=5, angle=338.5000, fixquality=1
$GPRMC,143411.750,A,4308.3776,N,07726.3771,W,21.98,342.30,120924,,,A*48
$GPGGA,143412.000,4308.3791,N,07726.3776,W,1,05,2.09,154.2,M,-34.4,M,,*5F
lng=-77.439613, lat=43.139625, altitude=154.30, speed=21.98, satellites=5, angle=342.3000, fixquality=1
$GPRMC,143412.250,A,4308.3807,N,07726.3781,W,21.60,345.40,120924,,,A*4F
$GPGGA,143412.500,4308.3822,N,07726.3784,W,1,05,2.09,154.2,M,-34.4,M,,*50
lng=-77.439628, lat=43.139682, altitude=154.20, speed=21.60, satellites=5, angle=345.4000, fixquality=1
$GPRMC,143412.750,A,4308.3838,N,07726.3787,W,21.64,349.69,120924,,,A*43
$GPGGA,143413.000,4308.3855,N,07726.3788,W,1,05,2.09,154.2,M,-34.4,M,,*58
lng=-77.439651, lat=43.139728, altitude=154.20, speed=21.64, satellites=5, angle=349.6900, fixquality=1
$GPRMC,143413.250,A,4308.3872,N,07726.3789,W,22.30,354.72,120924,,,A*43
$GPGGA,143413.500,4308.3889,N,07726.3788,W,1,05,2.09,154.0,M,-34.4,M,,*5E
lng=-77.439651, lat=43.139785, altitude=154.20, speed=22.30, satellites=5, angle=354.7200, fixquality=1
$GPRMC,143413.750,A,4308.3907,N,07726.3787,W,22.87,0.44,120924,,,A*40
$GPGGA,143414.000,4308.3927,N,07726.3785,W,1,05,2.09,153.8,M,-34.4,M,,*5B
lng=-77.439651, lat=43.139842, altitude=154.00, speed=22.87, satellites=5, angle=0.4400, fixquality=1
$GPRMC,143414.250,A,4308.3946,N,07726.3782,W,24.53,3.36,120924,,,A*4B
$GPGGA,143414.500,4308.3965,N,07726.3779,W,1,05,2.09,153.7,M,-34.4,M,,*54
lng=-77.439643, lat=43.139907, altitude=153.80, speed=24.53, satellites=5, angle=3.3600, fixquality=1
$GPRMC,143414.750,A,4308.3985,N,07726.3776,W,25.89,6.70,120924,,,A*4B
$GPGGA,143415.000,4308.4004,N,07726.3772,W,1,05,2.09,153.4,M,-34.4,M,,*51
lng=-77.439620, lat=43.139972, altitude=153.70, speed=25.89, satellites=5, angle=6.7000, fixquality=1
$GPRMC,143415.250,A,4308.4023,N,07726.3767,W,26.41,9.73,120924,,,A*46
$GPGGA,143415.500,4308.4041,N,07726.3761,W,1,05,2.09,153.3,M,-34.4,M,,*50
lng=-77.439605, lat=43.140037, altitude=153.40, speed=26.41, satellites=5, angle=9.7300, fixquality=1
$GPRMC,143415.750,A,4308.4060,N,07726.3756,W,26.64,11.58,120924,,,A*71
$GPGGA,143416.000,4308.4079,N,07726.3750,W,1,05,2.09,153.1,M,-34.4,M,,*5D
lng=-77.439590, lat=43.140094, altitude=153.30, speed=26.64, satellites=5, angle=11.5800, fixquality=1
$GPRMC,143416.250,A,4308.4097,N,07726.3744,W,26.65,11.93,120924,,,A*7A
$GPGGA,143416.500,4308.4116,N,07726.3739,W,1,05,1.65,153.0,M,-34.4,M,,*57
lng=-77.439575, lat=43.140159, altitude=153.10, speed=26.65, satellites=5, angle=11.9300, fixquality=1
$GPRMC,143416.750,A,4308.4134,N,07726.3734,W,26.58,11.08,120924,,,A*7C
$GPGGA,143417.000,4308.4153,N,07726.3729,W,1,05,1.65,153.0,M,-34.4,M,,*53
lng=-77.439559, lat=43.140224, altitude=153.00, speed=26.58, satellites=5, angle=11.0800, fixquality=1
$GPRMC,143417.250,A,4308.4171,N,07726.3725,W,26.30,10.37,120924,,,A*7A
$GPGGA,143417.500,4308.4189,N,07726.3720,W,1,05,1.65,152.9,M,-34.4,M,,*50
lng=-77.439544, lat=43.140281, altitude=153.00, speed=26.30, satellites=5, angle=10.3700, fixquality=1
$GPRMC,143417.750,A,4308.4207,N,07726.3716,W,25.56,10.25,120924,,,A*7D
$GPGGA,143418.000,4308.4225,N,07726.3712,W,1,05,1.65,152.8,M,-34.4,M,,*5F
lng=-77.439529, lat=43.140346, altitude=152.90, speed=25.56, satellites=5, angle=10.2500, fixquality=1
$GPRMC,143418.250,A,4308.4242,N,07726.3707,W,24.79,9.61,120924,,,A*42
$GPGGA,143418.500,4308.4259,N,07726.3703,W,1,05,1.65,152.7,M,-34.4,M,,*5E
lng=-77.439506, lat=43.140403, altitude=152.80, speed=24.79, satellites=5, angle=9.6100, fixquality=1
$GPRMC,143418.750,A,4308.4276,N,07726.3699,W,23.79,9.72,120924,,,A*43
$GPGGA,143419.000,4308.4292,N,07726.3695,W,1,05,1.65,152.6,M,-34.4,M,,*52
lng=-77.439498, lat=43.140460, altitude=152.70, speed=23.79, satellites=5, angle=9.7200, fixquality=1
$GPRMC,143419.250,A,4308.4308,N,07726.3691,W,23.03,9.62,120924,,,A*4B
$GPGGA,143419.500,4308.4324,N,07726.3688,W,1,05,2.09,152.6,M,-34.4,M,,*5E
lng=-77.439483, lat=43.140510, altitude=152.60, speed=23.03, satellites=5, angle=9.6200, fixquality=1
$GPRMC,143419.750,A,4308.4339,N,07726.3684,W,22.65,9.37,120924,,,A*49
$GPGGA,143420.000,4308.4355,N,07726.3681,W,1,05,2.09,152.6,M,-34.4,M,,*5E
lng=-77.439468, lat=43.140567, altitude=152.60, speed=22.65, satellites=5, angle=9.3700, fixquality=1
$GPRMC,143420.250,A,4308.4370,N,07726.3678,W,22.07,9.19,120924,,,A*40
$GPGGA,143420.500,4308.4385,N,07726.3674,W,1,05,2.09,152.6,M,-34.4,M,,*5C
lng=-77.439460, lat=43.140617, altitude=152.60, speed=22.07, satellites=5, angle=9.1900, fixquality=1
$GPRMC,143420.750,A,4308.4399,N,07726.3671,W,21.60,9.46,120924,,,A*43
$GPGGA,143421.000,4308.4414,N,07726.3667,W,1,05,2.09,152.6,M,-34.4,M,,*55
lng=-77.439453, lat=43.140666, altitude=152.60, speed=21.60, satellites=5, angle=9.4600, fixquality=1
$GPRMC,143421.250,A,4308.4428,N,07726.3664,W,21.04,9.75,120924,,,A*4C
$GPGGA,143421.500,4308.4443,N,07726.3661,W,1,05,2.09,152.6,M,-34.4,M,,*54
lng=-77.439437, lat=43.140712, altitude=152.60, speed=21.04, satellites=5, angle=9.7500, fixquality=1
$GPRMC,143421.750,A,4308.4456,N,07726.3657,W,20.26,9.72,120924,,,A*46
$GPGGA,143422.000,4308.4469,N,07726.3654,W,1,05,2.09,152.6,M,-34.4,M,,*5C
lng=-77.439430, lat=43.140762, altitude=152.60, speed=20.26, satellites=5, angle=9.7200, fixquality=1
$GPRMC,143422.250,A,4308.4482,N,07726.3651,W,19.12,9.20,120924,,,A*45
$GPGGA,143422.500,4308.4495,N,07726.3648,W,1,05,2.09,152.7,M,-34.4,M,,*56
lng=-77.439422, lat=43.140804, altitude=152.60, speed=19.12, satellites=5, angle=9.2000, fixquality=1
$GPRMC,143422.750,A,4308.4508,N,07726.3645,W,18.40,8.58,120924,,,A*4E
$GPGGA,143423.000,4308.4520,N,07726.3643,W,1,05,2.09,152.8,M,-34.4,M,,*59
lng=-77.439407, lat=43.140846, altitude=152.70, speed=18.40, satellites=5, angle=8.5800, fixquality=1
$GPRMC,143423.250,A,4308.4531,N,07726.3640,W,17.24,8.13,120924,,,A*47
$GPGGA,143423.500,4308.4541,N,07726.3637,W,1,05,2.09,152.9,M,-34.4,M,,*59
lng=-77.439399, lat=43.140884, altitude=152.80, speed=17.24, satellites=5, angle=8.1300, fixquality=1
$GPRMC,143423.750,A,4308.4553,N,07726.3634,W,14.70,7.56,120924,,,A*49
$GPGGA,143424.000,4308.4563,N,07726.3630,W,1,05,2.08,153.1,M,-34.4,M,,*54
lng=-77.439384, lat=43.140918, altitude=152.90, speed=14.70, satellites=5, angle=7.5600, fixquality=1
$GPRMC,143424.250,A,4308.4573,N,07726.3628,W,13.26,7.98,120924,,,A*42
$GPGGA,143424.500,4308.4580,N,07726.3626,W,1,05,2.09,153.3,M,-34.4,M,,*58
lng=-77.439376, lat=43.140956, altitude=153.10, speed=13.26, satellites=5, angle=7.9800, fixquality=1
$GPRMC,143424.750,A,4308.4587,N,07726.3624,W,11.25,6.63,120924,,,A*44
$GPGGA,143425.000,4308.4593,N,07726.3622,W,1,05,2.09,153.5,M,-34.4,M,,*5C
lng=-77.439369, lat=43.140975, altitude=153.30, speed=11.25, satellites=5, angle=6.6300, fixquality=1
$GPRMC,143425.250,A,4308.4599,N,07726.3620,W,9.29,4.90,120924,,,A*70
$GPGGA,143425.500,4308.4606,N,07726.3619,W,1,05,2.09,153.7,M,-34.4,M,,*5C
lng=-77.439361, lat=43.140998, altitude=153.50, speed=9.29, satellites=5, angle=4.9000, fixquality=1
$GPRMC,143425.750,A,4308.4610,N,07726.3619,W,8.64,358.42,120924,,,A*70
$GPGGA,143426.000,4308.4611,N,07726.3617,W,1,05,2.08,153.5,M,-34.4,M,,*51
lng=-77.439361, lat=43.141014, altitude=153.70, speed=8.64, satellites=5, angle=358.4200, fixquality=1
$GPRMC,143426.250,A,4308.4613,N,07726.3615,W,7.13,353.09,120924,,,A*72
$GPGGA,143426.500,4308.4612,N,07726.3613,W,1,05,2.09,153.3,M,-34.4,M,,*54
lng=-77.439353, lat=43.141025, altitude=153.50, speed=7.13, satellites=5, angle=353.0900, fixquality=1
$GPRMC,143426.750,A,4308.4614,N,07726.3612,W,6.20,351.33,120924,,,A*7D
$GPGGA,143427.000,4308.4616,N,07726.3613,W,1,05,2.08,153.1,M,-34.4,M,,*57
lng=-77.439353, lat=43.141025, altitude=153.30, speed=6.20, satellites=5, angle=351.3300, fixquality=1
$GPRMC,143427.250,A,4308.4619,N,07726.3615,W,6.85,341.61,120924,,,A*7A
$GPGGA,143427.500,4308.4622,N,07726.3619,W,1,05,1.65,152.9,M,-34.4,M,,*5E
lng=-77.439353, lat=43.141033, altitude=153.10, speed=6.85, satellites=5, angle=341.6100, fixquality=1
$GPRMC,143427.750,A,4308.4626,N,07726.3623,W,7.47,332.68,120924,,,A*74
$GPGGA,143428.000,4308.4632,N,07726.3627,W,1,05,1.65,152.9,M,-34.4,M,,*58
lng=-77.439369, lat=43.141040, altitude=152.90, speed=7.47, satellites=5, angle=332.6800, fixquality=1
$GPRMC,143428.250,A,4308.4637,N,07726.3633,W,10.11,327.04,120924,,,A*44
$GPGGA,143428.500,4308.4640,N,07726.3642,W,1,05,2.08,152.9,M,-34.4,M,,*53
lng=-77.439384, lat=43.141063, altitude=152.90, speed=10.11, satellites=5, angle=327.0400, fixquality=1
$GPRMC,143428.750,A,4308.4645,N,07726.3652,W,12.51,312.02,120924,,,A*45
$GPGGA,143429.000,4308.4651,N,07726.3662,W,1,05,2.08,152.9,M,-34.4,M,,*55
lng=-77.439422, lat=43.141071, altitude=152.90, speed=12.51, satellites=5, angle=312.0200, fixquality=1
$GPRMC,143429.250,A,4308.4655,N,07726.3673,W,13.84,306.79,120924,,,A*43
$GPGGA,143429.500,4308.4661,N,07726.3685,W,1,05,1.65,153.0,M,-34.4,M,,*5A
lng=-77.439453, lat=43.141090, altitude=152.90, speed=13.84, satellites=5, angle=306.7900, fixquality=1
$GPRMC,143429.750,A,4308.4666,N,07726.3698,W,15.64,303.85,120924,,,A*4D
$GPGGA,143430.000,4308.4670,N,07726.3714,W,1,05,1.65,153.1,M,-34.4,M,,*5F
lng=-77.439491, lat=43.141113, altitude=153.00, speed=15.64, satellites=5, angle=303.8500, fixquality=1
$GPRMC,143430.250,A,4308.4674,N,07726.3730,W,17.13,295.50,120924,,,A*44
$GPGGA,143430.500,4308.4677,N,07726.3748,W,1,05,1.65,153.2,M,-34.4,M,,*57
lng=-77.439552, lat=43.141120, altitude=153.10, speed=17.13, satellites=5, angle=295.5000, fixquality=1
$GPRMC,143430.750,A,4308.4678,N,07726.3766,W,18.66,287.35,120924,,,A*43
$GPGGA,143431.000,4308.4679,N,07726.3785,W,1,05,2.08,153.3,M,-34.4,M,,*55
lng=-77.439605, lat=43.141128, altitude=153.20, speed=18.66, satellites=5, angle=287.3500, fixquality=1
$GPRMC,143431.250,A,4308.4681,N,07726.3804,W,19.84,282.97,120924,,,A*4A
$GPGGA,143431.500,4308.4682,N,07726.3824,W,1,05,2.08,153.4,M,-34.4,M,,*57
lng=-77.439674, lat=43.141136, altitude=153.30, speed=19.84, satellites=5, angle=282.9700, fixquality=1
$GPRMC,143431.750,A,4308.4683,N,07726.3845,W,21.12,279.03,120924,,,A*45
$GPGGA,143432.000,4308.4684,N,07726.3867,W,1,05,2.08,153.5,M,-34.4,M,,*51
lng=-77.439735, lat=43.141136, altitude=153.40, speed=21.12, satellites=5, angle=279.0300, fixquality=1
$GPRMC,143432.250,A,4308.4685,N,07726.3889,W,22.27,276.79,120924,,,A*42
$GPGGA,143432.500,4308.4685,N,07726.3911,W,1,05,1.65,153.5,M,-34.4,M,,*5D
lng=-77.439811, lat=43.141136, altitude=153.50, speed=22.27, satellites=5, angle=276.7900, fixquality=1
$GPRMC,143432.750,A,4308.4685,N,07726.3935,W,23.25,275.38,120924,,,A*44
$GPGGA,143433.000,4308.4685,N,07726.3958,W,1,05,2.08,153.6,M,-34.4,M,,*5F
lng=-77.439895, lat=43.141136, altitude=153.50, speed=23.25, satellites=5, angle=275.3800, fixquality=1
$GPRMC,143433.250,A,4308.4686,N,07726.3981,W,23.53,275.33,120924,,,A*46
$GPGGA,143433.500,4308.4687,N,07726.4004,W,1,05,1.65,153.6,M,-34.4,M,,*57
lng=-77.439964, lat=43.141147, altitude=153.60, speed=23.53, satellites=5, angle=275.3300, fixquality=1
$GPRMC,143433.750,A,4308.4688,N,07726.4027,W,23.54,274.67,120924,,,A*48
$GPGGA,143434.000,4308.4688,N,07726.4050,W,1,05,2.08,153.5,M,-34.4,M,,*50
lng=-77.440048, lat=43.141147, altitude=153.60, speed=23.54, satellites=5, angle=274.6700, fixquality=1
$GPRMC,143434.250,A,4308.4689,N,07726.4074,W,23.54,273.78,120924,,,A*44
$GPGGA,143434.500,4308.4689,N,07726.4097,W,1,05,1.65,153.4,M,-34.4,M,,*56
lng=-77.440116, lat=43.141147, altitude=153.50, speed=23.54, satellites=5, angle=273.7800, fixquality=1
$GPRMC,143434.750,A,4308.4690,N,07726.4120,W,23.56,274.03,120924,,,A*40
$GPGGA,143435.000,4308.4692,N,07726.4143,W,1,05,2.08,153.3,M,-34.4,M,,*5F
lng=-77.440200, lat=43.141155, altitude=153.40, speed=23.56, satellites=5, angle=274.0300, fixquality=1
$GPRMC,143435.250,A,4308.4693,N,07726.4165,W,23.14,275.09,120924,,,A*4B
$GPGGA,143435.500,4308.4693,N,07726.4186,W,1,05,2.08,153.2,M,-34.4,M,,*53
lng=-77.440277, lat=43.141155, altitude=153.30, speed=23.14, satellites=5, angle=275.0900, fixquality=1
$GPRMC,143435.750,A,4308.4693,N,07726.4207,W,22.02,274.97,120924,,,A*49
$GPGGA,143436.000,4308.4693,N,07726.4227,W,1,05,2.08,153.2,M,-34.4,M,,*5D
lng=-77.440345, lat=43.141155, altitude=153.20, speed=22.02, satellites=5, angle=274.9700, fixquality=1
$GPRMC,143436.250,A,4308.4694,N,07726.4247,W,20.82,275.64,120924,,,A*4B
$GPGGA,143436.500,4308.4695,N,07726.4265,W,1,05,1.65,153.2,M,-34.4,M,,*50
lng=-77.440414, lat=43.141155, altitude=153.20, speed=20.82, satellites=5, angle=275.6400, fixquality=1
$GPRMC,143436.750,A,4308.4695,N,07726.4282,W,18.94,277.51,120924,,,A*4E
$GPGGA,143437.000,4308.4694,N,07726.4299,W,1,05,2.08,153.2,M,-34.4,M,,*5E
lng=-77.440467, lat=43.141162, altitude=153.20, speed=18.94, satellites=5, angle=277.5100, fixquality=1
$GPRMC,143437.250,A,4308.4694,N,07726.4314,W,17.13,277.90,120924,,,A*48
$GPGGA,143437.500,4308.4694,N,07726.4329,W,1,05,1.65,153.3,M,-34.4,M,,*58
lng=-77.440528, lat=43.141155, altitude=153.20, speed=17.13, satellites=5, angle=277.9000, fixquality=1
$GPRMC,143437.750,A,4308.4689,N,07726.4343,W,14.63,278.35,120924,,,A*47
$GPGGA,143438.000,4308.4685,N,07726.4356,W,1,05,2.08,153.4,M,-34.4,M,,*55
lng=-77.440567, lat=43.141147, altitude=153.30, speed=14.63, satellites=5, angle=278.3500, fixquality=1
$GPRMC,143438.250,A,4308.4680,N,07726.4366,W,12.37,277.62,120924,,,A*49
$GPGGA,143438.500,4308.4677,N,07726.4376,W,1,05,1.65,153.4,M,-34.4,M,,*57
lng=-77.440605, lat=43.141128, altitude=153.40, speed=12.37, satellites=5, angle=277.6200, fixquality=1
$GPRMC,143438.750,A,4308.4674,N,07726.4384,W,9.81,277.76,120924,,,A*79
$GPGGA,143439.000,4308.4673,N,07726.4391,W,1,05,2.08,153.4,M,-34.4,M,,*56
lng=-77.440643, lat=43.141120, altitude=153.40, speed=9.81, satellites=5, angle=277.7600, fixquality=1
$GPRMC,143439.250,A,4308.4672,N,07726.4398,W,7.99,277.32,120924,,,A*71
$GPGGA,143439.500,4308.4671,N,07726.4402,W,1,05,1.65,153.4,M,-34.4,M,,*54
lng=-77.440666, lat=43.141120, altitude=153.40, speed=7.99, satellites=5, angle=277.3200, fixquality=1
$GPRMC,143439.750,A,4308.4670,N,07726.4407,W,5.76,277.09,120924,,,A*7C
$GPGGA,143440.000,4308.4670,N,07726.4410,W,1,05,2.08,153.5,M,-34.4,M,,*54
lng=-77.440681, lat=43.141113, altitude=153.40, speed=5.76, satellites=5, angle=277.0900, fixquality=1
$GPRMC,143440.250,A,4308.4670,N,07726.4413,W,4.21,276.63,120924,,,A*7C
$GPGGA,143440.500,4308.4670,N,07726.4416,W,1,05,2.08,153.5,M,-34.4,M,,*57
lng=-77.440689, lat=43.141113, altitude=153.50, speed=4.21, satellites=5, angle=276.6300, fixquality=1
$GPRMC,143440.750,A,4308.4670,N,07726.4417,W,2.60,276.61,120924,,,A*7C
$GPGGA,143441.000,4308.4670,N,07726.4419,W,1,05,1.65,153.6,M,-34.4,M,,*57
lng=-77.440696, lat=43.141113, altitude=153.50, speed=2.60, satellites=5, angle=276.6100, fixquality=1
$GPRMC,143441.250,A,4308.4670,N,07726.4419,W,1.51,276.61,120924,,,A*77
$GPGGA,143441.500,4308.4670,N,07726.4419,W,1,05,1.65,153.6,M,-34.4,M,,*52
lng=-77.440696, lat=43.141113, altitude=153.60, speed=1.51, satellites=5, angle=276.6100, fixquality=1
$GPGGA,143444.000,4308.4673,N,07726.4406,W,1,05,1.65,152.5,M,-34.4,M,,*5D
$GPRMC,143444.000,A,4308.4673,N,07726.4406,W,0.07,276.61,120924,,,A*7A
lng=-77.440673, lat=43.141120, altitude=152.50, speed=0.07, satellites=5, angle=276.6100, fixquality=1
$GPGGA,143444.250,4308.4674,N,07726.4405,W,1,05,1.65,152.5,M,-34.4,M,,*5E
$GPRMC,143444.250,A,4308.4674,N,07726.4405,W,0.07,276.61,120924,,,A*79
lng=-77.440673, lat=43.141120, altitude=152.50, speed=0.07, satellites=5, angle=276.6100, fixquality=1
$GPRMC,143508.750,A,4308.4675,N,07726.4406,W,3.88,275.39,120924,,,A*7D
$GPGGA,143509.000,4308.4676,N,07726.4412,W,1,06,1.48,152.4,M,-34.4,M,,*58
lng=-77.440673, lat=43.141120, altitude=152.50, speed=3.88, satellites=6, angle=275.3900, fixquality=1
$GPRMC,143509.250,A,4308.4682,N,07726.4419,W,6.54,275.37,120924,,,A*75
$GPGGA,143509.500,4308.4689,N,07726.4427,W,1,06,1.61,152.2,M,-34.4,M,,*56
lng=-77.440696, lat=43.141136, altitude=152.40, speed=6.54, satellites=6, angle=275.3700, fixquality=1
$GPRMC,143509.750,A,4308.4695,N,07726.4436,W,9.16,279.21,120924,,,A*79
$GPGGA,143510.000,4308.4698,N,07726.4446,W,1,06,1.61,152.0,M,-34.4,M,,*5E
lng=-77.440719, lat=43.141162, altitude=152.20, speed=9.16, satellites=6, angle=279.2100, fixquality=1
$GPRMC,143510.250,A,4308.4701,N,07726.4456,W,10.69,278.02,120924,,,A*4E
$GPGGA,143510.500,4308.4704,N,07726.4468,W,1,06,1.61,152.0,M,-34.4,M,,*53
lng=-77.440765, lat=43.141170, altitude=152.00, speed=10.69, satellites=6, angle=278.0200, fixquality=1
$GPRMC,143510.750,A,4308.4707,N,07726.4481,W,12.55,277.36,120924,,,A*42
$GPGGA,143511.000,4308.4710,N,07726.4494,W,1,06,1.61,151.9,M,-34.4,M,,*5B
lng=-77.440803, lat=43.141178, altitude=152.00, speed=12.55, satellites=6, angle=277.3600, fixquality=1
$GPRMC,143511.250,A,4308.4712,N,07726.4508,W,14.01,278.08,120924,,,A*47
$GPGGA,143511.500,4308.4715,N,07726.4524,W,1,06,1.61,151.9,M,-34.4,M,,*51
lng=-77.440841, lat=43.141185, altitude=151.90, speed=14.01, satellites=6, angle=278.0800, fixquality=1
$GPRMC,143511.750,A,4308.4717,N,07726.4540,W,15.72,279.33,120924,,,A*47
$GPGGA,143512.000,4308.4720,N,07726.4556,W,1,06,1.61,151.9,M,-34.4,M,,*54
lng=-77.440902, lat=43.141193, altitude=151.90, speed=15.72, satellites=6, angle=279.3300, fixquality=1
$GPRMC,143512.250,A,4308.4721,N,07726.4573,W,16.88,278.96,120924,,,A*4C
$GPGGA,143512.500,4308.4723,N,07726.4591,W,1,06,1.61,151.9,M,-34.4,M,,*59
lng=-77.440956, lat=43.141201, altitude=151.90, speed=16.88, satellites=6, angle=278.9600, fixquality=1
$GPRMC,143512.750,A,4308.4725,N,07726.4609,W,18.57,277.42,120924,,,A*49
$GPGGA,143513.000,4308.4727,N,07726.4629,W,1,06,1.61,151.9,M,-34.4,M,,*59
lng=-77.441017, lat=43.141212, altitude=151.90, speed=18.57, satellites=6, angle=277.4200, fixquality=1
$GPRMC,143513.250,A,4308.4729,N,07726.4648,W,19.85,277.92,120924,,,A*47
$GPGGA,143513.500,4308.4731,N,07726.4668,W,1,06,1.61,151.8,M,-34.4,M,,*5F
lng=-77.441078, lat=43.141212, altitude=151.90, speed=19.85, satellites=6, angle=277.9200, fixquality=1
$GPRMC,143513.750,A,4308.4734,N,07726.4689,W,21.54,279.74,120924,,,A*42
$GPGGA,143514.000,4308.4736,N,07726.4709,W,1,06,1.61,151.8,M,-34.4,M,,*5C
lng=-77.441146, lat=43.141227, altitude=151.80, speed=21.54, satellites=6, angle=279.7400, fixquality=1
$GPRMC,143514.250,A,4308.4739,N,07726.4731,W,22.58,281.09,120924,,,A*4D
$GPGGA,143514.500,4308.4742,N,07726.4753,W,1,06,1.61,151.8,M,-34.4,M,,*55
lng=-77.441215, lat=43.141235, altitude=151.80, speed=22.58, satellites=6, angle=281.0900, fixquality=1
$GPRMC,143514.750,A,4308.4744,N,07726.4776,W,24.33,282.84,120924,,,A*4C
$GPGGA,143515.000,4308.4747,N,07726.4799,W,1,06,1.61,151.9,M,-34.4,M,,*53
lng=-77.441291, lat=43.141242, altitude=151.80, speed=24.33, satellites=6, angle=282.8400, fixquality=1
$GPRMC,143515.250,A,4308.4751,N,07726.4823,W,25.31,282.77,120924,,,A*4C
$GPGGA,143515.500,4308.4754,N,07726.4847,W,1,06,1.61,151.9,M,-34.4,M,,*58
lng=-77.441375, lat=43.141250, altitude=151.90, speed=25.31, satellites=6, angle=282.7700, fixquality=1
$GPRMC,143515.750,A,4308.4756,N,07726.4871,W,26.16,281.17,120924,,,A*4A
$GPGGA,143516.000,4308.4758,N,07726.4896,W,1,06,1.61,152.0,M,-34.4,M,,*54
lng=-77.441452, lat=43.141258, altitude=151.90, speed=26.16, satellites=6, angle=281.1700, fixquality=1
$GPRMC,143516.250,A,4308.4761,N,07726.4921,W,26.42,279.71,120924,,,A*4A
$GPGGA,143516.500,4308.4764,N,07726.4947,W,1,06,1.61,152.1,M,-34.4,M,,*52
lng=-77.441535, lat=43.141269, altitude=152.00, speed=26.42, satellites=6, angle=279.7100, fixquality=1
$GPRMC,143516.750,A,4308.4767,N,07726.4972,W,26.53,278.18,120924,,,A*41
$GPGGA,143517.000,4308.4769,N,07726.4998,W,1,06,1.61,152.1,M,-34.4,M,,*59
lng=-77.441619, lat=43.141277, altitude=152.10, speed=26.53, satellites=6, angle=278.1800, fixquality=1
$GPRMC,143517.250,A,4308.4771,N,07726.5023,W,26.64,277.62,120924,,,A*48
$GPGGA,143517.500,4308.4774,N,07726.5049,W,1,06,1.61,152.2,M,-34.4,M,,*57
lng=-77.441703, lat=43.141284, altitude=152.10, speed=26.64, satellites=6, angle=277.6200, fixquality=1
$GPRMC,143517.750,A,4308.4776,N,07726.5075,W,26.73,276.52,120924,,,A*4D
$GPGGA,143518.000,4308.4778,N,07726.5101,W,1,06,1.61,152.2,M,-34.4,M,,*5C
lng=-77.441787, lat=43.141292, altitude=152.20, speed=26.73, satellites=6, angle=276.5200, fixquality=1
$GPRMC,143518.250,A,4308.4779,N,07726.5126,W,26.85,275.45,120924,,,A*43
$GPGGA,143518.500,4308.4781,N,07726.5152,W,1,06,1.61,152.1,M,-34.4,M,,*5A
lng=-77.441879, lat=43.141300, altitude=152.20, speed=26.85, satellites=6, angle=275.4500, fixquality=1
$GPRMC,143518.750,A,4308.4782,N,07726.5178,W,26.82,274.09,120924,,,A*47
$GPGGA,143519.000,4308.4783,N,07726.5204,W,1,06,1.61,151.8,M,-34.4,M,,*56
lng=-77.441963, lat=43.141300, altitude=152.10, speed=26.82, satellites=6, angle=274.0900, fixquality=1
$GPRMC,143519.250,A,4308.4784,N,07726.5230,W,27.35,273.18,120924,,,A*40
$GPGGA,143519.500,4308.4785,N,07726.5256,W,1,06,1.61,151.6,M,-34.4,M,,*5C
lng=-77.442047, lat=43.141307, altitude=151.80, speed=27.35, satellites=6, angle=273.1800, fixquality=1
$GPRMC,143519.750,A,4308.4786,N,07726.5282,W,27.69,272.57,120924,,,A*4D
$GPGGA,143520.000,4308.4788,N,07726.5308,W,1,06,1.61,151.3,M,-34.4,M,,*51
lng=-77.442138, lat=43.141307, altitude=151.60, speed=27.69, satellites=6, angle=272.5700, fixquality=1
$GPRMC,143520.250,A,4308.4789,N,07726.5335,W,28.22,272.85,120924,,,A*4F
$GPGGA,143520.500,4308.4790,N,07726.5362,W,1,06,1.61,151.0,M,-34.4,M,,*52
lng=-77.442230, lat=43.141315, altitude=151.30, speed=28.22, satellites=6, angle=272.8500, fixquality=1
$GPRMC,143520.750,A,4308.4791,N,07726.5389,W,28.50,273.07,120924,,,A*4A
$GPGGA,143521.000,4308.4792,N,07726.5416,W,1,06,1.61,150.8,M,-34.4,M,,*59
lng=-77.442314, lat=43.141315, altitude=151.00, speed=28.50, satellites=6, angle=273.0700, fixquality=1
$GPRMC,143521.250,A,4308.4793,N,07726.5443,W,28.74,273.46,120924,,,A*4E
$GPGGA,143521.500,4308.4794,N,07726.5471,W,1,06,1.61,150.5,M,-34.4,M,,*56
lng=-77.442405, lat=43.141323, altitude=150.80, speed=28.74, satellites=6, angle=273.4600, fixquality=1
$GPRMC,143521.750,A,4308.4796,N,07726.5499,W,28.91,274.05,120924,,,A*42
$GPGGA,143522.000,4308.4797,N,07726.5527,W,1,06,1.61,150.2,M,-34.4,M,,*56
lng=-77.442497, lat=43.141323, altitude=150.50, speed=28.91, satellites=6, angle=274.0500, fixquality=1
$GPRMC,143522.250,A,4308.4799,N,07726.5555,W,29.12,274.37,120924,,,A*41
$GPGGA,143522.500,4308.4800,N,07726.5583,W,1,06,1.61,149.9,M,-34.4,M,,*5F
lng=-77.442596, lat=43.141334, altitude=150.20, speed=29.12, satellites=6, angle=274.3700, fixquality=1
$GPRMC,143522.750,A,4308.4802,N,07726.5611,W,30.15,275.13,120924,,,A*42
$GPGGA,143523.000,4308.4804,N,07726.5640,W,1,06,1.61,149.7,M,-34.4,M,,*5D
lng=-77.442680, lat=43.141334, altitude=149.90, speed=30.15, satellites=6, angle=275.1300, fixquality=1
$GPRMC,143523.250,A,4308.4806,N,07726.5668,W,30.37,275.77,120924,,,A*4E
$GPGGA,143523.500,4308.4807,N,07726.5697,W,1,06,1.61,149.5,M,-34.4,M,,*53
lng=-77.442779, lat=43.141342, altitude=149.70, speed=30.37, satellites=6, angle=275.7700, fixquality=1
$GPRMC,143523.750,A,4308.4809,N,07726.5725,W,30.84,276.75,120924,,,A*45
$GPGGA,143524.000,4308.4811,N,07726.5754,W,1,06,1.61,149.4,M,-34.4,M,,*59
lng=-77.442871, lat=43.141349, altitude=149.50, speed=30.84, satellites=6, angle=276.7500, fixquality=1
$GPRMC,143524.250,A,4308.4813,N,07726.5783,W,31.03,276.89,120924,,,A*4D
$GPGGA,143524.500,4308.4816,N,07726.5812,W,1,06,1.61,149.4,M,-34.4,M,,*56
lng=-77.442970, lat=43.141357, altitude=149.40, speed=31.03, satellites=6, angle=276.8900, fixquality=1
$GPRMC,143524.750,A,4308.4817,N,07726.5842,W,31.43,276.65,120924,,,A*48
$GPGGA,143525.000,4308.4819,N,07726.5872,W,1,06,1.61,149.4,M,-34.4,M,,*5B
lng=-77.443069, lat=43.141365, altitude=149.40, speed=31.43, satellites=6, angle=276.6500, fixquality=1
$GPRMC,143525.250,A,4308.4821,N,07726.5901,W,31.50,275.84,120924,,,A*41
$GPGGA,143525.500,4308.4823,N,07726.5931,W,1,06,1.61,149.5,M,-34.4,M,,*50
lng=-77.443168, lat=43.141365, altitude=149.40, speed=31.50, satellites=6, angle=275.8400, fixquality=1
$GPRMC,143525.750,A,4308.4824,N,07726.5960,W,31.54,275.09,120924,,,A*47
$GPGGA,143526.000,4308.4826,N,07726.5990,W,1,06,1.61,149.7,M,-34.4,M,,*5A
lng=-77.443267, lat=43.141372, altitude=149.50, speed=31.54, satellites=6, angle=275.0900, fixquality=1
$GPRMC,143526.250,A,4308.4827,N,07726.6020,W,31.62,274.39,120924,,,A*4B
$GPGGA,143526.500,4308.4829,N,07726.6050,W,1,06,1.61,149.9,M,-34.4,M,,*58
lng=-77.443367, lat=43.141380, altitude=149.70, speed=31.62, satellites=6, angle=274.3900, fixquality=1
$GPRMC,143526.750,A,4308.4830,N,07726.6081,W,32.03,273.22,120924,,,A*4A
$GPGGA,143527.000,4308.4830,N,07726.6111,W,1,06,1.61,150.0,M,-34.4,M,,*51
lng=-77.443466, lat=43.141380, altitude=149.90, speed=32.03, satellites=6, angle=273.2200, fixquality=1
$GPRMC,143527.250,A,4308.4831,N,07726.6142,W,32.11,271.66,120924,,,A*40
$GPGGA,143527.500,4308.4831,N,07726.6172,W,1,06,1.61,150.1,M,-34.4,M,,*51
lng=-77.443572, lat=43.141380, altitude=150.00, speed=32.11, satellites=6, angle=271.6600, fixquality=1
$GPRMC,143527.750,A,4308.4831,N,07726.6203,W,32.21,269.61,120924,,,A*4E
$GPGGA,143528.000,4308.4831,N,07726.6233,W,1,06,1.61,150.2,M,-34.4,M,,*5E
lng=-77.443672, lat=43.141380, altitude=150.10, speed=32.21, satellites=6, angle=269.6100, fixquality=1
$GPRMC,143528.250,A,4308.4831,N,07726.6264,W,32.28,268.47,120924,,,A*49
$GPGGA,143528.500,4308.4831,N,07726.6295,W,1,06,1.61,150.3,M,-34.4,M,,*56
lng=-77.443771, lat=43.141380, altitude=150.20, speed=32.28, satellites=6, angle=268.4700, fixquality=1
$GPRMC,143528.750,A,4308.4830,N,07726.6327,W,33.03,267.17,120924,,,A*49
$GPGGA,143529.000,4308.4830,N,07726.6358,W,1,06,1.61,150.2,M,-34.4,M,,*52
lng=-77.443878, lat=43.141380, altitude=150.30, speed=33.03, satellites=6, angle=267.1700, fixquality=1
$GPRMC,143529.250,A,4308.4829,N,07726.6390,W,33.31,267.27,120924,,,A*4B
$GPGGA,143529.500,4308.4828,N,07726.6422,W,1,06,1.61,150.2,M,-34.4,M,,*54
lng=-77.443984, lat=43.141380, altitude=150.20, speed=33.31, satellites=6, angle=267.2700, fixquality=1
$GPRMC,143529.750,A,4308.4828,N,07726.6455,W,33.63,267.21,120924,,,A*40
$GPGGA,143530.000,4308.4827,N,07726.6487,W,1,06,1.61,150.0,M,-34.4,M,,*5B
lng=-77.444091, lat=43.141380, altitude=150.20, speed=33.63, satellites=6, angle=267.2100, fixquality=1
$GPRMC,143530.250,A,4308.4826,N,07726.6520,W,34.34,267.23,120924,,,A*47
$GPGGA,143530.500,4308.4825,N,07726.6554,W,1,06,1.61,149.9,M,-34.4,M,,*52
lng=-77.444198, lat=43.141372, altitude=150.00, speed=34.34, satellites=6, angle=267.2300, fixquality=1
$GPRMC,143530.750,A,4308.4823,N,07726.6587,W,34.73,267.45,120924,,,A*49
$GPGGA,143531.000,4308.4821,N,07726.6621,W,1,06,1.61,149.9,M,-34.4,M,,*53
lng=-77.444313, lat=43.141372, altitude=149.90, speed=34.73, satellites=6, angle=267.4500, fixquality=1
$GPRMC,143531.250,A,4308.4818,N,07726.6654,W,34.99,267.87,120924,,,A*42
$GPGGA,143531.500,4308.4817,N,07726.6688,W,1,06,1.61,149.9,M,-34.4,M,,*50
lng=-77.444427, lat=43.141365, altitude=149.90, speed=34.99, satellites=6, angle=267.8700, fixquality=1
$GPRMC,143531.750,A,4308.4815,N,07726.6722,W,35.24,268.72,120924,,,A*48
$GPGGA,143532.000,4308.4814,N,07726.6756,W,1,06,1.61,150.0,M,-34.4,M,,*56
lng=-77.444541, lat=43.141357, altitude=149.90, speed=35.24, satellites=6, angle=268.7200, fixquality=1
$GPRMC,143532.250,A,4308.4813,N,07726.6790,W,35.23,268.61,120924,,,A*44
$GPGGA,143532.500,4308.4811,N,07726.6823,W,1,06,1.61,150.1,M,-34.4,M,,*5A
lng=-77.444656, lat=43.141357, altitude=150.00, speed=35.23, satellites=6, angle=268.6100, fixquality=1
$GPRMC,143532.750,A,4308.4809,N,07726.6857,W,35.11,268.67,120924,,,A*49
$GPGGA,143533.000,4308.4808,N,07726.6891,W,1,06,1.61,150.2,M,-34.4,M,,*5C
lng=-77.444755, lat=43.141349, altitude=150.10, speed=35.11, satellites=6, angle=268.6700, fixquality=1
$GPRMC,143533.250,A,4308.4807,N,07726.6925,W,35.14,268.51,120924,,,A*47
$GPGGA,143533.500,4308.4806,N,07726.6958,W,1,06,1.61,150.3,M,-34.4,M,,*52
lng=-77.444869, lat=43.141342, altitude=150.20, speed=35.14, satellites=6, angle=268.5100, fixquality=1
$GPRMC,143533.750,A,4308.4804,N,07726.6992,W,35.04,267.74,120924,,,A*44
$GPGGA,143534.000,4308.4802,N,07726.7025,W,1,06,1.61,150.4,M,-34.4,M,,*51
lng=-77.444984, lat=43.141342, altitude=150.30, speed=35.04, satellites=6, angle=267.7400, fixquality=1
$GPRMC,143534.250,A,4308.4801,N,07726.7059,W,34.83,267.25,120924,,,A*46
$GPGGA,143534.500,4308.4799,N,07726.7092,W,1,06,1.61,150.5,M,-34.4,M,,*54
lng=-77.445098, lat=43.141334, altitude=150.40, speed=34.83, satellites=6, angle=267.2500, fixquality=1
$GPRMC,143534.750,A,4308.4798,N,07726.7125,W,34.23,268.11,120924,,,A*44
$GPGGA,143535.000,4308.4797,N,07726.7157,W,1,06,1.61,150.8,M,-34.4,M,,*5B
lng=-77.445205, lat=43.141334, altitude=150.50, speed=34.23, satellites=6, angle=268.1100, fixquality=1
$GPRMC,143535.250,A,4308.4796,N,07726.7189,W,33.88,268.36,120924,,,A*4B
$GPGGA,143535.500,4308.4794,N,07726.7221,W,1,06,1.61,151.0,M,-34.4,M,,*56
lng=-77.445312, lat=43.141323, altitude=150.80, speed=33.88, satellites=6, angle=268.3600, fixquality=1
$GPRMC,143535.750,A,4308.4792,N,07726.7253,W,33.61,267.54,120924,,,A*42
$GPGGA,143536.000,4308.4790,N,07726.7284,W,1,06,1.61,151.2,M,-34.4,M,,*59
lng=-77.445419, lat=43.141315, altitude=151.00, speed=33.61, satellites=6, angle=267.5400, fixquality=1
$GPRMC,143536.250,A,4308.4788,N,07726.7315,W,32.70,267.37,120924,,,A*48
$GPGGA,143536.500,4308.4786,N,07726.7346,W,1,06,1.61,151.5,M,-34.4,M,,*53
lng=-77.445526, lat=43.141315, altitude=151.20, speed=32.70, satellites=6, angle=267.3700, fixquality=1
$GPRMC,143536.750,A,4308.4784,N,07726.7377,W,32.44,267.55,120924,,,A*46
$GPGGA,143537.000,4308.4783,N,07726.7408,W,1,06,1.61,151.8,M,-34.4,M,,*52
lng=-77.445632, lat=43.141307, altitude=151.50, speed=32.44, satellites=6, angle=267.5500, fixquality=1
$GPRMC,143537.250,A,4308.4781,N,07726.7439,W,32.44,267.60,120924,,,A*4C
$GPGGA,143537.500,4308.4779,N,07726.7470,W,1,06,1.61,152.1,M,-34.4,M,,*57
lng=-77.445732, lat=43.141300, altitude=151.80, speed=32.44, satellites=6, angle=267.6000, fixquality=1
$GPRMC,143537.750,A,4308.4778,N,07726.7501,W,32.40,267.43,120924,,,A*40
$GPGGA,143538.000,4308.4776,N,07726.7531,W,1,06,1.61,152.4,M,-34.4,M,,*53
lng=-77.445831, lat=43.141300, altitude=152.10, speed=32.40, satellites=6, angle=267.4300, fixquality=1
$GPRMC,143538.250,A,4308.4775,N,07726.7562,W,32.39,267.26,120924,,,A*4F
$GPGGA,143538.500,4308.4773,N,07726.7593,W,1,06,1.61,152.7,M,-34.4,M,,*58
lng=-77.445938, lat=43.141292, altitude=152.40, speed=32.39, satellites=6, angle=267.2600, fixquality=1
$GPRMC,143538.750,A,4308.4772,N,07726.7624,W,32.59,266.95,120924,,,A*43
$GPGGA,143539.000,4308.4769,N,07726.7655,W,1,06,1.61,153.0,M,-34.4,M,,*58
lng=-77.446037, lat=43.141284, altitude=152.70, speed=32.59, satellites=6, angle=266.9500, fixquality=1
$GPRMC,143539.250,A,4308.4768,N,07726.7687,W,32.67,266.61,120924,,,A*43
$GPGGA,143539.500,4308.4766,N,07726.7718,W,1,06,1.61,153.4,M,-34.4,M,,*5E
lng=-77.446144, lat=43.141277, altitude=153.00, speed=32.67, satellites=6, angle=266.6100, fixquality=1
$GPRMC,143539.750,A,4308.4764,N,07726.7749,W,32.88,265.49,120924,,,A*41
$GPGGA,143540.000,4308.4761,N,07726.7780,W,1,06,1.61,153.6,M,-34.4,M,,*51
lng=-77.446250, lat=43.141277, altitude=153.40, speed=32.88, satellites=6, angle=265.4900, fixquality=1
$GPRMC,143540.250,A,4308.4759,N,07726.7811,W,33.11,264.41,120924,,,A*4E
$GPGGA,143540.500,4308.4757,N,07726.7843,W,1,06,1.48,153.9,M,-34.4,M,,*55
lng=-77.446357, lat=43.141269, altitude=153.60, speed=33.11, satellites=6, angle=264.4100, fixquality=1
$GPRMC,143540.750,A,4308.4754,N,07726.7874,W,33.35,263.78,120924,,,A*4E
$GPGGA,143541.000,4308.4752,N,07726.7906,W,1,06,1.61,154.2,M,-34.4,M,,*53
lng=-77.446456, lat=43.141258, altitude=153.90, speed=33.35, satellites=6, angle=263.7800, fixquality=1
$GPRMC,143541.250,A,4308.4750,N,07726.7938,W,33.74,263.06,120924,,,A*4B
$GPGGA,143541.500,4308.4747,N,07726.7971,W,1,06,1.61,154.4,M,-34.4,M,,*54
lng=-77.446563, lat=43.141250, altitude=154.20, speed=33.74, satellites=6, angle=263.0600, fixquality=1
$GPRMC,143541.750,A,4308.4745,N,07726.8003,W,34.00,262.50,120924,,,A*42
$GPGGA,143542.000,4308.4742,N,07726.8035,W,1,06,1.61,154.5,M,-34.4,M,,*50
lng=-77.446670, lat=43.141242, altitude=154.40, speed=34.00, satellites=6, angle=262.5000, fixquality=1
$GPRMC,143542.250,A,4308.4740,N,07726.8068,W,34.19,263.06,120924,,,A*46
$GPGGA,143542.500,4308.4738,N,07726.8101,W,1,06,1.61,154.7,M,-34.4,M,,*5C
lng=-77.446777, lat=43.141235, altitude=154.50, speed=34.19, satellites=6, angle=263.0600, fixquality=1
$GPRMC,143542.750,A,4308.4735,N,07726.8134,W,34.33,263.90,120924,,,A*4E
$GPGGA,143543.000,4308.4733,N,07726.8167,W,1,06,1.61,154.7,M,-34.4,M,,*53
lng=-77.446891, lat=43.141227, altitude=154.70, speed=34.33, satellites=6, angle=263.9000, fixquality=1
$GPRMC,143543.250,A,4308.4730,N,07726.8201,W,35.07,263.93,120924,,,A*4F
$GPGGA,143543.500,4308.4727,N,07726.8234,W,1,06,1.61,154.8,M,-34.4,M,,*59
lng=-77.447006, lat=43.141220, altitude=154.70, speed=35.07, satellites=6, angle=263.9300, fixquality=1
$GPRMC,143543.750,A,4308.4725,N,07726.8268,W,35.19,263.96,120924,,,A*4B
$GPGGA,143544.000,4308.4722,N,07726.8302,W,1,06,1.61,154.9,M,-34.4,M,,*5B
lng=-77.447113, lat=43.141212, altitude=154.80, speed=35.19, satellites=6, angle=263.9600, fixquality=1
$GPRMC,143544.250,A,4308.4719,N,07726.8337,W,36.07,264.30,120924,,,A*4A
$GPGGA,143544.500,4308.4717,N,07726.8371,W,1,06,1.61,155.0,M,-34.4,M,,*54
lng=-77.447227, lat=43.141193, altitude=154.90, speed=36.07, satellites=6, angle=264.3000, fixquality=1
$GPRMC,143544.750,A,4308.4714,N,07726.8406,W,36.83,264.78,120924,,,A*47
$GPGGA,143545.000,4308.4711,N,07726.8442,W,1,06,1.61,155.0,M,-34.4,M,,*51
lng=-77.447349, lat=43.141185, altitude=155.00, speed=36.83, satellites=6, angle=264.7800, fixquality=1
$GPRMC,143545.250,A,4308.4708,N,07726.8477,W,37.22,264.43,120924,,,A*4A
$GPGGA,143545.500,4308.4706,N,07726.8513,W,1,06,1.61,155.1,M,-34.4,M,,*56
lng=-77.447463, lat=43.141178, altitude=155.00, speed=37.22, satellites=6, angle=264.4300, fixquality=1
$GPRMC,143545.750,A,4308.4703,N,07726.8549,W,37.65,264.56,120924,,,A*4F
$GPGGA,143546.000,4308.4701,N,07726.8585,W,1,06,1.61,155.1,M,-34.4,M,,*58
lng=-77.447586, lat=43.141170, altitude=155.10, speed=37.65, satellites=6, angle=264.5600, fixquality=1
$GPRMC,143546.250,A,4308.4698,N,07726.8621,W,37.97,265.25,120924,,,A*4F
$GPGGA,143546.500,4308.4696,N,07726.8657,W,1,06,1.61,155.1,M,-34.4,M,,*5E
lng=-77.447708, lat=43.141162, altitude=155.10, speed=37.97, satellites=6, angle=265.2500, fixquality=1
$GPRMC,143546.750,A,4308.4692,N,07726.8693,W,37.70,265.37,120924,,,A*43
$GPGGA,143547.000,4308.4689,N,07726.8729,W,1,06,1.61,155.1,M,-34.4,M,,*5C
lng=-77.447822, lat=43.141155, altitude=155.10, speed=37.70, satellites=6, angle=265.3700, fixquality=1
$GPRMC,143547.250,A,4308.4686,N,07726.8764,W,37.67,264.89,120924,,,A*49
$GPGGA,143547.500,4308.4683,N,07726.8800,W,1,06,1.61,155.2,M,-34.4,M,,*54
lng=-77.447944, lat=43.141147, altitude=155.10, speed=37.67, satellites=6, angle=264.8900, fixquality=1
$GPRMC,143547.750,A,4308.4679,N,07726.8836,W,37.71,264.46,120924,,,A*40
$GPGGA,143548.000,4308.4676,N,07726.8871,W,1,06,1.61,155.3,M,-34.4,M,,*53
lng=-77.448066, lat=43.141128, altitude=155.20, speed=37.71, satellites=6, angle=264.4600, fixquality=1
$GPRMC,143548.250,A,4308.4673,N,07726.8907,W,37.29,264.64,120924,,,A*4E
$GPGGA,143548.500,4308.4670,N,07726.8942,W,1,06,1.61,155.4,M,-34.4,M,,*56
lng=-77.448173, lat=43.141120, altitude=155.30, speed=37.29, satellites=6, angle=264.6400, fixquality=1
$GPRMC,143548.750,A,4308.4667,N,07726.8977,W,36.78,265.35,120924,,,A*49
$GPGGA,143549.000,4308.4664,N,07726.9012,W,1,06,1.61,155.6,M,-34.4,M,,*58
lng=-77.448287, lat=43.141113, altitude=155.40, speed=36.78, satellites=6, angle=265.3500, fixquality=1
$GPRMC,143549.250,A,4308.4662,N,07726.9046,W,36.50,265.88,120924,,,A*4E
$GPGGA,143549.500,4308.4660,N,07726.9081,W,1,06,1.61,155.7,M,-34.4,M,,*52
lng=-77.448410, lat=43.141105, altitude=155.60, speed=36.50, satellites=6, angle=265.8800, fixquality=1
$GPRMC,143549.750,A,4308.4657,N,07726.9115,W,36.43,266.11,120924,,,A*4B
$GPGGA,143550.000,4308.4655,N,07726.9150,W,1,06,1.61,155.9,M,-34.4,M,,*5A
lng=-77.448524, lat=43.141098, altitude=155.70, speed=36.43, satellites=6, angle=266.1100, fixquality=1
$GPRMC,143550.250,A,4308.4653,N,07726.9184,W,36.41,266.07,120924,,,A*4F
$GPGGA,143550.500,4308.4651,N,07726.9218,W,1,06,1.60,156.1,M,-34.4,M,,*5E
lng=-77.448638, lat=43.141090, altitude=155.90, speed=36.41, satellites=6, angle=266.0700, fixquality=1
$GPRMC,143550.750,A,4308.4649,N,07726.9252,W,36.11,265.63,120924,,,A*4D
$GPGGA,143551.000,4308.4647,N,07726.9286,W,1,06,1.61,156.3,M,-34.4,M,,*59
lng=-77.448753, lat=43.141078, altitude=156.10, speed=36.11, satellites=6, angle=265.6300, fixquality=1
$GPRMC,143551.250,A,4308.4644,N,07726.9320,W,35.92,265.20,120924,,,A*4F
$GPGGA,143551.500,4308.4642,N,07726.9354,W,1,06,1.61,156.5,M,-34.4,M,,*51
lng=-77.448867, lat=43.141071, altitude=156.30, speed=35.92, satellites=6, angle=265.2000, fixquality=1
$GPRMC,143551.750,A,4308.4640,N,07726.9387,W,35.81,265.01,120924,,,A*42
$GPGGA,143552.000,4308.4638,N,07726.9421,W,1,06,1.61,156.6,M,-34.4,M,,*5C
lng=-77.448974, lat=43.141063, altitude=156.50, speed=35.81, satellites=6, angle=265.0100, fixquality=1
$GPRMC,143552.250,A,4308.4635,N,07726.9455,W,35.80,264.99,120924,,,A*4F
$GPGGA,143552.500,4308.4633,N,07726.9489,W,1,06,1.61,156.8,M,-34.4,M,,*5E
lng=-77.449089, lat=43.141056, altitude=156.60, speed=35.80, satellites=6, angle=264.9900, fixquality=1
$GPRMC,143552.750,A,4308.4630,N,07726.9523,W,35.79,264.86,120924,,,A*47
$GPGGA,143553.000,4308.4628,N,07726.9556,W,1,06,1.60,156.9,M,-34.4,M,,*53
lng=-77.449203, lat=43.141048, altitude=156.80, speed=35.79, satellites=6, angle=264.8600, fixquality=1
$GPRMC,143553.250,A,4308.4624,N,07726.9590,W,35.70,264.00,120924,,,A*49
$GPGGA,143553.500,4308.4622,N,07726.9624,W,1,06,1.60,157.0,M,-34.4,M,,*52
lng=-77.449317, lat=43.141040, altitude=156.90, speed=35.70, satellites=6, angle=264.0000, fixquality=1
$GPRMC,143553.750,A,4308.4619,N,07726.9657,W,35.65,264.30,120924,,,A*4D
$GPGGA,143554.000,4308.4616,N,07726.9691,W,1,06,1.60,157.1,M,-34.4,M,,*58
lng=-77.449432, lat=43.141033, altitude=157.00, speed=35.65, satellites=6, angle=264.3000, fixquality=1
$GPRMC,143554.250,A,4308.4614,N,07726.9725,W,35.63,265.07,120924,,,A*45
$GPGGA,143554.500,4308.4611,N,07726.9758,W,1,06,1.60,157.2,M,-34.4,M,,*5D
lng=-77.449546, lat=43.141025, altitude=157.10, speed=35.63, satellites=6, angle=265.0700, fixquality=1
$GPRMC,143554.750,A,4308.4609,N,07726.9792,W,35.54,265.57,120924,,,A*41
$GPGGA,143555.000,4308.4606,N,07726.9825,W,1,06,1.60,157.2,M,-34.4,M,,*5A
lng=-77.449653, lat=43.141014, altitude=157.20, speed=35.54, satellites=6, angle=265.5700, fixquality=1
$GPRMC,143555.250,A,4308.4604,N,07726.9859,W,35.53,265.22,120924,,,A*45
$GPGGA,143555.500,4308.4601,N,07726.9894,W,1,06,1.60,157.3,M,-34.4,M,,*53
lng=-77.449760, lat=43.141006, altitude=157.20, speed=35.53, satellites=6, angle=265.2200, fixquality=1
$GPRMC,143555.750,A,4308.4599,N,07726.9928,W,36.60,265.49,120924,,,A*4E
$GPGGA,143556.000,4308.4597,N,07726.9963,W,1,06,1.60,157.5,M,-34.4,M,,*56
lng=-77.449874, lat=43.140998, altitude=157.30, speed=36.60, satellites=6, angle=265.4900, fixquality=1
$GPRMC,143556.250,A,4308.4595,N,07726.9999,W,37.23,265.79,120924,,,A*4B
$GPGGA,143556.500,4308.4593,N,07727.0034,W,1,06,1.60,157.6,M,-34.4,M,,*57
lng=-77.449996, lat=43.140991, altitude=157.50, speed=37.23, satellites=6, angle=265.7900, fixquality=1
$GPRMC,143556.750,A,4308.4591,N,07727.0070,W,37.57,265.46,120924,,,A*43
$GPGGA,143557.000,4308.4589,N,07727.0107,W,1,06,1.60,157.7,M,-34.4,M,,*58
lng=-77.450111, lat=43.140983, altitude=157.60, speed=37.57, satellites=6, angle=265.4600, fixquality=1
$GPRMC,143557.250,A,4308.4587,N,07727.0143,W,37.87,265.41,120924,,,A*4B
$GPGGA,143557.500,4308.4585,N,07727.0180,W,1,06,1.60,157.9,M,-34.4,M,,*50
lng=-77.450233, lat=43.140975, altitude=157.70, speed=37.87, satellites=6, angle=265.4100, fixquality=1
$GPRMC,143557.750,A,4308.4583,N,07727.0217,W,39.28,266.29,120924,,,A*4E
$GPGGA,143558.000,4308.4582,N,07727.0255,W,1,06,1.60,158.1,M,-34.4,M,,*51
lng=-77.450355, lat=43.140975, altitude=157.90, speed=39.28, satellites=6, angle=266.2900, fixquality=1
$GPRMC,143558.250,A,4308.4581,N,07727.0293,W,39.92,266.91,120924,,,A*48
$GPGGA,143558.500,4308.4580,N,07727.0331,W,1,06,1.60,158.3,M,-34.4,M,,*57
lng=-77.450485, lat=43.140968, altitude=158.10, speed=39.92, satellites=6, angle=266.9100, fixquality=1
$GPRMC,143558.750,A,4308.4579,N,07727.0370,W,40.44,267.75,120924,,,A*48
$GPGGA,143559.000,4308.4579,N,07727.0408,W,1,06,1.60,158.4,M,-34.4,M,,*5F
lng=-77.450614, lat=43.140968, altitude=158.30, speed=40.44, satellites=6, angle=267.7500, fixquality=1
$GPRMC,143559.250,A,4308.4579,N,07727.0447,W,40.65,268.75,120924,,,A*43
$GPGGA,143559.500,4308.4579,N,07727.0486,W,1,06,1.60,158.6,M,-34.4,M,,*5E
lng=-77.450752, lat=43.140968, altitude=158.40, speed=40.65, satellites=6, angle=268.7500, fixquality=1
$GPRMC,143559.750,A,4308.4580,N,07727.0525,W,40.87,269.90,120924,,,A*43
$GPGGA,143600.000,4308.4581,N,07727.0564,W,1,06,1.61,158.7,M,-34.4,M,,*5E
lng=-77.450881, lat=43.140968, altitude=158.60, speed=40.87, satellites=6, angle=269.9000, fixquality=1
$GPRMC,143600.250,A,4308.4581,N,07727.0603,W,41.29,270.61,120924,,,A*4C
$GPGGA,143600.500,4308.4582,N,07727.0643,W,1,06,1.60,158.9,M,-34.4,M,,*51
lng=-77.451004, lat=43.140968, altitude=158.70, speed=41.29, satellites=6, angle=270.6100, fixquality=1
$GPRMC,143600.750,A,4308.4583,N,07727.0683,W,41.36,270.98,120924,,,A*4B
$GPGGA,143601.000,4308.4584,N,07727.0724,W,1,06,1.60,159.0,M,-34.4,M,,*5B
lng=-77.451141, lat=43.140975, altitude=158.90, speed=41.36, satellites=6, angle=270.9800, fixquality=1
$GPRMC,143601.250,A,4308.4585,N,07727.0765,W,42.60,271.84,120924,,,A*4C
$GPGGA,143601.500,4308.4587,N,07727.0805,W,1,06,1.60,159.1,M,-34.4,M,,*50
lng=-77.451278, lat=43.140975, altitude=159.00, speed=42.60, satellites=6, angle=271.8400, fixquality=1
$GPRMC,143601.750,A,4308.4588,N,07727.0846,W,42.66,273.41,120924,,,A*47
$GPGGA,143602.000,4308.4591,N,07727.0887,W,1,06,1.60,159.0,M,-34.4,M,,*5A
lng=-77.451408, lat=43.140983, altitude=159.10, speed=42.66, satellites=6, angle=273.4100, fixquality=1
$GPRMC,143602.250,A,4308.4594,N,07727.0927,W,42.94,274.92,120924,,,A*4E
$GPGGA,143602.500,4308.4597,N,07727.0968,W,1,06,1.60,159.0,M,-34.4,M,,*59
