Vers 72
USE_SERIAL_FEEDBACK=true
DEVELOPMENT_MODE=false
USE_RMC_ONLY=false

$GPRMC,223435.000,A,4305.1723,N,07740.8711,W,0.26,191.18,120924,,,A*7B
$GPGGA,223435.250,4305.1722,N,07740.8711,W,1,04,3.25,171.3,M,-34.4,M,,*5D
lng=-77.681182, lat=43.086204, altitude=176.20, speed=0.26, satellites=4, angle=191.1800, fixquality=1
$GPRMC,223435.500,A,4305.1723,N,07740.8710,W,0.26,190.16,120924,,,A*70
$GPGGA,223435.750,4305.1724,N,07740.8710,W,1,04,3.25,171.7,M,-34.4,M,,*5B
lng=-77.681182, lat=43.086204, altitude=171.30, speed=0.26, satellites=4, angle=190.1600, fixquality=1
$GPGGA,223449.000,4305.1736,N,07740.8706,W,1,04,3.24,174.0,M,-34.4,M,,*55
$GPRMC,223449.000,A,4305.1736,N,07740.8706,W,0.14,177.05,120924,,,A*77
lng=-77.681175, lat=43.086231, altitude=174.00, speed=0.21, satellites=4, angle=149.8000, fixquality=1
$GPGGA,223449.250,4305.1736,N,07740.8706,W,1,04,3.24,174.0,M,-34.4,M,,*52
$GPRMC,223449.250,A,4305.1736,N,07740.8706,W,0.13,167.34,120924,,,A*74
lng=-77.681175, lat=43.086231, altitude=174.00, speed=0.14, satellites=4, angle=177.0500, fixquality=1
$GPGGA,223500.250,4305.1725,N,07740.8712,W,1,08,0.94,173.4,M,-34.4,M,,*5E
$GPRMC,223500.250,A,4305.1725,N,07740.8712,W,0.20,200.87,120924,,,A*75
lng=-77.681182, lat=43.086204, altitude=173.40, speed=0.13, satellites=8, angle=319.7000, fixquality=1
$GPGGA,223500.500,4305.1721,N,07740.8712,W,1,08,0.94,173.2,M,-34.4,M,,*5E
$GPRMC,223500.500,A,4305.1721,N,07740.8712,W,0.22,204.14,120924,,,A*7F
lng=-77.681182, lat=43.086196, altitude=173.20, speed=0.20, satellites=8, angle=200.8700, fixquality=1
$GPRMC,223522.500,A,4305.1714,N,07740.8722,W,2.69,245.01,120924,,,A*76
$GPGGA,223522.750,4305.1713,N,07740.8727,W,1,08,0.94,174.9,M,-34.4,M,,*52
lng=-77.681198, lat=43.086189, altitude=174.90, speed=2.69, satellites=8, angle=245.0100, fixquality=1
$GPRMC,223523.000,A,4305.1711,N,07740.8732,W,4.25,241.56,120924,,,A*7E
$GPGGA,223523.250,4305.1710,N,07740.8736,W,1,08,0.97,174.9,M,-34.4,M,,*56
lng=-77.681221, lat=43.086181, altitude=174.90, speed=4.25, satellites=8, angle=241.5600, fixquality=1
$GPRMC,223523.500,A,4305.1709,N,07740.8741,W,4.30,246.20,120924,,,A*74
$GPGGA,223523.750,4305.1709,N,07740.8745,W,1,08,0.97,174.9,M,-34.4,M,,*5F
lng=-77.681236, lat=43.086181, altitude=174.90, speed=4.30, satellites=8, angle=246.2000, fixquality=1
$GPRMC,223524.000,A,4305.1708,N,07740.8750,W,4.24,256.61,120924,,,A*76
$GPGGA,223524.250,4305.1707,N,07740.8754,W,1,08,0.97,174.9,M,-34.4,M,,*53
lng=-77.681251, lat=43.086181, altitude=174.90, speed=4.24, satellites=8, angle=256.6100, fixquality=1
$GPRMC,223524.500,A,4305.1707,N,07740.8758,W,4.27,265.71,120924,,,A*76
$GPGGA,223524.750,4305.1708,N,07740.8763,W,1,08,0.97,174.9,M,-34.4,M,,*5D
lng=-77.681266, lat=43.086181, altitude=174.90, speed=4.27, satellites=8, angle=265.7100, fixquality=1
$GPRMC,223525.000,A,4305.1709,N,07740.8768,W,5.03,285.71,120924,,,A*76
$GPGGA,223525.250,4305.1710,N,07740.8774,W,1,08,0.97,174.8,M,-34.4,M,,*57
lng=-77.681282, lat=43.086181, altitude=174.90, speed=5.03, satellites=8, angle=285.7100, fixquality=1
$GPRMC,223525.500,A,4305.1712,N,07740.8779,W,4.88,287.23,120924,,,A*7E
$GPGGA,223525.750,4305.1713,N,07740.8783,W,1,08,0.97,174.8,M,-34.4,M,,*59
lng=-77.681297, lat=43.086189, altitude=174.80, speed=4.88, satellites=8, angle=287.2300, fixquality=1
$GPRMC,223526.000,A,4305.1715,N,07740.8788,W,4.68,302.95,120924,,,A*7E
$GPGGA,223526.250,4305.1718,N,07740.8792,W,1,08,0.97,174.8,M,-34.4,M,,*54
lng=-77.681312, lat=43.086189, altitude=174.80, speed=4.68, satellites=8, angle=302.9500, fixquality=1
$GPRMC,223526.500,A,4305.1721,N,07740.8796,W,4.85,320.64,120924,,,A*7E
$GPGGA,223526.750,4305.1725,N,07740.8799,W,1,08,0.97,174.7,M,-34.4,M,,*5B
lng=-77.681320, lat=43.086196, altitude=174.80, speed=4.85, satellites=8, angle=320.6400, fixquality=1
$GPRMC,223527.000,A,4305.1729,N,07740.8802,W,5.50,338.83,120924,,,A*79
$GPGGA,223527.250,4305.1733,N,07740.8803,W,1,08,0.97,174.7,M,-34.4,M,,*54
lng=-77.681343, lat=43.086215, altitude=174.70, speed=5.50, satellites=8, angle=338.8300, fixquality=1
$GPRMC,223527.500,A,4305.1738,N,07740.8805,W,5.91,350.27,120924,,,A*76
$GPGGA,223527.750,4305.1743,N,07740.8806,W,1,08,0.97,174.7,M,-34.4,M,,*53
lng=-77.681343, lat=43.086231, altitude=174.70, speed=5.91, satellites=8, angle=350.2700, fixquality=1
$GPRMC,223528.000,A,4305.1747,N,07740.8807,W,6.40,359.45,120924,,,A*74
$GPGGA,223528.250,4305.1753,N,07740.8807,W,1,08,0.97,174.7,M,-34.4,M,,*59
lng=-77.681350, lat=43.086246, altitude=174.70, speed=6.40, satellites=8, angle=359.4500, fixquality=1
$GPRMC,223528.500,A,4305.1758,N,07740.8808,W,7.28,3.38,120924,,,A*79
$GPGGA,223528.750,4305.1764,N,07740.8808,W,1,08,0.97,174.7,M,-34.4,M,,*57
lng=-77.681350, lat=43.086261, altitude=174.70, speed=7.28, satellites=8, angle=3.3800, fixquality=1
$GPRMC,223529.000,A,4305.1771,N,07740.8808,W,8.89,4.69,120924,,,A*71
$GPGGA,223529.250,4305.1778,N,07740.8809,W,1,08,0.97,174.6,M,-34.4,M,,*5E
lng=-77.681350, lat=43.086288, altitude=174.70, speed=8.89, satellites=8, angle=4.6900, fixquality=1
$GPRMC,223529.500,A,4305.1785,N,07740.8809,W,9.65,1.16,120924,,,A*70
$GPGGA,223529.750,4305.1792,N,07740.8810,W,1,08,0.97,174.6,M,-34.4,M,,*57
lng=-77.681350, lat=43.086311, altitude=174.60, speed=9.65, satellites=8, angle=1.1600, fixquality=1
$GPRMC,223530.000,A,4305.1799,N,07740.8810,W,9.87,0.38,120924,,,A*79
$GPGGA,223530.250,4305.1807,N,07740.8812,W,1,08,0.97,174.5,M,-34.4,M,,*58
lng=-77.681350, lat=43.086326, altitude=174.60, speed=9.87, satellites=8, angle=0.3800, fixquality=1
$GPRMC,223530.500,A,4305.1815,N,07740.8813,W,10.54,1.30,120924,,,A*4B
$GPGGA,223530.750,4305.1823,N,07740.8813,W,1,08,0.97,174.4,M,-34.4,M,,*5B
lng=-77.681358, lat=43.086360, altitude=174.50, speed=10.54, satellites=8, angle=1.3000, fixquality=1
$GPRMC,223531.000,A,4305.1832,N,07740.8813,W,11.35,1.62,120924,,,A*4B
$GPGGA,223531.250,4305.1841,N,07740.8814,W,1,08,0.97,174.3,M,-34.4,M,,*5B
lng=-77.681358, lat=43.086383, altitude=174.40, speed=11.35, satellites=8, angle=1.6200, fixquality=1
$GPRMC,223531.500,A,4305.1850,N,07740.8814,W,12.12,1.82,120924,,,A*45
$GPGGA,223531.750,4305.1859,N,07740.8814,W,1,08,0.97,174.2,M,-34.4,M,,*56
lng=-77.681358, lat=43.086418, altitude=174.30, speed=12.12, satellites=8, angle=1.8200, fixquality=1
$GPRMC,223532.000,A,4305.1869,N,07740.8814,W,12.66,1.43,120924,,,A*47
$GPGGA,223532.250,4305.1879,N,07740.8815,W,1,08,0.97,174.2,M,-34.4,M,,*53
lng=-77.681358, lat=43.086448, altitude=174.20, speed=12.66, satellites=8, angle=1.4300, fixquality=1
$GPRMC,223532.500,A,4305.1890,N,07740.8816,W,13.23,0.65,120924,,,A*43
$GPGGA,223532.750,4305.1902,N,07740.8817,W,1,08,0.97,174.3,M,-34.4,M,,*58
lng=-77.681365, lat=43.086483, altitude=174.20, speed=13.23, satellites=8, angle=0.6500, fixquality=1
$GPRMC,223533.000,A,4305.1912,N,07740.8817,W,13.93,1.14,120924,,,A*41
$GPGGA,223533.250,4305.1924,N,07740.8817,W,1,08,0.97,174.4,M,-34.4,M,,*5F
lng=-77.681365, lat=43.086524, altitude=174.30, speed=13.93, satellites=8, angle=1.1400, fixquality=1
$GPRMC,223533.500,A,4305.1936,N,07740.8818,W,14.47,0.77,120924,,,A*47
$GPGGA,223533.750,4305.1948,N,07740.8818,W,1,08,0.97,174.4,M,-34.4,M,,*5F
lng=-77.681365, lat=43.086555, altitude=174.40, speed=14.47, satellites=8, angle=0.7700, fixquality=1
$GPRMC,223534.000,A,4305.1960,N,07740.8819,W,15.09,0.76,120924,,,A*4D
$GPGGA,223534.250,4305.1972,N,07740.8819,W,1,08,0.97,174.5,M,-34.4,M,,*54
lng=-77.681365, lat=43.086597, altitude=174.40, speed=15.09, satellites=8, angle=0.7600, fixquality=1
$GPRMC,223534.500,A,4305.1984,N,07740.8820,W,15.70,0.45,120924,,,A*46
$GPGGA,223534.750,4305.1996,N,07740.8820,W,1,08,0.97,174.4,M,-34.4,M,,*50
lng=-77.681365, lat=43.086635, altitude=174.50, speed=15.70, satellites=8, angle=0.4500, fixquality=1
$GPRMC,223535.000,A,4305.2007,N,07740.8820,W,16.21,0.27,120924,,,A*40
$GPGGA,223535.250,4305.2019,N,07740.8821,W,1,08,0.97,174.3,M,-34.4,M,,*5F
lng=-77.681365, lat=43.086677, altitude=174.40, speed=16.21, satellites=8, angle=0.2700, fixquality=1
$GPRMC,223535.500,A,4305.2031,N,07740.8821,W,16.59,359.63,120924,,,A*41
$GPGGA,223535.750,4305.2043,N,07740.8821,W,1,08,0.97,174.1,M,-34.4,M,,*57
lng=-77.681373, lat=43.086719, altitude=174.30, speed=16.59, satellites=8, angle=359.6300, fixquality=1
$GPRMC,223536.000,A,4305.2055,N,07740.8822,W,16.93,359.49,120924,,,A*48
$GPGGA,223536.250,4305.2068,N,07740.8822,W,1,08,0.97,173.9,M,-34.4,M,,*54
lng=-77.681373, lat=43.086757, altitude=174.10, speed=16.93, satellites=8, angle=359.4900, fixquality=1
$GPRMC,223536.500,A,4305.2081,N,07740.8822,W,17.51,359.83,120924,,,A*4D
$GPGGA,223536.750,4305.2093,N,07740.8822,W,1,08,0.97,173.9,M,-34.4,M,,*55
lng=-77.681373, lat=43.086799, altitude=173.90, speed=17.51, satellites=8, angle=359.8300, fixquality=1
$GPRMC,223537.000,A,4305.2107,N,07740.8823,W,18.15,359.82,120924,,,A*49
$GPGGA,223537.250,4305.2120,N,07740.8824,W,1,08,0.97,173.8,M,-34.4,M,,*5F
lng=-77.681373, lat=43.086849, altitude=173.90, speed=18.15, satellites=8, angle=359.8200, fixquality=1
$GPRMC,223537.500,A,4305.2133,N,07740.8824,W,18.33,358.84,120924,,,A*4F
$GPGGA,223537.750,4305.2146,N,07740.8824,W,1,08,0.97,173.8,M,-34.4,M,,*5A
lng=-77.681373, lat=43.086891, altitude=173.80, speed=18.33, satellites=8, angle=358.8400, fixquality=1
$GPRMC,223538.000,A,4305.2158,N,07740.8825,W,18.37,358.52,120924,,,A*46
$GPGGA,223538.250,4305.2171,N,07740.8825,W,1,08,0.97,173.7,M,-34.4,M,,*5A
lng=-77.681373, lat=43.086929, altitude=173.80, speed=18.37, satellites=8, angle=358.5200, fixquality=1
$GPRMC,223538.500,A,4305.2184,N,07740.8825,W,18.64,358.79,120924,,,A*4D
$GPGGA,223538.750,4305.2196,N,07740.8826,W,1,08,0.97,173.6,M,-34.4,M,,*54
lng=-77.681373, lat=43.086971, altitude=173.70, speed=18.64, satellites=8, angle=358.7900, fixquality=1
$GPRMC,223539.000,A,4305.2209,N,07740.8827,W,18.60,357.59,120924,,,A*44
$GPGGA,223539.250,4305.2221,N,07740.8828,W,1,08,0.97,173.6,M,-34.4,M,,*51
lng=-77.681381, lat=43.087013, altitude=173.60, speed=18.60, satellites=8, angle=357.5900, fixquality=1
$GPRMC,223539.500,A,4305.2234,N,07740.8829,W,18.57,355.69,120924,,,A*44
$GPGGA,223539.750,4305.2247,N,07740.8831,W,1,08,0.97,173.5,M,-34.4,M,,*5F
lng=-77.681381, lat=43.087059, altitude=173.60, speed=18.57, satellites=8, angle=355.6900, fixquality=1
$GPRMC,223540.000,A,4305.2260,N,07740.8834,W,18.50,353.47,120924,,,A*4F
$GPGGA,223540.250,4305.2275,N,07740.8837,W,1,08,0.97,173.5,M,-34.4,M,,*53
lng=-77.681388, lat=43.087100, altitude=173.50, speed=18.50, satellites=8, angle=353.4700, fixquality=1
$GPRMC,223540.500,A,4305.2288,N,07740.8840,W,18.52,351.41,120924,,,A*49
$GPGGA,223540.750,4305.2302,N,07740.8844,W,1,08,0.97,173.4,M,-34.4,M,,*52
lng=-77.681396, lat=43.087150, altitude=173.50, speed=18.52, satellites=8, angle=351.4100, fixquality=1
$GPRMC,223541.000,A,4305.2315,N,07740.8848,W,17.93,350.12,120924,,,A*45
$GPGGA,223541.250,4305.2328,N,07740.8852,W,1,08,0.97,173.4,M,-34.4,M,,*59
lng=-77.681411, lat=43.087192, altitude=173.40, speed=17.93, satellites=8, angle=350.1200, fixquality=1
$GPRMC,223541.500,A,4305.2341,N,07740.8855,W,17.36,349.79,120924,,,A*47
$GPGGA,223541.750,4305.2353,N,07740.8858,W,1,08,0.97,173.3,M,-34.4,M,,*5D
lng=-77.681427, lat=43.087230, altitude=173.40, speed=17.36, satellites=8, angle=349.7900, fixquality=1
$GPRMC,223542.000,A,4305.2366,N,07740.8860,W,16.80,349.69,120924,,,A*4F
$GPGGA,223542.250,4305.2378,N,07740.8862,W,1,08,0.97,173.3,M,-34.4,M,,*5B
lng=-77.681434, lat=43.087280, altitude=173.30, speed=16.80, satellites=8, angle=349.6900, fixquality=1
$GPRMC,223542.500,A,4305.2390,N,07740.8866,W,15.58,349.98,120924,,,A*4D
$GPGGA,223542.750,4305.2400,N,07740.8869,W,1,08,0.97,173.3,M,-34.4,M,,*5D
lng=-77.681442, lat=43.087314, altitude=173.30, speed=15.58, satellites=8, angle=349.9800, fixquality=1
$GPRMC,223543.000,A,4305.2409,N,07740.8871,W,13.64,349.33,120924,,,A*40
$GPGGA,223543.250,4305.2417,N,07740.8873,W,1,08,0.97,173.3,M,-34.4,M,,*54
lng=-77.681449, lat=43.087345, altitude=173.30, speed=13.64, satellites=8, angle=349.3300, fixquality=1
$GPRMC,223543.500,A,4305.2425,N,07740.8874,W,12.52,349.37,120924,,,A*4E
$GPGGA,223543.750,4305.2432,N,07740.8875,W,1,08,0.97,173.4,M,-34.4,M,,*57
lng=-77.681449, lat=43.087379, altitude=173.30, speed=12.52, satellites=8, angle=349.3700, fixquality=1
$GPRMC,223544.000,A,4305.2439,N,07740.8876,W,11.20,351.58,120924,,,A*45
$GPGGA,223544.250,4305.2444,N,07740.8877,W,1,08,0.97,173.6,M,-34.4,M,,*54
lng=-77.681465, lat=43.087402, altitude=173.40, speed=11.20, satellites=8, angle=351.5800, fixquality=1
$GPRMC,223544.500,A,4305.2448,N,07740.8878,W,9.63,354.50,120924,,,A*7B
$GPGGA,223544.750,4305.2450,N,07740.8878,W,1,08,0.97,173.7,M,-34.4,M,,*5A
lng=-77.681465, lat=43.087409, altitude=173.60, speed=9.63, satellites=8, angle=354.5000, fixquality=1
$GPRMC,223545.000,A,4305.2449,N,07740.8878,W,6.78,1.24,120924,,,A*7B
$GPGGA,223545.250,4305.2451,N,07740.8877,W,1,08,0.97,173.8,M,-34.4,M,,*5F
lng=-77.681465, lat=43.087417, altitude=173.70, speed=6.78, satellites=8, angle=1.2400, fixquality=1
$GPRMC,223545.500,A,4305.2454,N,07740.8876,W,6.16,7.23,120924,,,A*75
$GPGGA,223545.750,4305.2456,N,07740.8875,W,1,08,0.97,173.8,M,-34.4,M,,*5F
lng=-77.681465, lat=43.087425, altitude=173.80, speed=6.16, satellites=8, angle=7.2300, fixquality=1
$GPRMC,223546.000,A,4305.2459,N,07740.8873,W,6.44,15.06,120924,,,A*48
$GPGGA,223546.250,4305.2463,N,07740.8871,W,1,08,0.97,173.8,M,-34.4,M,,*5B
lng=-77.681449, lat=43.087436, altitude=173.80, speed=6.44, satellites=8, angle=15.0600, fixquality=1
$GPRMC,223546.500,A,4305.2468,N,07740.8869,W,7.08,19.95,120924,,,A*4B
$GPGGA,223546.750,4305.2473,N,07740.8867,W,1,08,0.97,173.8,M,-34.4,M,,*58
lng=-77.681442, lat=43.087444, altitude=173.80, speed=7.08, satellites=8, angle=19.9500, fixquality=1
$GPRMC,223547.000,A,4305.2479,N,07740.8863,W,8.17,24.67,120924,,,A*47
$GPGGA,223547.250,4305.2485,N,07740.8859,W,1,08,0.97,174.0,M,-34.4,M,,*57
lng=-77.681434, lat=43.087467, altitude=173.80, speed=8.17, satellites=8, angle=24.6700, fixquality=1
$GPRMC,223547.500,A,4305.2491,N,07740.8853,W,9.12,32.15,120924,,,A*41
$GPGGA,223547.750,4305.2496,N,07740.8848,W,1,08,0.97,173.9,M,-34.4,M,,*5E
lng=-77.681419, lat=43.087482, altitude=174.00, speed=9.12, satellites=8, angle=32.1500, fixquality=1
$GPRMC,223548.000,A,4305.2503,N,07740.8842,W,10.22,37.40,120924,,,A*7F
$GPGGA,223548.250,4305.2509,N,07740.8835,W,1,08,0.97,173.9,M,-34.4,M,,*59
lng=-77.681404, lat=43.087509, altitude=173.90, speed=10.22, satellites=8, angle=37.4000, fixquality=1
$GPRMC,223548.500,A,4305.2515,N,07740.8827,W,10.70,47.75,120924,,,A*78
$GPGGA,223548.750,4305.2520,N,07740.8818,W,1,08,0.97,174.2,M,-34.4,M,,*54
lng=-77.681381, lat=43.087524, altitude=173.90, speed=10.70, satellites=8, angle=47.7500, fixquality=1
$GPRMC,223549.000,A,4305.2525,N,07740.8809,W,11.81,57.13,120924,,,A*7D
$GPGGA,223549.250,4305.2530,N,07740.8799,W,1,08,0.97,174.3,M,-34.4,M,,*56
lng=-77.681350, lat=43.087539, altitude=174.20, speed=11.81, satellites=8, angle=57.1300, fixquality=1
$GPRMC,223549.500,A,4305.2534,N,07740.8789,W,12.36,62.69,120924,,,A*7B
$GPGGA,223549.750,4305.2538,N,07740.8778,W,1,08,0.97,174.4,M,-34.4,M,,*53
lng=-77.681312, lat=43.087558, altitude=174.30, speed=12.36, satellites=8, angle=62.6900, fixquality=1
$GPRMC,223550.000,A,4305.2540,N,07740.8766,W,13.68,67.43,120924,,,A*73
$GPGGA,223550.250,4305.2543,N,07740.8752,W,1,08,0.97,174.5,M,-34.4,M,,*5B
lng=-77.681274, lat=43.087566, altitude=174.40, speed=13.68, satellites=8, angle=67.4300, fixquality=1
$GPRMC,223550.500,A,4305.2547,N,07740.8736,W,14.95,70.75,120924,,,A*72
$GPGGA,223550.750,4305.2551,N,07740.8718,W,1,08,0.97,174.6,M,-34.4,M,,*50
lng=-77.681228, lat=43.087581, altitude=174.50, speed=14.95, satellites=8, angle=70.7500, fixquality=1
$GPRMC,223551.000,A,4305.2555,N,07740.8700,W,16.26,74.35,120924,,,A*7A
$GPGGA,223551.250,4305.2558,N,07740.8682,W,1,08,0.97,175.0,M,-34.4,M,,*58
lng=-77.681167, lat=43.087589, altitude=174.60, speed=16.26, satellites=8, angle=74.3500, fixquality=1
$GPRMC,223551.500,A,4305.2561,N,07740.8664,W,17.20,75.51,120924,,,A*7F
$GPGGA,223551.750,4305.2564,N,07740.8645,W,1,08,0.97,175.1,M,-34.4,M,,*58
lng=-77.681106, lat=43.087596, altitude=175.00, speed=17.20, satellites=8, angle=75.5100, fixquality=1
$GPRMC,223552.000,A,4305.2568,N,07740.8627,W,18.37,75.61,120924,,,A*7D
$GPGGA,223552.250,4305.2571,N,07740.8608,W,1,08,0.97,175.3,M,-34.4,M,,*51
lng=-77.681045, lat=43.087612, altitude=175.10, speed=18.37, satellites=8, angle=75.6100, fixquality=1
$GPRMC,223552.500,A,4305.2575,N,07740.8589,W,19.03,75.34,120924,,,A*75
$GPGGA,223552.750,4305.2578,N,07740.8570,W,1,08,0.97,175.5,M,-34.4,M,,*57
lng=-77.680984, lat=43.087623, altitude=175.30, speed=19.03, satellites=8, angle=75.3400, fixquality=1
$GPRMC,223553.000,A,4305.2581,N,07740.8550,W,19.58,76.08,120924,,,A*7C
$GPGGA,223553.250,4305.2584,N,07740.8530,W,1,08,0.97,175.7,M,-34.4,M,,*56
lng=-77.680915, lat=43.087638, altitude=175.50, speed=19.58, satellites=8, angle=76.0800, fixquality=1
$GPRMC,223553.500,A,4305.2587,N,07740.8511,W,20.04,76.51,120924,,,A*75
$GPGGA,223553.750,4305.2589,N,07740.8491,W,1,08,0.97,175.8,M,-34.4,M,,*5B
lng=-77.680854, lat=43.087646, altitude=175.70, speed=20.04, satellites=8, angle=76.5100, fixquality=1
$GPRMC,223554.000,A,4305.2592,N,07740.8472,W,20.48,76.41,120924,,,A*7E
$GPGGA,223554.250,4305.2595,N,07740.8452,W,1,08,0.97,175.9,M,-34.4,M,,*5A
lng=-77.680786, lat=43.087654, altitude=175.80, speed=20.48, satellites=8, angle=76.4100, fixquality=1
$GPRMC,223554.500,A,4305.2597,N,07740.8433,W,20.83,76.30,120924,,,A*7A
$GPGGA,223554.750,4305.2599,N,07740.8413,W,1,08,0.97,176.0,M,-34.4,M,,*5C
lng=-77.680717, lat=43.087661, altitude=175.90, speed=20.83, satellites=8, angle=76.3000, fixquality=1
$GPRMC,223555.000,A,4305.2600,N,07740.8393,W,21.38,76.94,120924,,,A*71
$GPGGA,223555.250,4305.2602,N,07740.8373,W,1,08,0.97,176.1,M,-34.4,M,,*59
lng=-77.680656, lat=43.087661, altitude=176.00, speed=21.38, satellites=8, angle=76.9400, fixquality=1
$GPRMC,223555.500,A,4305.2605,N,07740.8352,W,21.71,77.44,120924,,,A*7D
$GPGGA,223555.750,4305.2608,N,07740.8331,W,1,08,0.97,176.2,M,-34.4,M,,*53
lng=-77.680580, lat=43.087680, altitude=176.10, speed=21.71, satellites=8, angle=77.4400, fixquality=1
$GPRMC,223556.000,A,4305.2610,N,07740.8309,W,22.14,78.02,120924,,,A*7C
$GPGGA,223556.250,4305.2613,N,07740.8288,W,1,08,0.97,176.3,M,-34.4,M,,*5D
lng=-77.680519, lat=43.087688, altitude=176.20, speed=22.14, satellites=8, angle=78.0200, fixquality=1
$GPRMC,223556.500,A,4305.2616,N,07740.8266,W,22.45,78.53,120924,,,A*77
$GPGGA,223556.750,4305.2618,N,07740.8244,W,1,08,0.94,176.4,M,-34.4,M,,*57
lng=-77.680442, lat=43.087696, altitude=176.30, speed=22.45, satellites=8, angle=78.5300, fixquality=1
$GPRMC,223557.000,A,4305.2621,N,07740.8223,W,22.64,79.17,120924,,,A*74
$GPGGA,223557.250,4305.2623,N,07740.8201,W,1,08,0.97,176.4,M,-34.4,M,,*59
lng=-77.680374, lat=43.087703, altitude=176.40, speed=22.64, satellites=8, angle=79.1700, fixquality=1
$GPRMC,223557.500,A,4305.2624,N,07740.8180,W,22.62,80.58,120924,,,A*75
$GPGGA,223557.750,4305.2625,N,07740.8158,W,1,08,0.97,176.5,M,-34.4,M,,*54
lng=-77.680297, lat=43.087703, altitude=176.40, speed=22.62, satellites=8, angle=80.5800, fixquality=1
$GPRMC,223558.000,A,4305.2625,N,07740.8137,W,22.10,82.97,120924,,,A*76
$GPGGA,223558.250,4305.2625,N,07740.8117,W,1,08,0.97,176.7,M,-34.4,M,,*57
lng=-77.680221, lat=43.087711, altitude=176.50, speed=22.10, satellites=8, angle=82.9700, fixquality=1
$GPRMC,223558.500,A,4305.2625,N,07740.8096,W,21.82,84.60,120924,,,A*7F
$GPGGA,223558.750,4305.2625,N,07740.8076,W,1,08,0.97,177.0,M,-34.4,M,,*52
lng=-77.680160, lat=43.087711, altitude=176.70, speed=21.82, satellites=8, angle=84.6000, fixquality=1
$GPRMC,223559.000,A,4305.2625,N,07740.8056,W,21.37,86.31,120924,,,A*7F
$GPGGA,223559.250,4305.2625,N,07740.8036,W,1,08,0.97,177.1,M,-34.4,M,,*53
lng=-77.680091, lat=43.087711, altitude=177.00, speed=21.37, satellites=8, angle=86.3100, fixquality=1
$GPRMC,223559.500,A,4305.2624,N,07740.8016,W,21.13,86.94,120924,,,A*76
$GPGGA,223559.750,4305.2623,N,07740.7997,W,1,08,0.97,177.2,M,-34.4,M,,*5E
lng=-77.680030, lat=43.087703, altitude=177.10, speed=21.13, satellites=8, angle=86.9400, fixquality=1
$GPRMC,223600.000,A,4305.2623,N,07740.7977,W,20.77,88.16,120924,,,A*7D
$GPGGA,223600.250,4305.2622,N,07740.7957,W,1,08,0.97,177.1,M,-34.4,M,,*5A
lng=-77.679962, lat=43.087703, altitude=177.20, speed=20.77, satellites=8, angle=88.1600, fixquality=1
$GPRMC,223600.500,A,4305.2622,N,07740.7937,W,20.29,88.97,120924,,,A*7F
$GPGGA,223600.750,4305.2621,N,07740.7918,W,1,08,0.97,176.9,M,-34.4,M,,*5E
lng=-77.679901, lat=43.087703, altitude=177.10, speed=20.29, satellites=8, angle=88.9700, fixquality=1
$GPRMC,223601.000,A,4305.2621,N,07740.7899,W,19.61,89.69,120924,,,A*7B
$GPGGA,223601.250,4305.2620,N,07740.7880,W,1,08,0.97,176.7,M,-34.4,M,,*55
lng=-77.679832, lat=43.087703, altitude=176.90, speed=19.61, satellites=8, angle=89.6900, fixquality=1
$GPRMC,223601.500,A,4305.2620,N,07740.7861,W,19.20,89.55,120924,,,A*72
$GPGGA,223601.750,4305.2619,N,07740.7843,W,1,08,0.97,176.5,M,-34.4,M,,*57
lng=-77.679771, lat=43.087703, altitude=176.70, speed=19.20, satellites=8, angle=89.5500, fixquality=1
$GPRMC,223602.000,A,4305.2619,N,07740.7824,W,18.85,89.90,120924,,,A*78
$GPGGA,223602.250,4305.2618,N,07740.7806,W,1,08,0.97,176.4,M,-34.4,M,,*50
lng=-77.679702, lat=43.087696, altitude=176.50, speed=18.85, satellites=8, angle=89.9000, fixquality=1
$GPRMC,223602.500,A,4305.2618,N,07740.7788,W,18.80,90.36,120924,,,A*74
$GPGGA,223602.750,4305.2617,N,07740.7771,W,1,08,0.97,176.3,M,-34.4,M,,*52
lng=-77.679649, lat=43.087696, altitude=176.40, speed=18.80, satellites=8, angle=90.3600, fixquality=1
$GPRMC,223603.000,A,4305.2617,N,07740.7753,W,18.44,90.79,120924,,,A*7A
$GPGGA,223603.250,4305.2616,N,07740.7736,W,1,08,0.97,176.3,M,-34.4,M,,*54
lng=-77.679588, lat=43.087696, altitude=176.30, speed=18.44, satellites=8, angle=90.7900, fixquality=1
$GPRMC,223603.500,A,4305.2616,N,07740.7720,W,17.84,91.49,120924,,,A*7B
$GPGGA,223603.750,4305.2615,N,07740.7704,W,1,08,0.97,176.2,M,-34.4,M,,*52
lng=-77.679534, lat=43.087696, altitude=176.30, speed=17.84, satellites=8, angle=91.4900, fixquality=1
$GPRMC,223604.000,A,4305.2614,N,07740.7688,W,17.02,93.27,120924,,,A*7C
$GPGGA,223604.250,4305.2614,N,07740.7673,W,1,08,0.97,176.0,M,-34.4,M,,*52
lng=-77.679481, lat=43.087688, altitude=176.20, speed=17.02, satellites=8, angle=93.2700, fixquality=1
$GPRMC,223604.500,A,4305.2613,N,07740.7656,W,15.79,95.07,120924,,,A*77
$GPGGA,223604.750,4305.2611,N,07740.7640,W,1,08,0.97,175.8,M,-34.4,M,,*59
lng=-77.679428, lat=43.087688, altitude=176.00, speed=15.79, satellites=8, angle=95.0700, fixquality=1
$GPRMC,223605.000,A,4305.2609,N,07740.7626,W,14.52,97.64,120924,,,A*70
$GPGGA,223605.250,4305.2608,N,07740.7614,W,1,08,0.97,175.6,M,-34.4,M,,*5A
lng=-77.679374, lat=43.087680, altitude=175.80, speed=14.52, satellites=8, angle=97.6400, fixquality=1
$GPRMC,223605.500,A,4305.2606,N,07740.7602,W,13.02,99.22,120924,,,A*72
$GPGGA,223605.750,4305.2603,N,07740.7592,W,1,07,1.18,175.4,M,-34.4,M,,*52
lng=-77.679336, lat=43.087680, altitude=175.60, speed=13.02, satellites=8, angle=99.2200, fixquality=1
$GPRMC,223606.000,A,4305.2601,N,07740.7582,W,11.79,103.04,120924,,,A*40
$GPGGA,223606.250,4305.2599,N,07740.7573,W,1,08,0.97,175.0,M,-34.4,M,,*56
lng=-77.679306, lat=43.087669, altitude=175.40, speed=11.79, satellites=7, angle=103.0400, fixquality=1
$GPRMC,223606.500,A,4305.2597,N,07740.7564,W,10.65,106.84,120924,,,A*40
$GPGGA,223606.750,4305.2595,N,07740.7556,W,1,08,0.97,174.8,M,-34.4,M,,*51
lng=-77.679275, lat=43.087661, altitude=175.00, speed=10.65, satellites=8, angle=106.8400, fixquality=1
$GPRMC,223607.000,A,4305.2593,N,07740.7548,W,9.53,111.11,120924,,,A*79
$GPGGA,223607.250,4305.2591,N,07740.7541,W,1,08,0.97,174.4,M,-34.4,M,,*5B
lng=-77.679244, lat=43.087654, altitude=174.80, speed=9.53, satellites=8, angle=111.1100, fixquality=1
$GPRMC,223607.500,A,4305.2590,N,07740.7535,W,9.27,109.11,120924,,,A*7F
$GPGGA,223607.750,4305.2589,N,07740.7528,W,1,07,1.18,173.9,M,-34.4,M,,*5B
lng=-77.679222, lat=43.087646, altitude=174.40, speed=9.27, satellites=8, angle=109.1100, fixquality=1
$GPRMC,223608.000,A,4305.2588,N,07740.7521,W,9.17,106.23,120924,,,A*74
$GPGGA,223608.250,4305.2588,N,07740.7515,W,1,07,1.18,173.4,M,-34.4,M,,*53
lng=-77.679199, lat=43.087646, altitude=173.90, speed=9.17, satellites=7, angle=106.2300, fixquality=1
$GPRMC,223608.500,A,4305.2588,N,07740.7509,W,9.16,101.17,120924,,,A*7A
$GPGGA,223608.750,4305.2588,N,07740.7502,W,1,07,1.18,173.1,M,-34.4,M,,*55
lng=-77.679183, lat=43.087646, altitude=173.40, speed=9.16, satellites=7, angle=101.1700, fixquality=1
$GPRMC,223609.000,A,4305.2590,N,07740.7498,W,8.97,93.08,120924,,,A*42
$GPGGA,223609.250,4305.2591,N,07740.7492,W,1,07,1.18,172.8,M,-34.4,M,,*59
lng=-77.679168, lat=43.087646, altitude=173.10, speed=8.97, satellites=7, angle=93.0800, fixquality=1
$GPRMC,223609.500,A,4305.2592,N,07740.7484,W,9.33,88.34,120924,,,A*42
$GPGGA,223609.750,4305.2593,N,07740.7476,W,1,08,0.97,172.7,M,-34.4,M,,*52
lng=-77.679145, lat=43.087654, altitude=172.80, speed=9.33, satellites=7, angle=88.3400, fixquality=1
$GPRMC,223610.000,A,4305.2594,N,07740.7467,W,10.37,85.63,120924,,,A*77
$GPGGA,223610.250,4305.2594,N,07740.7456,W,1,08,0.97,172.4,M,-34.4,M,,*59
lng=-77.679107, lat=43.087654, altitude=172.70, speed=10.37, satellites=8, angle=85.6300, fixquality=1
$GPRMC,223610.500,A,4305.2595,N,07740.7445,W,11.01,85.94,120924,,,A*7F
$GPGGA,223610.750,4305.2595,N,07740.7433,W,1,08,0.97,172.4,M,-34.4,M,,*5E
lng=-77.679077, lat=43.087654, altitude=172.40, speed=11.01, satellites=8, angle=85.9400, fixquality=1
$GPRMC,223611.000,A,4305.2596,N,07740.7422,W,11.37,86.49,120924,,,A*7F
$GPGGA,223611.250,4305.2596,N,07740.7410,W,1,08,0.97,172.6,M,-34.4,M,,*5A
lng=-77.679039, lat=43.087661, altitude=172.40, speed=11.37, satellites=8, angle=86.4900, fixquality=1
$GPRMC,223611.500,A,4305.2599,N,07740.7401,W,11.69,85.56,120924,,,A*72
$GPGGA,223611.750,4305.2601,N,07740.7390,W,1,08,0.97,172.7,M,-34.4,M,,*5C
lng=-77.679000, lat=43.087661, altitude=172.60, speed=11.69, satellites=8, angle=85.5600, fixquality=1
$GPRMC,223612.000,A,4305.2602,N,07740.7378,W,12.67,85.00,120924,,,A*72
$GPGGA,223612.250,4305.2607,N,07740.7365,W,1,08,0.97,172.8,M,-34.4,M,,*59
lng=-77.678962, lat=43.087669, altitude=172.70, speed=12.67, satellites=8, angle=85.0000, fixquality=1
$GPRMC,223612.500,A,4305.2611,N,07740.7354,W,13.54,83.94,120924,,,A*71
$GPGGA,223612.750,4305.2614,N,07740.7341,W,1,08,0.97,172.8,M,-34.4,M,,*58
lng=-77.678924, lat=43.087688, altitude=172.80, speed=13.54, satellites=8, angle=83.9400, fixquality=1
$GPRMC,223613.000,A,4305.2617,N,07740.7329,W,14.56,84.69,120924,,,A*79
$GPGGA,223613.250,4305.2619,N,07740.7316,W,1,08,0.97,172.8,M,-34.4,M,,*53
lng=-77.678878, lat=43.087696, altitude=172.80, speed=14.56, satellites=8, angle=84.6900, fixquality=1
$GPRMC,223613.500,A,4305.2621,N,07740.7302,W,15.22,85.30,120924,,,A*7F
$GPGGA,223613.750,4305.2622,N,07740.7287,W,1,08,0.97,173.0,M,-34.4,M,,*5E
lng=-77.678833, lat=43.087703, altitude=172.80, speed=15.22, satellites=8, angle=85.3000, fixquality=1
$GPRMC,223614.000,A,4305.2623,N,07740.7271,W,16.31,86.54,120924,,,A*7A
$GPGGA,223614.250,4305.2623,N,07740.7256,W,1,08,0.97,173.4,M,-34.4,M,,*55
lng=-77.678787, lat=43.087703, altitude=173.00, speed=16.31, satellites=8, angle=86.5400, fixquality=1
$GPRMC,223614.500,A,4305.2623,N,07740.7240,W,17.01,86.90,120924,,,A*77
$GPGGA,223614.750,4305.2623,N,07740.7225,W,1,08,0.97,173.4,M,-34.4,M,,*54
lng=-77.678733, lat=43.087703, altitude=173.40, speed=17.01, satellites=8, angle=86.9000, fixquality=1
$GPRMC,223615.000,A,4305.2624,N,07740.7208,W,17.65,86.94,120924,,,A*7E
$GPGGA,223615.250,4305.2624,N,07740.7192,W,1,08,0.97,173.5,M,-34.4,M,,*59
lng=-77.678680, lat=43.087703, altitude=173.40, speed=17.65, satellites=8, angle=86.9400, fixquality=1
$GPRMC,223615.500,A,4305.2625,N,07740.7176,W,18.11,86.84,120924,,,A*7D
$GPGGA,223615.750,4305.2626,N,07740.7159,W,1,08,0.97,173.6,M,-34.4,M,,*5A
lng=-77.678627, lat=43.087711, altitude=173.50, speed=18.11, satellites=8, angle=86.8400, fixquality=1
$GPRMC,223616.000,A,4305.2626,N,07740.7141,W,18.88,87.70,120924,,,A*76
$GPGGA,223616.250,4305.2626,N,07740.7124,W,1,08,0.97,173.8,M,-34.4,M,,*58
lng=-77.678565, lat=43.087711, altitude=173.60, speed=18.88, satellites=8, angle=87.7000, fixquality=1
$GPRMC,223616.500,A,4305.2626,N,07740.7107,W,19.33,89.04,120924,,,A*7D
$GPGGA,223616.750,4305.2626,N,07740.7090,W,1,08,0.97,174.0,M,-34.4,M,,*5C
lng=-77.678512, lat=43.087711, altitude=173.80, speed=19.33, satellites=8, angle=89.0400, fixquality=1
$GPRMC,223617.000,A,4305.2626,N,07740.7073,W,19.50,89.33,120924,,,A*7A
$GPGGA,223617.250,4305.2626,N,07740.7056,W,1,08,0.97,174.2,M,-34.4,M,,*50
lng=-77.678459, lat=43.087711, altitude=174.00, speed=19.50, satellites=8, angle=89.3300, fixquality=1
$GPRMC,223617.500,A,4305.2626,N,07740.7038,W,19.73,89.83,120924,,,A*7A
$GPGGA,223617.750,4305.2626,N,07740.7020,W,1,08,0.97,174.4,M,-34.4,M,,*52
lng=-77.678390, lat=43.087711, altitude=174.20, speed=19.73, satellites=8, angle=89.8300, fixquality=1
$GPRMC,223618.000,A,4305.2626,N,07740.7002,W,20.22,89.72,120924,,,A*79
$GPGGA,223618.250,4305.2626,N,07740.6983,W,1,09,0.96,174.5,M,-34.4,M,,*58
lng=-77.678337, lat=43.087711, altitude=174.40, speed=20.22, satellites=8, angle=89.7200, fixquality=1
$GPRMC,223618.500,A,4305.2627,N,07740.6965,W,20.31,90.24,120924,,,A*7D
$GPGGA,223618.750,4305.2627,N,07740.6947,W,1,09,0.96,174.4,M,-34.4,M,,*55
lng=-77.678268, lat=43.087711, altitude=174.50, speed=20.31, satellites=9, angle=90.2400, fixquality=1
$GPRMC,223619.000,A,4305.2627,N,07740.6928,W,20.20,90.15,120924,,,A*72
$GPGGA,223619.250,4305.2627,N,07740.6909,W,1,09,0.96,174.2,M,-34.4,M,,*5D
lng=-77.678215, lat=43.087711, altitude=174.40, speed=20.20, satellites=9, angle=90.1500, fixquality=1
$GPRMC,223619.500,A,4305.2627,N,07740.6890,W,20.15,90.14,120924,,,A*72
$GPGGA,223619.750,4305.2627,N,07740.6871,W,1,09,0.96,174.0,M,-34.4,M,,*54
lng=-77.678146, lat=43.087711, altitude=174.20, speed=20.15, satellites=9, angle=90.1400, fixquality=1
$GPRMC,223620.000,A,4305.2627,N,07740.6852,W,20.09,89.66,120924,,,A*73
$GPGGA,223620.250,4305.2627,N,07740.6833,W,1,09,0.96,173.8,M,-34.4,M,,*52
lng=-77.678085, lat=43.087711, altitude=174.00, speed=20.09, satellites=9, angle=89.6600, fixquality=1
$GPRMC,223620.500,A,4305.2627,N,07740.6815,W,19.83,89.10,120924,,,A*7C
$GPGGA,223620.750,4305.2627,N,07740.6796,W,1,09,0.96,173.7,M,-34.4,M,,*58
lng=-77.678024, lat=43.087711, altitude=173.80, speed=19.83, satellites=9, angle=89.1000, fixquality=1
$GPRMC,223621.000,A,4305.2627,N,07740.6777,W,19.28,87.77,120924,,,A*7D
$GPGGA,223621.250,4305.2627,N,07740.6759,W,1,09,0.96,173.5,M,-34.4,M,,*5D
lng=-77.677963, lat=43.087711, altitude=173.70, speed=19.28, satellites=9, angle=87.7700, fixquality=1
$GPRMC,223621.500,A,4305.2628,N,07740.6740,W,19.04,86.24,120924,,,A*7A
$GPGGA,223621.750,4305.2628,N,07740.6722,W,1,09,0.96,173.3,M,-34.4,M,,*5D
lng=-77.677894, lat=43.087711, altitude=173.50, speed=19.04, satellites=9, angle=86.2400, fixquality=1
$GPRMC,223622.000,A,4305.2629,N,07740.6704,W,18.68,85.76,120924,,,A*72
$GPGGA,223622.250,4305.2629,N,07740.6686,W,1,09,0.96,173.0,M,-34.4,M,,*56
lng=-77.677841, lat=43.087711, altitude=173.30, speed=18.68, satellites=9, angle=85.7600, fixquality=1
$GPRMC,223622.500,A,4305.2630,N,07740.6668,W,18.53,85.46,120924,,,A*7F
$GPGGA,223622.750,4305.2631,N,07740.6650,W,1,09,0.96,172.6,M,-34.4,M,,*56
lng=-77.677780, lat=43.087718, altitude=173.00, speed=18.53, satellites=9, angle=85.4600, fixquality=1
$GPRMC,223623.000,A,4305.2632,N,07740.6631,W,18.50,85.45,120924,,,A*75
$GPGGA,223623.250,4305.2632,N,07740.6613,W,1,09,0.96,171.9,M,-34.4,M,,*5A
lng=-77.677719, lat=43.087718, altitude=172.60, speed=18.50, satellites=9, angle=85.4500, fixquality=1
$GPRMC,223623.500,A,4305.2632,N,07740.6595,W,18.50,87.28,120924,,,A*74
$GPGGA,223623.750,4305.2632,N,07740.6577,W,1,09,0.96,171.7,M,-34.4,M,,*50
lng=-77.677658, lat=43.087718, altitude=171.90, speed=18.50, satellites=9, angle=87.2800, fixquality=1
$GPRMC,223624.000,A,4305.2632,N,07740.6559,W,18.84,88.89,120924,,,A*7B
$GPGGA,223624.250,4305.2632,N,07740.6541,W,1,09,0.96,171.5,M,-34.4,M,,*55
lng=-77.677597, lat=43.087718, altitude=171.70, speed=18.84, satellites=9, angle=88.8900, fixquality=1
$GPRMC,223624.500,A,4305.2632,N,07740.6524,W,18.90,90.60,120924,,,A*7F
$GPGGA,223624.750,4305.2632,N,07740.6507,W,1,09,0.96,171.4,M,-34.4,M,,*53
lng=-77.677536, lat=43.087718, altitude=171.50, speed=18.90, satellites=9, angle=90.6000, fixquality=1
$GPRMC,223625.000,A,4305.2631,N,07740.6490,W,18.66,91.08,120924,,,A*70
$GPGGA,223625.250,4305.2631,N,07740.6473,W,1,09,0.96,171.4,M,-34.4,M,,*56
lng=-77.677482, lat=43.087718, altitude=171.40, speed=18.66, satellites=9, angle=91.0800, fixquality=1
$GPRMC,223625.500,A,4305.2631,N,07740.6456,W,18.44,91.14,120924,,,A*72
$GPGGA,223625.750,4305.2631,N,07740.6439,W,1,09,0.96,171.3,M,-34.4,M,,*5A
lng=-77.677421, lat=43.087718, altitude=171.40, speed=18.44, satellites=9, angle=91.1400, fixquality=1
$GPRMC,223626.000,A,4305.2631,N,07740.6423,W,17.99,91.24,120924,,,A*7A
$GPGGA,223626.250,4305.2630,N,07740.6406,W,1,09,0.96,171.2,M,-34.4,M,,*50
lng=-77.677368, lat=43.087718, altitude=171.30, speed=17.99, satellites=9, angle=91.2400, fixquality=1
$GPRMC,223626.500,A,4305.2630,N,07740.6390,W,17.48,91.57,120924,,,A*79
$GPGGA,223626.750,4305.2630,N,07740.6375,W,1,09,0.96,171.0,M,-34.4,M,,*54
lng=-77.677322, lat=43.087718, altitude=171.20, speed=17.48, satellites=9, angle=91.5700, fixquality=1
$GPRMC,223627.000,A,4305.2631,N,07740.6360,W,16.61,90.55,120924,,,A*7A
$GPGGA,223627.250,4305.2631,N,07740.6344,W,1,09,0.96,170.9,M,-34.4,M,,*5B
lng=-77.677268, lat=43.087718, altitude=171.00, speed=16.61, satellites=9, angle=90.5500, fixquality=1
$GPRMC,223627.500,A,4305.2631,N,07740.6328,W,16.08,90.28,120924,,,A*76
$GPGGA,223627.750,4305.2630,N,07740.6313,W,1,09,0.96,170.7,M,-34.4,M,,*53
lng=-77.677215, lat=43.087718, altitude=170.90, speed=16.08, satellites=9, angle=90.2800, fixquality=1
$GPRMC,223628.000,A,4305.2629,N,07740.6297,W,15.34,90.65,120924,,,A*75
$GPGGA,223628.250,4305.2628,N,07740.6283,W,1,09,0.96,170.5,M,-34.4,M,,*5A
lng=-77.677162, lat=43.087711, altitude=170.70, speed=15.34, satellites=9, angle=90.6500, fixquality=1
$GPRMC,223628.500,A,4305.2627,N,07740.6269,W,14.52,90.67,120924,,,A*7C
$GPGGA,223628.750,4305.2627,N,07740.6256,W,1,09,0.96,170.3,M,-34.4,M,,*5E
lng=-77.677116, lat=43.087711, altitude=170.50, speed=14.52, satellites=9, angle=90.6700, fixquality=1
$GPRMC,223629.000,A,4305.2626,N,07740.6244,W,13.17,90.04,120924,,,A*75
$GPGGA,223629.250,4305.2625,N,07740.6232,W,1,09,0.96,169.9,M,-34.4,M,,*58
lng=-77.677078, lat=43.087711, altitude=170.30, speed=13.17, satellites=9, angle=90.0400, fixquality=1
$GPRMC,223629.500,A,4305.2625,N,07740.6221,W,11.57,88.88,120924,,,A*7B
$GPGGA,223629.750,4305.2625,N,07740.6212,W,1,09,0.96,169.5,M,-34.4,M,,*53
lng=-77.677032, lat=43.087711, altitude=169.90, speed=11.57, satellites=9, angle=88.8800, fixquality=1
$GPRMC,223630.000,A,4305.2625,N,07740.6203,W,9.88,89.13,120924,,,A*4E
$GPGGA,223630.250,4305.2625,N,07740.6194,W,1,09,0.96,169.2,M,-34.4,M,,*54
lng=-77.677001, lat=43.087711, altitude=169.50, speed=9.88, satellites=9, angle=89.1300, fixquality=1
$GPRMC,223630.500,A,4305.2624,N,07740.6185,W,9.38,90.87,120924,,,A*49
$GPGGA,223630.750,4305.2623,N,07740.6176,W,1,09,0.96,168.9,M,-34.4,M,,*51
lng=-77.676979, lat=43.087703, altitude=169.20, speed=9.38, satellites=9, angle=90.8700, fixquality=1
$GPRMC,223631.000,A,4305.2623,N,07740.6167,W,9.39,93.00,120924,,,A*4B
$GPGGA,223631.250,4305.2623,N,07740.6159,W,1,09,0.96,168.5,M,-34.4,M,,*54
lng=-77.676948, lat=43.087703, altitude=168.90, speed=9.39, satellites=9, angle=93.0000, fixquality=1
$GPRMC,223631.500,A,4305.2622,N,07740.6150,W,9.45,94.18,120924,,,A*4E
$GPGGA,223631.750,4305.2621,N,07740.6142,W,1,09,0.96,168.2,M,-34.4,M,,*5E
lng=-77.676918, lat=43.087703, altitude=168.50, speed=9.45, satellites=9, angle=94.1800, fixquality=1
$GPRMC,223632.000,A,4305.2621,N,07740.6135,W,9.47,94.41,120924,,,A*46
$GPGGA,223632.250,4305.2621,N,07740.6128,W,1,09,0.96,167.8,M,-34.4,M,,*51
lng=-77.676887, lat=43.087703, altitude=168.20, speed=9.47, satellites=9, angle=94.4100, fixquality=1
$GPRMC,223632.500,A,4305.2621,N,07740.6120,W,9.44,94.18,120924,,,A*48
$GPGGA,223632.750,4305.2620,N,07740.6112,W,1,09,0.96,167.5,M,-34.4,M,,*51
lng=-77.676864, lat=43.087703, altitude=167.80, speed=9.44, satellites=9, angle=94.1800, fixquality=1
$GPRMC,223633.000,A,4305.2620,N,07740.6104,W,9.14,94.49,120924,,,A*4A
$GPGGA,223633.250,4305.2620,N,07740.6097,W,1,09,0.96,167.2,M,-34.4,M,,*5E
lng=-77.676841, lat=43.087703, altitude=167.50, speed=9.14, satellites=9, angle=94.4900, fixquality=1
$GPRMC,223633.500,A,4305.2620,N,07740.6089,W,8.88,93.91,120924,,,A*4D
$GPGGA,223633.750,4305.2620,N,07740.6080,W,1,09,0.96,167.0,M,-34.4,M,,*5F
lng=-77.676811, lat=43.087703, altitude=167.20, speed=8.88, satellites=9, angle=93.9100, fixquality=1
$GPRMC,223634.000,A,4305.2620,N,07740.6072,W,8.89,91.57,120924,,,A*42
$GPGGA,223634.250,4305.2620,N,07740.6064,W,1,09,0.96,166.9,M,-34.4,M,,*5F
lng=-77.676788, lat=43.087703, altitude=167.00, speed=8.89, satellites=9, angle=91.5700, fixquality=1
$GPRMC,223634.500,A,4305.2620,N,07740.6055,W,9.13,89.10,120924,,,A*4A
$GPGGA,223634.750,4305.2622,N,07740.6043,W,1,09,0.96,166.8,M,-34.4,M,,*5C
lng=-77.676757, lat=43.087703, altitude=166.90, speed=9.13, satellites=9, angle=89.1000, fixquality=1
$GPRMC,223635.000,A,4305.2622,N,07740.6032,W,9.35,86.11,120924,,,A*47
$GPGGA,223635.250,4305.2622,N,07740.6022,W,1,09,0.96,166.7,M,-34.4,M,,*50
lng=-77.676719, lat=43.087703, altitude=166.80, speed=9.35, satellites=9, angle=86.1100, fixquality=1
$GPRMC,223635.500,A,4305.2623,N,07740.6013,W,9.39,83.88,120924,,,A*49
$GPGGA,223635.750,4305.2624,N,07740.6004,W,1,09,0.96,166.6,M,-34.4,M,,*56
lng=-77.676681, lat=43.087703, altitude=166.70, speed=9.39, satellites=9, angle=83.8800, fixquality=1
$GPRMC,223636.000,A,4305.2624,N,07740.5995,W,9.82,83.34,120924,,,A*4B
$GPGGA,223636.250,4305.2624,N,07740.5985,W,1,09,0.96,166.5,M,-34.4,M,,*50
lng=-77.676658, lat=43.087703, altitude=166.60, speed=9.82, satellites=9, angle=83.3400, fixquality=1
$GPRMC,223636.500,A,4305.2625,N,07740.5975,W,10.42,83.44,120924,,,A*72
$GPGGA,223636.750,4305.2625,N,07740.5965,W,1,09,0.96,166.4,M,-34.4,M,,*5B
lng=-77.676628, lat=43.087711, altitude=166.50, speed=10.42, satellites=9, angle=83.4400, fixquality=1
$GPRMC,223637.000,A,4305.2626,N,07740.5954,W,11.25,83.59,120924,,,A*7A
$GPGGA,223637.250,4305.2626,N,07740.5942,W,1,09,0.96,166.3,M,-34.4,M,,*5E
lng=-77.676589, lat=43.087711, altitude=166.40, speed=11.25, satellites=9, angle=83.5900, fixquality=1
$GPRMC,223637.500,A,4305.2627,N,07740.5930,W,11.91,84.03,120924,,,A*7B
$GPGGA,223637.750,4305.2627,N,07740.5918,W,1,09,0.96,166.1,M,-34.4,M,,*57
lng=-77.676544, lat=43.087711, altitude=166.30, speed=11.91, satellites=9, angle=84.0300, fixquality=1
$GPRMC,223638.000,A,4305.2627,N,07740.5906,W,12.96,86.24,120924,,,A*77
$GPGGA,223638.250,4305.2627,N,07740.5893,W,1,09,0.96,166.0,M,-34.4,M,,*5E
lng=-77.676513, lat=43.087711, altitude=166.10, speed=12.96, satellites=9, angle=86.2400, fixquality=1
$GPRMC,223638.500,A,4305.2627,N,07740.5881,W,13.54,88.55,120924,,,A*7B
$GPGGA,223638.750,4305.2627,N,07740.5868,W,1,09,0.96,166.0,M,-34.4,M,,*5F
lng=-77.676467, lat=43.087711, altitude=166.00, speed=13.54, satellites=9, angle=88.5500, fixquality=1
$GPRMC,223639.000,A,4305.2627,N,07740.5856,W,14.26,91.31,120924,,,A*7D
$GPGGA,223639.250,4305.2627,N,07740.5844,W,1,09,0.96,166.1,M,-34.4,M,,*54
lng=-77.676422, lat=43.087711, altitude=166.00, speed=14.26, satellites=9, angle=91.3100, fixquality=1
$GPRMC,223639.500,A,4305.2627,N,07740.5831,W,14.49,93.38,120924,,,A*7B
$GPGGA,223639.750,4305.2626,N,07740.5818,W,1,09,0.96,166.1,M,-34.4,M,,*59
lng=-77.676383, lat=43.087711, altitude=166.10, speed=14.49, satellites=9, angle=93.3800, fixquality=1
$GPRMC,223640.000,A,4305.2626,N,07740.5805,W,14.81,93.96,120924,,,A*76
$GPGGA,223640.250,4305.2626,N,07740.5792,W,1,09,0.96,166.3,M,-34.4,M,,*5D
lng=-77.676345, lat=43.087711, altitude=166.10, speed=14.81, satellites=9, angle=93.9600, fixquality=1
$GPRMC,223640.500,A,4305.2626,N,07740.5779,W,14.77,93.67,120924,,,A*70
$GPGGA,223640.750,4305.2625,N,07740.5766,W,1,09,0.96,166.5,M,-34.4,M,,*56
lng=-77.676300, lat=43.087711, altitude=166.30, speed=14.77, satellites=9, angle=93.6700, fixquality=1
$GPRMC,223641.000,A,4305.2625,N,07740.5753,W,14.66,92.74,120924,,,A*7C
$GPGGA,223641.250,4305.2625,N,07740.5740,W,1,09,0.96,166.5,M,-34.4,M,,*56
lng=-77.676254, lat=43.087711, altitude=166.50, speed=14.66, satellites=9, angle=92.7400, fixquality=1
$GPRMC,223641.500,A,4305.2625,N,07740.5728,W,14.55,92.38,120924,,,A*7D
$GPGGA,223641.750,4305.2625,N,07740.5715,W,1,09,0.96,166.5,M,-34.4,M,,*53
lng=-77.676216, lat=43.087711, altitude=166.50, speed=14.55, satellites=9, angle=92.3800, fixquality=1
$GPRMC,223642.000,A,4305.2625,N,07740.5702,W,14.27,91.07,120924,,,A*79
$GPGGA,223642.250,4305.2626,N,07740.5689,W,1,09,0.96,166.4,M,-34.4,M,,*53
lng=-77.676170, lat=43.087711, altitude=166.50, speed=14.27, satellites=9, angle=91.0700, fixquality=1
$GPRMC,223642.500,A,4305.2625,N,07740.5679,W,14.01,90.09,120924,,,A*7A
$GPGGA,223642.750,4305.2625,N,07740.5668,W,1,09,0.96,166.4,M,-34.4,M,,*5A
lng=-77.676132, lat=43.087711, altitude=166.40, speed=14.01, satellites=9, angle=90.0900, fixquality=1
$GPRMC,223643.000,A,4305.2625,N,07740.5657,W,13.95,89.41,120924,,,A*7C
$GPGGA,223643.250,4305.2625,N,07740.5646,W,1,09,0.96,166.3,M,-34.4,M,,*55
lng=-77.676101, lat=43.087711, altitude=166.40, speed=13.95, satellites=9, angle=89.4100, fixquality=1
$GPRMC,223643.500,A,4305.2624,N,07740.5634,W,14.02,89.41,120924,,,A*74
$GPGGA,223643.750,4305.2624,N,07740.5622,W,1,09,0.96,166.1,M,-34.4,M,,*51
lng=-77.676055, lat=43.087703, altitude=166.30, speed=14.02, satellites=9, angle=89.4100, fixquality=1
$GPRMC,223644.000,A,4305.2625,N,07740.5608,W,14.34,89.24,120924,,,A*7E
$GPGGA,223644.250,4305.2625,N,07740.5595,W,1,09,0.96,165.9,M,-34.4,M,,*56
lng=-77.676017, lat=43.087711, altitude=166.10, speed=14.34, satellites=9, angle=89.2400, fixquality=1
$GPRMC,223644.500,A,4305.2625,N,07740.5581,W,14.35,88.46,120924,,,A*7D
$GPGGA,223644.750,4305.2625,N,07740.5567,W,1,09,0.96,165.7,M,-34.4,M,,*50
lng=-77.675971, lat=43.087711, altitude=165.90, speed=14.35, satellites=9, angle=88.4600, fixquality=1
$GPRMC,223645.000,A,4305.2625,N,07740.5554,W,14.36,87.71,120924,,,A*79
$GPGGA,223645.250,4305.2626,N,07740.5541,W,1,09,0.96,165.6,M,-34.4,M,,*52
lng=-77.675918, lat=43.087711, altitude=165.70, speed=14.36, satellites=9, angle=87.7100, fixquality=1
$GPRMC,223645.500,A,4305.2626,N,07740.5527,W,14.33,87.28,120924,,,A*72
$GPGGA,223645.750,4305.2627,N,07740.5514,W,1,09,0.96,165.6,M,-34.4,M,,*56
lng=-77.675880, lat=43.087711, altitude=165.60, speed=14.33, satellites=9, angle=87.2800, fixquality=1
$GPRMC,223646.000,A,4305.2628,N,07740.5500,W,14.09,86.79,120924,,,A*73
$GPGGA,223646.250,4305.2630,N,07740.5487,W,1,09,0.96,165.6,M,-34.4,M,,*5D
lng=-77.675827, lat=43.087711, altitude=165.60, speed=14.09, satellites=9, angle=86.7900, fixquality=1
$GPRMC,223646.500,A,4305.2631,N,07740.5474,W,13.62,85.97,120924,,,A*75
$GPGGA,223646.750,4305.2633,N,07740.5461,W,1,09,0.96,165.5,M,-34.4,M,,*50
lng=-77.675788, lat=43.087718, altitude=165.60, speed=13.62, satellites=9, angle=85.9700, fixquality=1
$GPRMC,223647.000,A,4305.2633,N,07740.5447,W,13.02,84.88,120924,,,A*7A
$GPGGA,223647.250,4305.2635,N,07740.5435,W,1,09,0.96,165.4,M,-34.4,M,,*52
lng=-77.675750, lat=43.087718, altitude=165.50, speed=13.02, satellites=9, angle=84.8800, fixquality=1
$GPRMC,223647.500,A,4305.2636,N,07740.5422,W,12.96,84.65,120924,,,A*76
$GPGGA,223647.750,4305.2637,N,07740.5409,W,1,09,0.96,165.3,M,-34.4,M,,*5D
lng=-77.675697, lat=43.087726, altitude=165.40, speed=12.96, satellites=9, angle=84.6500, fixquality=1
$GPRMC,223648.000,A,4305.2637,N,07740.5396,W,13.07,86.54,120924,,,A*7C
$GPGGA,223648.250,4305.2637,N,07740.5383,W,1,09,0.96,165.2,M,-34.4,M,,*53
lng=-77.675659, lat=43.087726, altitude=165.30, speed=13.07, satellites=9, angle=86.5400, fixquality=1
$GPRMC,223648.500,A,4305.2638,N,07740.5371,W,13.04,87.97,120924,,,A*72
$GPGGA,223648.750,4305.2639,N,07740.5359,W,1,09,0.96,165.1,M,-34.4,M,,*5C
lng=-77.675621, lat=43.087726, altitude=165.20, speed=13.04, satellites=9, angle=87.9700, fixquality=1
$GPRMC,223649.000,A,4305.2639,N,07740.5348,W,12.42,88.57,120924,,,A*7D
$GPGGA,223649.250,4305.2640,N,07740.5336,W,1,09,0.96,165.0,M,-34.4,M,,*5E
lng=-77.675575, lat=43.087726, altitude=165.10, speed=12.42, satellites=9, angle=88.5700, fixquality=1
$GPRMC,223649.500,A,4305.2640,N,07740.5325,W,12.40,88.91,120924,,,A*75
$GPGGA,223649.750,4305.2640,N,07740.5313,W,1,09,0.96,164.9,M,-34.4,M,,*54
lng=-77.675544, lat=43.087734, altitude=165.00, speed=12.40, satellites=9, angle=88.9100, fixquality=1
$GPRMC,223650.000,A,4305.2638,N,07740.5298,W,12.22,90.39,120924,,,A*7F
$GPGGA,223650.250,4305.2638,N,07740.5284,W,1,09,0.96,165.1,M,-34.4,M,,*50
lng=-77.675498, lat=43.087726, altitude=164.90, speed=12.22, satellites=9, angle=90.3900, fixquality=1
$GPRMC,223650.500,A,4305.2638,N,07740.5270,W,12.29,91.68,120924,,,A*72
$GPGGA,223650.750,4305.2636,N,07740.5252,W,1,09,0.96,165.2,M,-34.4,M,,*53
lng=-77.675445, lat=43.087726, altitude=165.10, speed=12.29, satellites=9, angle=91.6800, fixquality=1
$GPRMC,223651.000,A,4305.2634,N,07740.5235,W,11.75,91.70,120924,,,A*78
$GPGGA,223651.250,4305.2633,N,07740.5222,W,1,09,0.96,165.2,M,-34.4,M,,*55
lng=-77.675392, lat=43.087718, altitude=165.20, speed=11.75, satellites=9, angle=91.7000, fixquality=1
$GPRMC,223651.500,A,4305.2632,N,07740.5211,W,11.79,90.41,120924,,,A*72
$GPGGA,223651.750,4305.2632,N,07740.5199,W,1,09,0.96,165.2,M,-34.4,M,,*52
lng=-77.675346, lat=43.087718, altitude=165.20, speed=11.79, satellites=9, angle=90.4100, fixquality=1
$GPRMC,223652.000,A,4305.2632,N,07740.5187,W,12.45,89.87,120924,,,A*76
$GPGGA,223652.250,4305.2632,N,07740.5174,W,1,09,0.96,165.1,M,-34.4,M,,*54
lng=-77.675308, lat=43.087718, altitude=165.20, speed=12.45, satellites=9, angle=89.8700, fixquality=1
$GPRMC,223652.500,A,4305.2631,N,07740.5161,W,12.95,90.17,120924,,,A*74
$GPGGA,223652.750,4305.2630,N,07740.5148,W,1,09,0.96,164.9,M,-34.4,M,,*55
lng=-77.675270, lat=43.087718, altitude=165.10, speed=12.95, satellites=9, angle=90.1700, fixquality=1
$GPRMC,223653.000,A,4305.2629,N,07740.5135,W,13.96,91.95,120924,,,A*71
$GPGGA,223653.250,4305.2629,N,07740.5121,W,1,09,0.96,164.6,M,-34.4,M,,*59
lng=-77.675224, lat=43.087711, altitude=164.90, speed=13.96, satellites=9, angle=91.9500, fixquality=1
$GPRMC,223653.500,A,4305.2629,N,07740.5108,W,14.46,92.05,120924,,,A*7A
$GPGGA,223653.750,4305.2628,N,07740.5094,W,1,09,0.96,164.7,M,-34.4,M,,*53
lng=-77.675178, lat=43.087711, altitude=164.60, speed=14.46, satellites=9, angle=92.0500, fixquality=1
$GPRMC,223654.000,A,4305.2628,N,07740.5079,W,15.28,91.82,120924,,,A*7B
$GPGGA,223654.250,4305.2627,N,07740.5066,W,1,09,0.96,165.0,M,-34.4,M,,*55
lng=-77.675132, lat=43.087711, altitude=164.70, speed=15.28, satellites=9, angle=91.8200, fixquality=1
$GPRMC,223654.500,A,4305.2627,N,07740.5053,W,15.19,91.83,120924,,,A*7A
$GPGGA,223654.750,4305.2628,N,07740.5040,W,1,09,0.96,165.4,M,-34.4,M,,*5F
lng=-77.675086, lat=43.087711, altitude=165.00, speed=15.19, satellites=9, angle=91.8300, fixquality=1
$GPRMC,223655.000,A,4305.2628,N,07740.5027,W,14.90,91.76,120924,,,A*78
$GPGGA,223655.250,4305.2628,N,07740.5015,W,1,09,0.96,165.8,M,-34.4,M,,*57
lng=-77.675048, lat=43.087711, altitude=165.40, speed=14.90, satellites=9, angle=91.7600, fixquality=1
$GPRMC,223655.500,A,4305.2628,N,07740.5002,W,14.79,91.75,120924,,,A*7E
$GPGGA,223655.750,4305.2629,N,07740.4989,W,1,09,0.96,166.1,M,-34.4,M,,*54
lng=-77.675003, lat=43.087711, altitude=165.80, speed=14.79, satellites=9, angle=91.7500, fixquality=1
$GPRMC,223656.000,A,4305.2629,N,07740.4977,W,15.03,92.55,120924,,,A*7E
$GPGGA,223656.250,4305.2630,N,07740.4965,W,1,09,0.96,166.6,M,-34.4,M,,*5F
lng=-77.674957, lat=43.087711, altitude=166.10, speed=15.03, satellites=9, angle=92.5500, fixquality=1
$GPRMC,223656.500,A,4305.2633,N,07740.4955,W,14.74,91.33,120924,,,A*72
$GPGGA,223656.750,4305.2637,N,07740.4948,W,1,09,0.96,166.9,M,-34.4,M,,*5D
lng=-77.674926, lat=43.087718, altitude=166.60, speed=14.74, satellites=9, angle=91.3300, fixquality=1
$GPRMC,223657.000,A,4305.2640,N,07740.4940,W,14.41,93.74,120924,,,A*71
$GPGGA,223657.250,4305.2641,N,07740.4930,W,1,09,0.96,166.9,M,-34.4,M,,*57
lng=-77.674903, lat=43.087734, altitude=166.90, speed=14.41, satellites=9, angle=93.7400, fixquality=1
$GPRMC,223657.500,A,4305.2641,N,07740.4919,W,14.14,95.61,120924,,,A*7B
$GPGGA,223657.750,4305.2640,N,07740.4908,W,1,09,0.96,166.8,M,-34.4,M,,*59
lng=-77.674858, lat=43.087734, altitude=166.90, speed=14.14, satellites=9, angle=95.6100, fixquality=1
$GPRMC,223658.000,A,4305.2643,N,07740.4900,W,13.93,97.10,120924,,,A*77
$GPGGA,223658.250,4305.2643,N,07740.4893,W,1,09,0.96,166.7,M,-34.4,M,,*5C
lng=-77.674835, lat=43.087734, altitude=166.80, speed=13.93, satellites=9, angle=97.1000, fixquality=1
$GPRMC,223658.500,A,4305.2640,N,07740.4887,W,13.64,99.52,120924,,,A*7F
$GPGGA,223658.750,4305.2639,N,07740.4880,W,1,09,0.96,166.9,M,-34.4,M,,*58
lng=-77.674812, lat=43.087734, altitude=166.70, speed=13.64, satellites=9, angle=99.5200, fixquality=1
$GPRMC,223659.000,A,4305.2636,N,07740.4871,W,13.46,103.99,120924,,,A*46
$GPGGA,223659.250,4305.2633,N,07740.4862,W,1,09,0.96,166.7,M,-34.4,M,,*54
lng=-77.674789, lat=43.087726, altitude=166.90, speed=13.46, satellites=9, angle=103.9900, fixquality=1
$GPRMC,223659.500,A,4305.2630,N,07740.4850,W,13.16,107.91,120924,,,A*4F
$GPGGA,223659.750,4305.2625,N,07740.4838,W,1,09,0.96,166.6,M,-34.4,M,,*58
lng=-77.674751, lat=43.087718, altitude=166.70, speed=13.16, satellites=9, angle=107.9100, fixquality=1
$GPRMC,223700.000,A,4305.2621,N,07740.4825,W,12.91,113.32,120924,,,A*47
$GPGGA,223700.250,4305.2616,N,07740.4814,W,1,09,0.96,166.6,M,-34.4,M,,*5E
lng=-77.674705, lat=43.087703, altitude=166.60, speed=12.91, satellites=9, angle=113.3200, fixquality=1
$GPRMC,223700.500,A,4305.2612,N,07740.4803,W,12.93,117.36,120924,,,A*44
$GPGGA,223700.750,4305.2607,N,07740.4791,W,1,09,0.96,166.4,M,-34.4,M,,*5B
lng=-77.674674, lat=43.087688, altitude=166.60, speed=12.93, satellites=9, angle=117.3600, fixquality=1
$GPRMC,223701.000,A,4305.2601,N,07740.4781,W,12.51,120.01,120924,,,A*49
$GPGGA,223701.250,4305.2596,N,07740.4770,W,1,09,0.96,165.8,M,-34.4,M,,*54
lng=-77.674636, lat=43.087669, altitude=166.40, speed=12.51, satellites=9, angle=120.0100, fixquality=1
$GPRMC,223701.500,A,4305.2592,N,07740.4760,W,12.39,118.81,120924,,,A*47
$GPGGA,223701.750,4305.2587,N,07740.4748,W,1,09,0.97,165.3,M,-34.4,M,,*50
lng=-77.674598, lat=43.087654, altitude=165.80, speed=12.39, satellites=9, angle=118.8100, fixquality=1
$GPRMC,223702.000,A,4305.2583,N,07740.4737,W,12.36,112.95,120924,,,A*43
$GPGGA,223702.250,4305.2580,N,07740.4726,W,1,09,0.96,165.0,M,-34.4,M,,*5B
lng=-77.674560, lat=43.087638, altitude=165.30, speed=12.36, satellites=9, angle=112.9500, fixquality=1
$GPRMC,223702.500,A,4305.2577,N,07740.4714,W,12.00,106.94,120924,,,A*4D
$GPGGA,223702.750,4305.2575,N,07740.4701,W,1,09,0.96,165.1,M,-34.4,M,,*50
lng=-77.674522, lat=43.087631, altitude=165.00, speed=12.00, satellites=9, angle=106.9400, fixquality=1
$GPRMC,223703.000,A,4305.2574,N,07740.4688,W,12.36,98.43,120924,,,A*77
$GPGGA,223703.250,4305.2573,N,07740.4675,W,1,09,0.97,164.8,M,-34.4,M,,*59
lng=-77.674476, lat=43.087623, altitude=165.10, speed=12.36, satellites=9, angle=98.4300, fixquality=1
$GPRMC,223703.500,A,4305.2573,N,07740.4661,W,12.82,93.65,120924,,,A*72
$GPGGA,223703.750,4305.2574,N,07740.4648,W,1,09,0.97,164.5,M,-34.4,M,,*58
lng=-77.674438, lat=43.087623, altitude=164.80, speed=12.82, satellites=9, angle=93.6500, fixquality=1
$GPRMC,223704.000,A,4305.2575,N,07740.4634,W,13.32,86.26,120924,,,A*7F
$GPGGA,223704.250,4305.2576,N,07740.4621,W,1,09,0.96,164.5,M,-34.4,M,,*56
lng=-77.674392, lat=43.087623, altitude=164.50, speed=13.32, satellites=9, angle=86.2600, fixquality=1
$GPRMC,223704.500,A,4305.2579,N,07740.4609,W,13.07,79.93,120924,,,A*70
$GPGGA,223704.750,4305.2583,N,07740.4598,W,1,09,0.96,164.9,M,-34.4,M,,*54
lng=-77.674346, lat=43.087631, altitude=164.50, speed=13.07, satellites=9, angle=79.9300, fixquality=1
$GPRMC,223705.000,A,4305.2587,N,07740.4586,W,12.88,68.28,120924,,,A*77
$GPGGA,223705.250,4305.2592,N,07740.4574,W,1,09,0.97,164.9,M,-34.4,M,,*53
lng=-77.674308, lat=43.087646, altitude=164.90, speed=12.88, satellites=9, angle=68.2800, fixquality=1
$GPRMC,223705.500,A,4305.2597,N,07740.4562,W,13.24,62.52,120924,,,A*79
$GPGGA,223705.750,4305.2602,N,07740.4548,W,1,09,0.96,164.9,M,-34.4,M,,*52
lng=-77.674270, lat=43.087661, altitude=164.90, speed=13.24, satellites=9, angle=62.5200, fixquality=1
$GPRMC,223706.000,A,4305.2608,N,07740.4535,W,13.48,59.24,120924,,,A*7B
$GPGGA,223706.250,4305.2613,N,07740.4524,W,1,09,0.96,164.8,M,-34.4,M,,*5F
lng=-77.674224, lat=43.087680, altitude=164.90, speed=13.48, satellites=9, angle=59.2400, fixquality=1
$GPRMC,223706.500,A,4305.2618,N,07740.4513,W,13.52,57.75,120924,,,A*7A
$GPGGA,223706.750,4305.2624,N,07740.4502,W,1,09,0.97,164.8,M,-34.4,M,,*5B
lng=-77.674186, lat=43.087696, altitude=164.80, speed=13.52, satellites=9, angle=57.7500, fixquality=1
$GPRMC,223707.000,A,4305.2631,N,07740.4491,W,14.04,60.61,120924,,,A*7B
$GPGGA,223707.250,4305.2637,N,07740.4480,W,1,09,0.97,164.7,M,-34.4,M,,*59
lng=-77.674156, lat=43.087718, altitude=164.80, speed=14.04, satellites=9, angle=60.6100, fixquality=1
$GPRMC,223707.500,A,4305.2642,N,07740.4469,W,14.08,64.24,120924,,,A*74
$GPGGA,223707.750,4305.2646,N,07740.4455,W,1,09,0.97,164.7,M,-34.4,M,,*52
lng=-77.674110, lat=43.087734, altitude=164.70, speed=14.08, satellites=9, angle=64.2400, fixquality=1
$GPRMC,223708.000,A,4305.2650,N,07740.4441,W,14.09,70.01,120924,,,A*74
$GPGGA,223708.250,4305.2653,N,07740.4426,W,1,09,0.97,164.8,M,-34.4,M,,*57
lng=-77.674072, lat=43.087753, altitude=164.70, speed=14.09, satellites=9, angle=70.0100, fixquality=1
$GPRMC,223708.500,A,4305.2656,N,07740.4412,W,14.30,73.80,120924,,,A*71
$GPGGA,223708.750,4305.2659,N,07740.4398,W,1,09,0.97,164.8,M,-34.4,M,,*5A
lng=-77.674026, lat=43.087760, altitude=164.80, speed=14.30, satellites=9, angle=73.8000, fixquality=1
$GPRMC,223709.000,A,4305.2661,N,07740.4384,W,14.77,78.64,120924,,,A*7B
$GPGGA,223709.250,4305.2662,N,07740.4370,W,1,09,0.97,164.8,M,-34.4,M,,*50
lng=-77.673973, lat=43.087768, altitude=164.80, speed=14.77, satellites=9, angle=78.6400, fixquality=1
$GPRMC,223709.500,A,4305.2663,N,07740.4356,W,15.30,82.41,120924,,,A*73
$GPGGA,223709.750,4305.2663,N,07740.4341,W,1,09,0.97,164.8,M,-34.4,M,,*56
lng=-77.673927, lat=43.087768, altitude=164.80, speed=15.30, satellites=9, angle=82.4100, fixquality=1
$GPRMC,223710.000,A,4305.2663,N,07740.4325,W,15.99,85.83,120924,,,A*70
$GPGGA,223710.250,4305.2663,N,07740.4310,W,1,09,0.97,165.0,M,-34.4,M,,*56
lng=-77.673873, lat=43.087768, altitude=164.80, speed=15.99, satellites=9, angle=85.8300, fixquality=1
$GPRMC,223710.500,A,4305.2664,N,07740.4294,W,16.32,86.56,120924,,,A*70
$GPGGA,223710.750,4305.2664,N,07740.4278,W,1,09,0.96,165.0,M,-34.4,M,,*5A
lng=-77.673820, lat=43.087776, altitude=165.00, speed=16.32, satellites=9, angle=86.5600, fixquality=1
$GPRMC,223711.000,A,4305.2665,N,07740.4262,W,16.99,87.33,120924,,,A*7F
$GPGGA,223711.250,4305.2665,N,07740.4246,W,1,09,0.97,165.1,M,-34.4,M,,*52
lng=-77.673774, lat=43.087776, altitude=165.00, speed=16.99, satellites=9, angle=87.3300, fixquality=1
$GPRMC,223711.500,A,4305.2665,N,07740.4229,W,17.28,88.32,120924,,,A*70
$GPGGA,223711.750,4305.2665,N,07740.4213,W,1,09,0.97,165.1,M,-34.4,M,,*57
lng=-77.673713, lat=43.087776, altitude=165.10, speed=17.28, satellites=9, angle=88.3200, fixquality=1
$GPRMC,223712.000,A,4305.2665,N,07740.4196,W,17.50,88.63,120924,,,A*7A
$GPGGA,223712.250,4305.2665,N,07740.4180,W,1,09,0.97,165.1,M,-34.4,M,,*58
lng=-77.673660, lat=43.087776, altitude=165.10, speed=17.50, satellites=9, angle=88.6300, fixquality=1
$GPRMC,223712.500,A,4305.2666,N,07740.4163,W,17.53,88.45,120924,,,A*71
$GPGGA,223712.750,4305.2666,N,07740.4146,W,1,09,0.97,165.0,M,-34.4,M,,*55
lng=-77.673606, lat=43.087776, altitude=165.10, speed=17.53, satellites=9, angle=88.4500, fixquality=1
$GPRMC,223713.000,A,4305.2665,N,07740.4130,W,17.57,88.62,120924,,,A*71
$GPGGA,223713.250,4305.2665,N,07740.4113,W,1,09,0.97,164.8,M,-34.4,M,,*5B
lng=-77.673553, lat=43.087776, altitude=165.00, speed=17.57, satellites=9, angle=88.6200, fixquality=1
$GPRMC,223713.500,A,4305.2665,N,07740.4097,W,17.64,88.56,120924,,,A*7F
$GPGGA,223713.750,4305.2666,N,07740.4080,W,1,09,0.97,164.7,M,-34.4,M,,*59
lng=-77.673492, lat=43.087776, altitude=164.80, speed=17.64, satellites=9, angle=88.5600, fixquality=1
$GPRMC,223714.000,A,4305.2666,N,07740.4064,W,17.67,88.53,120924,,,A*74
$GPGGA,223714.250,4305.2666,N,07740.4047,W,1,09,0.97,164.5,M,-34.4,M,,*52
lng=-77.673439, lat=43.087776, altitude=164.70, speed=17.67, satellites=9, angle=88.5300, fixquality=1
$GPRMC,223714.500,A,4305.2666,N,07740.4031,W,17.69,89.82,120924,,,A*72
$GPGGA,223714.750,4305.2667,N,07740.4014,W,1,09,0.97,164.4,M,-34.4,M,,*51
lng=-77.673385, lat=43.087776, altitude=164.50, speed=17.69, satellites=9, angle=89.8200, fixquality=1
$GPRMC,223715.000,A,4305.2667,N,07740.3998,W,18.52,90.94,120924,,,A*72
$GPGGA,223715.250,4305.2668,N,07740.3981,W,1,09,0.97,164.4,M,-34.4,M,,*58
lng=-77.673332, lat=43.087776, altitude=164.40, speed=18.52, satellites=9, angle=90.9400, fixquality=1
$GPRMC,223715.500,A,4305.2667,N,07740.3963,W,19.26,91.60,120924,,,A*7B
$GPGGA,223715.750,4305.2667,N,07740.3945,W,1,09,0.97,164.5,M,-34.4,M,,*5B
lng=-77.673271, lat=43.087776, altitude=164.40, speed=19.26, satellites=9, angle=91.6000, fixquality=1
$GPRMC,223716.000,A,4305.2667,N,07740.3927,W,20.09,92.78,120924,,,A*70
$GPGGA,223716.250,4305.2666,N,07740.3909,W,1,09,0.97,164.4,M,-34.4,M,,*55
lng=-77.673210, lat=43.087776, altitude=164.50, speed=20.09, satellites=9, angle=92.7800, fixquality=1
$GPRMC,223716.500,A,4305.2666,N,07740.3890,W,20.50,93.06,120924,,,A*7D
$GPGGA,223716.750,4305.2665,N,07740.3871,W,1,09,0.97,164.5,M,-34.4,M,,*5C
lng=-77.673149, lat=43.087776, altitude=164.40, speed=20.50, satellites=9, angle=93.0600, fixquality=1
$GPRMC,223717.000,A,4305.2666,N,07740.3853,W,20.98,92.43,120924,,,A*72
$GPGGA,223717.250,4305.2666,N,07740.3834,W,1,09,0.97,164.6,M,-34.4,M,,*59
lng=-77.673088, lat=43.087776, altitude=164.50, speed=20.98, satellites=9, angle=92.4300, fixquality=1
$GPRMC,223717.500,A,4305.2667,N,07740.3816,W,21.03,90.79,120924,,,A*7F
$GPGGA,223717.750,4305.2668,N,07740.3798,W,1,09,0.97,164.8,M,-34.4,M,,*55
lng=-77.673027, lat=43.087776, altitude=164.60, speed=21.03, satellites=9, angle=90.7900, fixquality=1
$GPRMC,223718.000,A,4305.2672,N,07740.3781,W,21.08,87.58,120924,,,A*7E
$GPGGA,223718.250,4305.2673,N,07740.3762,W,1,09,0.97,165.1,M,-34.4,M,,*58
lng=-77.672966, lat=43.087783, altitude=164.80, speed=21.08, satellites=9, angle=87.5800, fixquality=1
$GPRMC,223718.500,A,4305.2675,N,07740.3742,W,21.17,86.20,120924,,,A*73
$GPGGA,223718.750,4305.2676,N,07740.3723,W,1,09,0.97,165.2,M,-34.4,M,,*5E
lng=-77.672897, lat=43.087791, altitude=165.10, speed=21.17, satellites=9, angle=86.2000, fixquality=1
$GPRMC,223719.000,A,4305.2678,N,07740.3703,W,21.28,85.47,120924,,,A*71
$GPGGA,223719.250,4305.2679,N,07740.3683,W,1,09,0.97,165.3,M,-34.4,M,,*5F
lng=-77.672836, lat=43.087791, altitude=165.20, speed=21.28, satellites=9, angle=85.4700, fixquality=1
$GPRMC,223719.500,A,4305.2680,N,07740.3663,W,21.08,85.07,120924,,,A*72
$GPGGA,223719.750,4305.2682,N,07740.3643,W,1,09,0.97,165.4,M,-34.4,M,,*55
lng=-77.672767, lat=43.087802, altitude=165.30, speed=21.08, satellites=9, angle=85.0700, fixquality=1
$GPRMC,223720.000,A,4305.2683,N,07740.3623,W,20.98,84.38,120924,,,A*7F
$GPGGA,223720.250,4305.2685,N,07740.3603,W,1,09,0.97,165.4,M,-34.4,M,,*59
