Vers 72
USE_SERIAL_FEEDBACK=true
DEVELOPMENT_MODE=false
USE_RMC_ONLY=false

$GPRMC,143923.000,A,4308.3018,N,07726.2636,W,0.05,322.54,130924,,,A*78
$GPGGA,143923.250,4308.3018,N,07726.2637,W,1,05,1.66,167.1,M,-34.4,M,,*5D
lng=-77.437728, lat=43.138362, altitude=164.00, speed=0.05, satellites=5, angle=322.5400, fixquality=1
$GPRMC,143923.500,A,4308.3018,N,07726.2638,W,0.19,269.97,130924,,,A*7F
$GPGGA,143923.750,4308.3018,N,07726.2637,W,1,05,1.66,167.0,M,-34.4,M,,*59
lng=-77.437728, lat=43.138362, altitude=167.10, speed=0.19, satellites=5, angle=269.9700, fixquality=1
$GPGGA,143929.000,4308.3030,N,07726.2638,W,1,05,1.66,166.2,M,-34.4,M,,*57
$GPRMC,143929.000,A,4308.3030,N,07726.2638,W,1.35,18.98,130924,,,A*4E
lng=-77.437728, lat=43.138385, altitude=166.20, speed=1.24, satellites=5, angle=19.1700, fixquality=1
$GPGGA,143929.250,4308.3031,N,07726.2637,W,1,05,1.67,166.2,M,-34.4,M,,*5F
$GPRMC,143929.250,A,4308.3031,N,07726.2637,W,1.60,21.30,130924,,,A*4F
lng=-77.437728, lat=43.138385, altitude=166.20, speed=1.35, satellites=5, angle=18.9800, fixquality=1
$GPRMC,143930.250,A,4308.3038,N,07726.2633,W,2.82,29.28,130924,,,A*44
$GPGGA,143930.500,4308.3041,N,07726.2633,W,1,06,1.62,165.2,M,-34.4,M,,*53
lng=-77.437721, lat=43.138393, altitude=165.50, speed=2.82, satellites=6, angle=29.2800, fixquality=1
$GPRMC,143930.750,A,4308.3044,N,07726.2633,W,3.78,10.34,130924,,,A*49
$GPGGA,143931.000,4308.3047,N,07726.2633,W,1,06,1.84,164.8,M,-34.4,M,,*52
lng=-77.437721, lat=43.138404, altitude=165.20, speed=3.78, satellites=6, angle=10.3400, fixquality=1
$GPRMC,143931.250,A,4308.3050,N,07726.2633,W,3.61,6.12,130924,,,A*73
$GPGGA,143931.500,4308.3053,N,07726.2633,W,1,06,1.83,164.3,M,-34.4,M,,*5E
lng=-77.437721, lat=43.138420, altitude=164.80, speed=3.61, satellites=6, angle=6.1200, fixquality=1
$GPRMC,143931.750,A,4308.3056,N,07726.2633,W,3.38,1.80,130924,,,A*70
$GPGGA,143932.000,4308.3059,N,07726.2633,W,1,06,1.83,163.8,M,-34.4,M,,*5E
lng=-77.437721, lat=43.138427, altitude=164.30, speed=3.38, satellites=6, angle=1.8000, fixquality=1
$GPRMC,143932.250,A,4308.3061,N,07726.2634,W,3.17,2.05,130924,,,A*76
$GPGGA,143932.500,4308.3064,N,07726.2634,W,1,06,1.83,163.4,M,-34.4,M,,*5E
lng=-77.437721, lat=43.138435, altitude=163.80, speed=3.17, satellites=6, angle=2.0500, fixquality=1
$GPRMC,143932.750,A,4308.3067,N,07726.2633,W,3.76,11.98,130924,,,A*43
$GPGGA,143933.000,4308.3070,N,07726.2633,W,1,06,1.83,163.2,M,-34.4,M,,*5E
lng=-77.437721, lat=43.138442, altitude=163.40, speed=3.76, satellites=6, angle=11.9800, fixquality=1
$GPRMC,143933.250,A,4308.3073,N,07726.2633,W,3.84,6.15,130924,,,A*7C
$GPGGA,143933.500,4308.3076,N,07726.2633,W,1,06,1.83,163.1,M,-34.4,M,,*5E
lng=-77.437721, lat=43.138450, altitude=163.20, speed=3.84, satellites=6, angle=6.1500, fixquality=1
$GPRMC,143933.750,A,4308.3080,N,07726.2634,W,4.30,358.91,130924,,,A*7E
$GPGGA,143934.000,4308.3083,N,07726.2634,W,1,06,1.84,163.0,M,-34.4,M,,*57
lng=-77.437721, lat=43.138469, altitude=163.10, speed=4.30, satellites=6, angle=358.9100, fixquality=1
$GPRMC,143934.250,A,4308.3086,N,07726.2635,W,4.05,0.57,130924,,,A*79
$GPGGA,143934.500,4308.3088,N,07726.2635,W,1,06,1.84,163.2,M,-34.4,M,,*5A
lng=-77.437728, lat=43.138477, altitude=163.00, speed=4.05, satellites=6, angle=0.5700, fixquality=1
$GPRMC,143934.750,A,4308.3091,N,07726.2635,W,4.09,5.17,130924,,,A*77
$GPGGA,143935.000,4308.3095,N,07726.2635,W,1,06,1.83,163.2,M,-34.4,M,,*55
lng=-77.437728, lat=43.138484, altitude=163.20, speed=4.09, satellites=6, angle=5.1700, fixquality=1
$GPRMC,143935.250,A,4308.3098,N,07726.2636,W,4.61,1.81,130924,,,A*7C
$GPGGA,143935.500,4308.3102,N,07726.2636,W,1,06,1.83,163.2,M,-34.4,M,,*5C
lng=-77.437728, lat=43.138492, altitude=163.20, speed=4.61, satellites=6, angle=1.8100, fixquality=1
$GPRMC,143935.750,A,4308.3105,N,07726.2635,W,4.88,8.82,130924,,,A*72
$GPGGA,143936.000,4308.3109,N,07726.2635,W,1,06,1.84,163.1,M,-34.4,M,,*56
lng=-77.437728, lat=43.138507, altitude=163.20, speed=4.88, satellites=6, angle=8.8200, fixquality=1
$GPRMC,143936.250,A,4308.3112,N,07726.2634,W,4.64,11.88,130924,,,A*43
$GPGGA,143936.500,4308.3115,N,07726.2633,W,1,06,1.83,163.1,M,-34.4,M,,*5F
lng=-77.437721, lat=43.138515, altitude=163.10, speed=4.64, satellites=6, angle=11.8800, fixquality=1
$GPRMC,143936.750,A,4308.3117,N,07726.2632,W,3.93,17.74,130924,,,A*4F
$GPGGA,143937.000,4308.3119,N,07726.2632,W,1,06,1.83,162.9,M,-34.4,M,,*5F
lng=-77.437721, lat=43.138526, altitude=163.10, speed=3.93, satellites=6, angle=17.7400, fixquality=1
$GPRMC,143937.250,A,4308.3122,N,07726.2632,W,3.45,11.77,130924,,,A*43
$GPGGA,143937.500,4308.3124,N,07726.2631,W,1,06,1.84,162.6,M,-34.4,M,,*5F
lng=-77.437721, lat=43.138534, altitude=162.90, speed=3.45, satellites=6, angle=11.7700, fixquality=1
$GPRMC,143937.750,A,4308.3126,N,07726.2631,W,2.42,20.64,130924,,,A*47
$GPGGA,143938.000,4308.3128,N,07726.2630,W,1,06,1.62,162.4,M,-34.4,M,,*52
lng=-77.437721, lat=43.138542, altitude=162.60, speed=2.42, satellites=6, angle=20.6400, fixquality=1
$GPRMC,143938.500,A,4308.3131,N,07726.2628,W,2.85,34.77,130924,,,A*4D
$GPGGA,143938.750,4308.3133,N,07726.2627,W,1,06,1.62,162.2,M,-34.4,M,,*5A
lng=-77.437713, lat=43.138549, altitude=162.20, speed=2.85, satellites=6, angle=34.7700, fixquality=1
$GPRMC,143939.000,A,4308.3136,N,07726.2625,W,3.68,29.22,130924,,,A*4D
$GPGGA,143939.250,4308.3138,N,07726.2624,W,1,06,1.62,162.1,M,-34.4,M,,*55
lng=-77.437713, lat=43.138557, altitude=162.20, speed=3.68, satellites=6, angle=29.2200, fixquality=1
$GPRMC,143939.500,A,4308.3141,N,07726.2622,W,4.17,29.31,130924,,,A*42
$GPGGA,143939.750,4308.3143,N,07726.2620,W,1,06,1.84,162.0,M,-34.4,M,,*51
lng=-77.437705, lat=43.138565, altitude=162.10, speed=4.17, satellites=6, angle=29.3100, fixquality=1
$GPRMC,143940.000,A,4308.3144,N,07726.2619,W,3.34,36.53,130924,,,A*48
$GPGGA,143940.250,4308.3146,N,07726.2617,W,1,06,1.62,161.9,M,-34.4,M,,*59
lng=-77.437698, lat=43.138572, altitude=162.00, speed=3.34, satellites=6, angle=36.5300, fixquality=1
$GPRMC,143940.500,A,4308.3148,N,07726.2615,W,3.57,39.83,130924,,,A*4A
$GPGGA,143940.750,4308.3150,N,07726.2613,W,1,06,1.62,161.8,M,-34.4,M,,*5E
lng=-77.437698, lat=43.138584, altitude=161.90, speed=3.57, satellites=6, angle=39.8300, fixquality=1
$GPRMC,143941.000,A,4308.3151,N,07726.2610,W,3.69,53.61,130924,,,A*4E
$GPGGA,143941.250,4308.3152,N,07726.2608,W,1,06,1.63,161.7,M,-34.4,M,,*5C
lng=-77.437690, lat=43.138584, altitude=161.80, speed=3.69, satellites=6, angle=53.6100, fixquality=1
$GPRMC,143941.500,A,4308.3152,N,07726.2607,W,2.21,60.89,130924,,,A*45
$GPGGA,143941.750,4308.3153,N,07726.2606,W,1,06,1.62,161.6,M,-34.4,M,,*56
lng=-77.437675, lat=43.138591, altitude=161.70, speed=2.21, satellites=6, angle=60.8900, fixquality=1
$GPGGA,143943.750,4308.3151,N,07726.2618,W,1,06,1.63,161.3,M,-34.4,M,,*5D
$GPRMC,143943.750,A,4308.3151,N,07726.2618,W,1.92,256.09,130924,,,A*79
lng=-77.437698, lat=43.138584, altitude=161.30, speed=1.19, satellites=6, angle=255.3300, fixquality=1
$GPGGA,143944.000,4308.3151,N,07726.2624,W,1,06,1.63,161.3,M,-34.4,M,,*57
$GPRMC,143944.000,A,4308.3151,N,07726.2624,W,2.57,260.23,130924,,,A*74
lng=-77.437705, lat=43.138584, altitude=161.30, speed=1.92, satellites=6, angle=256.0900, fixquality=1
$GPGGA,143944.250,4308.3152,N,07726.2628,W,1,06,1.63,161.2,M,-34.4,M,,*5E
$GPRMC,143944.250,A,4308.3152,N,07726.2628,W,3.41,262.98,130924,,,A*78
lng=-77.437713, lat=43.138591, altitude=161.20, speed=2.57, satellites=6, angle=260.2300, fixquality=1
$GPGGA,143944.500,4308.3152,N,07726.2635,W,1,06,1.63,161.2,M,-34.4,M,,*50
$GPRMC,143944.500,A,4308.3152,N,07726.2635,W,5.03,265.24,130924,,,A*76
lng=-77.437728, lat=43.138591, altitude=161.20, speed=3.41, satellites=6, angle=262.9800, fixquality=1
$GPGGA,143944.750,4308.3152,N,07726.2642,W,1,06,1.84,161.2,M,-34.4,M,,*5E
$GPRMC,143944.750,A,4308.3152,N,07726.2642,W,6.42,270.77,130924,,,A*75
lng=-77.437736, lat=43.138591, altitude=161.20, speed=5.03, satellites=6, angle=265.2400, fixquality=1
$GPGGA,143945.000,4308.3152,N,07726.2649,W,1,06,1.84,161.1,M,-34.4,M,,*55
$GPRMC,143945.000,A,4308.3152,N,07726.2649,W,7.24,269.51,130924,,,A*70
lng=-77.437751, lat=43.138591, altitude=161.10, speed=6.42, satellites=6, angle=270.7700, fixquality=1
$GPGGA,143945.250,4308.3152,N,07726.2657,W,1,06,1.84,161.1,M,-34.4,M,,*5D
$GPRMC,143945.250,A,4308.3152,N,07726.2657,W,7.90,268.73,130924,,,A*76
lng=-77.437759, lat=43.138591, altitude=161.10, speed=7.24, satellites=6, angle=269.5100, fixquality=1
$GPGGA,143945.500,4308.3152,N,07726.2666,W,1,06,1.84,161.0,M,-34.4,M,,*5C
$GPRMC,143945.500,A,4308.3152,N,07726.2666,W,8.47,269.71,130924,,,A*70
lng=-77.437774, lat=43.138591, altitude=161.00, speed=7.90, satellites=6, angle=268.7300, fixquality=1
$GPGGA,143945.750,4308.3153,N,07726.2675,W,1,06,1.84,161.0,M,-34.4,M,,*58
$GPRMC,143945.750,A,4308.3153,N,07726.2675,W,9.18,271.80,130924$GPGGA,143946.000,4308.3154,N,07726.2685,W,1,06,1.84,161.0,M,-34.4,M,,*51
lng=-77.437789, lat=43.138591, altitude=161.00, speed=8.47, satellites=6, angle=269.7100, fixquality=1
$GPRMC,143946.250,A,4308.3155,N,07726.2695,W,10.54,275.97,130924,,,A*44
$GPGGA,143946.500,4308.3156,N,07726.2706,W,1,06,1.63,160.8,M,-34.4,M,,*5C
lng=-77.437828, lat=43.138591, altitude=161.00, speed=10.54, satellites=6, angle=275.9700, fixquality=1
$GPRMC,143946.750,A,4308.3158,N,07726.2719,W,12.12,278.51,130924,,,A*4E
$GPGGA,143947.000,4308.3160,N,07726.2731,W,1,06,1.63,160.7,M,-34.4,M,,*56
lng=-77.437866, lat=43.138599, altitude=160.80, speed=12.12, satellites=6, angle=278.5100, fixquality=1
$GPRMC,143947.250,A,4308.3162,N,07726.2743,W,12.86,280.22,130924,,,A*42
$GPGGA,143947.500,4308.3165,N,07726.2756,W,1,06,1.63,160.6,M,-34.4,M,,*56
lng=-77.437904, lat=43.138607, altitude=160.70, speed=12.86, satellites=6, angle=280.2200, fixquality=1
$GPRMC,143947.750,A,4308.3167,N,07726.2768,W,13.46,282.28,130924,,,A*4E
$GPGGA,143948.000,4308.3170,N,07726.2781,W,1,06,1.63,160.5,M,-34.4,M,,*51
lng=-77.437950, lat=43.138614, altitude=160.60, speed=13.46, satellites=6, angle=282.2800, fixquality=1
$GPRMC,143948.250,A,4308.3173,N,07726.2794,W,13.86,284.39,130924,,,A*48
$GPGGA,143948.500,4308.3176,N,07726.2808,W,1,06,1.63,160.3,M,-34.4,M,,*5A
lng=-77.437988, lat=43.138622, altitude=160.50, speed=13.86, satellites=6, angle=284.3900, fixquality=1
$GPRMC,143948.750,A,4308.3181,N,07726.2823,W,15.01,287.81,130924,,,A*4A
$GPGGA,143949.000,4308.3186,N,07726.2837,W,1,06,1.84,160.2,M,-34.4,M,,*55
lng=-77.438034, lat=43.138629, altitude=160.30, speed=15.01, satellites=6, angle=287.8100, fixquality=1
$GPRMC,143949.250,A,4308.3190,N,07726.2850,W,15.45,290.92,130924,,,A*4E
$GPGGA,143949.500,4308.3194,N,07726.2864,W,1,06,1.84,160.0,M,-34.4,M,,*57
lng=-77.438087, lat=43.138648, altitude=160.20, speed=15.45, satellites=6, angle=290.9200, fixquality=1
$GPRMC,143949.750,A,4308.3199,N,07726.2878,W,15.96,292.49,130924,,,A*42
$GPGGA,143950.000,4308.3204,N,07726.2892,W,1,06,1.84,159.9,M,-34.4,M,,*5A
lng=-77.438125, lat=43.138664, altitude=160.00, speed=15.96, satellites=6, angle=292.4900, fixquality=1
$GPRMC,143950.250,A,4308.3210,N,07726.2906,W,16.68,295.64,130924,,,A*4F
$GPGGA,143950.500,4308.3216,N,07726.2921,W,1,06,1.63,159.9,M,-34.4,M,,*5C
lng=-77.438179, lat=43.138679, altitude=159.90, speed=16.68, satellites=6, angle=295.6400, fixquality=1
$GPRMC,143950.750,A,4308.3222,N,07726.2936,W,17.68,298.29,130924,,,A*4D
$GPGGA,143951.000,4308.3229,N,07726.2951,W,1,06,1.63,159.8,M,-34.4,M,,*52
lng=-77.438224, lat=43.138706, altitude=159.90, speed=17.68, satellites=6, angle=298.2900, fixquality=1
$GPRMC,143951.250,A,4308.3235,N,07726.2967,W,18.59,299.40,130924,,,A*48
$GPGGA,143951.500,4308.3243,N,07726.2983,W,1,06,1.63,159.8,M,-34.4,M,,*54
lng=-77.438278, lat=43.138729, altitude=159.80, speed=18.59, satellites=6, angle=299.4000, fixquality=1
$GPRMC,143951.750,A,4308.3250,N,07726.3000,W,19.87,300.75,130924,,,A*42
$GPGGA,143952.000,4308.3258,N,07726.3016,W,1,06,1.63,159.8,M,-34.4,M,,*5C
lng=-77.438331, lat=43.138751, altitude=159.80, speed=19.87, satellites=6, angle=300.7500, fixquality=1
$GPRMC,143952.250,A,4308.3265,N,07726.3033,W,20.51,301.13,130924,,,A*42
$GPGGA,143952.500,4308.3273,N,07726.3051,W,1,06,1.63,159.7,M,-34.4,M,,*5C
lng=-77.438385, lat=43.138778, altitude=159.80, speed=20.51, satellites=6, angle=301.1300, fixquality=1
$GPRMC,143952.750,A,4308.3281,N,07726.3070,W,21.21,301.02,130924,,,A*4C
$GPGGA,143953.000,4308.3288,N,07726.3088,W,1,06,1.63,159.7,M,-34.4,M,,*58
lng=-77.438453, lat=43.138801, altitude=159.70, speed=21.21, satellites=6, angle=301.0200, fixquality=1
$GPRMC,143953.250,A,4308.3296,N,07726.3107,W,21.53,300.37,130924,,,A*4D
$GPGGA,143953.500,4308.3304,N,07726.3125,W,1,06,1.63,159.7,M,-34.4,M,,*5E
lng=-77.438507, lat=43.138828, altitude=159.70, speed=21.53, satellites=6, angle=300.3700, fixquality=1
$GPRMC,143953.750,A,4308.3312,N,07726.3143,W,21.80,300.32,130924,,,A*4E
$GPGGA,143954.000,4308.3319,N,07726.3161,W,1,06,1.84,159.8,M,-34.4,M,,*56
lng=-77.438575, lat=43.138851, altitude=159.70, speed=21.80, satellites=6, angle=300.3200, fixquality=1
$GPRMC,143954.250,A,4308.3327,N,07726.3179,W,21.86,300.48,130924,,,A*48
$GPGGA,143954.500,4308.3335,N,07726.3198,W,1,06,1.63,159.8,M,-34.4,M,,*52
lng=-77.438629, lat=43.138874, altitude=159.80, speed=21.86, satellites=6, angle=300.4800, fixquality=1
$GPRMC,143954.750,A,4308.3343,N,07726.3216,W,22.09,300.62,130924,,,A*49
$GPGGA,143955.000,4308.3351,N,07726.3235,W,1,06,1.63,159.8,M,-34.4,M,,*50
lng=-77.438697, lat=43.138908, altitude=159.80, speed=22.09, satellites=6, angle=300.6200, fixquality=1
$GPRMC,143955.250,A,4308.3359,N,07726.3253,W,22.29,300.77,130924,,,A*41
$GPGGA,143955.500,4308.3368,N,07726.3271,W,1,06,1.62,159.8,M,-34.4,M,,*5E
lng=-77.438751, lat=43.138931, altitude=159.80, speed=22.29, satellites=6, angle=300.7700, fixquality=1
$GPRMC,143955.750,A,4308.3377,N,07726.3289,W,22.59,301.31,130924,,,A*4B
$GPGGA,143956.000,4308.3386,N,07726.3308,W,1,06,1.63,159.8,M,-34.4,M,,*56
lng=-77.438819, lat=43.138965, altitude=159.80, speed=22.59, satellites=6, angle=301.3100, fixquality=1
$GPRMC,143956.250,A,4308.3395,N,07726.3326,W,22.85,301.97,130924,,,A*48
$GPGGA,143956.500,4308.3403,N,07726.3344,W,1,06,1.63,159.8,M,-34.4,M,,*51
lng=-77.438873, lat=43.138988, altitude=159.80, speed=22.85, satellites=6, angle=301.9700, fixquality=1
$GPRMC,143956.750,A,4308.3412,N,07726.3362,W,22.94,302.46,130924,,,A*4A
$GPGGA,143957.000,4308.3422,N,07726.3380,W,1,06,1.63,159.9,M,-34.4,M,,*5F
lng=-77.438941, lat=43.139022, altitude=159.80, speed=22.94, satellites=6, angle=302.4600, fixquality=1
$GPRMC,143957.250,A,4308.3431,N,07726.3398,W,23.01,303.61,130924,,,A*43
$GPGGA,143957.500,4308.3441,N,07726.3416,W,1,06,1.63,159.9,M,-34.4,M,,*57
lng=-77.438995, lat=43.139053, altitude=159.90, speed=23.01, satellites=6, angle=303.6100, fixquality=1
$GPRMC,143957.750,A,4308.3450,N,07726.3434,W,23.08,304.36,130924,,,A*4C
$GPGGA,143958.000,4308.3460,N,07726.3452,W,1,06,1.85,159.8,M,-34.4,M,,*57
lng=-77.439056, lat=43.139087, altitude=159.90, speed=23.08, satellites=6, angle=304.3600, fixquality=1
$GPRMC,143958.250,A,4308.3470,N,07726.3470,W,23.36,304.89,130924,,,A*4D
$GPGGA,143958.500,4308.3480,N,07726.3488,W,1,06,1.63,159.8,M,-34.4,M,,*53
lng=-77.439117, lat=43.139118, altitude=159.80, speed=23.36, satellites=6, angle=304.8900, fixquality=1
$GPRMC,143958.750,A,4308.3490,N,07726.3506,W,23.64,305.86,130924,,,A*4F
$GPGGA,143959.000,4308.3501,N,07726.3524,W,1,06,1.85,159.8,M,-34.4,M,,*50
lng=-77.439178, lat=43.139152, altitude=159.80, speed=23.64, satellites=6, angle=305.8600, fixquality=1
$GPRMC,143959.250,A,4308.3511,N,07726.3542,W,23.79,306.92,130924,,,A*49
$GPGGA,143959.500,4308.3522,N,07726.3560,W,1,06,1.85,159.7,M,-34.4,M,,*5B
lng=-77.439231, lat=43.139183, altitude=159.80, speed=23.79, satellites=6, angle=306.9200, fixquality=1
$GPRMC,143959.750,A,4308.3533,N,07726.3577,W,23.57,309.25,130924,,,A*45
$GPGGA,144000.000,4308.3544,N,07726.3594,W,1,06,1.85,159.7,M,-34.4,M,,*57
lng=-77.439300, lat=43.139225, altitude=159.70, speed=23.57, satellites=6, angle=309.2500, fixquality=1
$GPRMC,144000.250,A,4308.3556,N,07726.3610,W,23.59,312.05,130924,,,A*45
$GPGGA,144000.500,4308.3569,N,07726.3626,W,1,06,1.85,159.6,M,-34.4,M,,*56
lng=-77.439346, lat=43.139259, altitude=159.70, speed=23.59, satellites=6, angle=312.0500, fixquality=1
$GPRMC,144000.750,A,4308.3582,N,07726.3641,W,23.77,317.35,130924,,,A*47
$GPGGA,144001.000,4308.3595,N,07726.3656,W,1,06,1.85,159.6,M,-34.4,M,,*56
lng=-77.439407, lat=43.139305, altitude=159.60, speed=23.77, satellites=6, angle=317.3500, fixquality=1
$GPRMC,144001.250,A,4308.3608,N,07726.3670,W,23.92,320.81,130924,,,A*40
$GPGGA,144001.500,4308.3622,N,07726.3684,W,1,06,1.85,159.6,M,-34.4,M,,*53
lng=-77.439453, lat=43.139347, altitude=159.60, speed=23.92, satellites=6, angle=320.8100, fixquality=1
$GPRMC,144001.750,A,4308.3636,N,07726.3696,W,23.65,325.04,130924,,,A*40
$GPGGA,144002.000,4308.3650,N,07726.3707,W,1,06,1.85,159.6,M,-34.4,M,,*5A
lng=-77.439491, lat=43.139396, altitude=159.60, speed=23.65, satellites=6, angle=325.0400, fixquality=1
$GPRMC,144002.250,A,4308.3664,N,07726.3717,W,23.13,330.34,130924,,,A*4F
$GPGGA,144002.500,4308.3678,N,07726.3726,W,1,06,1.85,159.6,M,-34.4,M,,*56
lng=-77.439529, lat=43.139438, altitude=159.60, speed=23.13, satellites=6, angle=330.3400, fixquality=1
$GPRMC,144002.750,A,4308.3692,N,07726.3734,W,22.53,335.48,130924,,,A*49
$GPGGA,144003.000,4308.3707,N,07726.3742,W,1,06,1.85,159.6,M,-34.4,M,,*59
lng=-77.439559, lat=43.139484, altitude=159.60, speed=22.53, satellites=6, angle=335.4800, fixquality=1
$GPRMC,144003.250,A,4308.3722,N,07726.3750,W,22.61,338.56,130924,,,A*46
$GPGGA,144003.500,4308.3736,N,07726.3757,W,1,06,1.85,159.6,M,-34.4,M,,*5A
lng=-77.439582, lat=43.139533, altitude=159.60, speed=22.61, satellites=6, angle=338.5600, fixquality=1
$GPRMC,144003.750,A,4308.3751,N,07726.3763,W,22.02,341.76,130924,,,A*4E
$GPGGA,144004.000,4308.3765,N,07726.3768,W,1,06,1.85,159.7,M,-34.4,M,,*53
lng=-77.439605, lat=43.139583, altitude=159.60, speed=22.02, satellites=6, angle=341.7600, fixquality=1
$GPRMC,144004.250,A,4308.3779,N,07726.3773,W,21.39,344.57,130924,,,A*4A
$GPGGA,144004.500,4308.3793,N,07726.3776,W,1,06,1.85,159.9,M,-34.4,M,,*5E
lng=-77.439620, lat=43.139633, altitude=159.70, speed=21.39, satellites=6, angle=344.5700, fixquality=1
$GPRMC,144004.750,A,4308.3807,N,07726.3780,W,20.70,348.42,130924,,,A*41
$GPGGA,144005.000,4308.3821,N,07726.3783,W,1,06,1.85,159.9,M,-34.4,M,,*56
lng=-77.439628, lat=43.139682, altitude=159.90, speed=20.70, satellites=6, angle=348.4200, fixquality=1
$GPRMC,144005.250,A,4308.3836,N,07726.3784,W,20.59,352.91,130924,,,A*4D
$GPGGA,144005.500,4308.3851,N,07726.3785,W,1,06,1.85,160.1,M,-34.4,M,,*50
lng=-77.439643, lat=43.139728, altitude=159.90, speed=20.59, satellites=6, angle=352.9100, fixquality=1
$GPRMC,144005.750,A,4308.3866,N,07726.3786,W,20.99,356.81,130924,,,A*46
$GPGGA,144006.000,4308.3881,N,07726.3786,W,1,06,1.85,160.2,M,-34.4,M,,*5B
lng=-77.439643, lat=43.139778, altitude=160.10, speed=20.99, satellites=6, angle=356.8100, fixquality=1
$GPRMC,144006.250,A,4308.3895,N,07726.3785,W,21.26,0.34,130924,,,A*44
$GPGGA,144006.500,4308.3910,N,07726.3784,W,1,06,1.85,160.4,M,-34.4,M,,*53
lng=-77.439643, lat=43.139827, altitude=160.20, speed=21.26, satellites=6, angle=0.3400, fixquality=1
$GPRMC,144006.750,A,4308.3924,N,07726.3781,W,21.32,4.13,130924,,,A*4A
$GPGGA,144007.000,4308.3939,N,07726.3779,W,1,06,1.85,160.6,M,-34.4,M,,*5C
lng=-77.439628, lat=43.139877, altitude=160.40, speed=21.32, satellites=6, angle=4.1300, fixquality=1
$GPRMC,144007.250,A,4308.3955,N,07726.3776,W,21.81,6.40,130924,,,A*4C
$GPGGA,144007.500,4308.3970,N,07726.3773,W,1,06,1.85,160.7,M,-34.4,M,,*5F
lng=-77.439620, lat=43.139926, altitude=160.60, speed=21.81, satellites=6, angle=6.4000, fixquality=1
$GPRMC,144007.750,A,4308.3987,N,07726.3770,W,22.70,8.63,130924,,,A*42
$GPGGA,144008.000,4308.4003,N,07726.3766,W,1,06,1.85,160.9,M,-34.4,M,,*55
lng=-77.439613, lat=43.139980, altitude=160.70, speed=22.70, satellites=6, angle=8.6300, fixquality=1
$GPRMC,144008.250,A,4308.4019,N,07726.3762,W,22.96,9.42,130924,,,A*48
$GPGGA,144008.500,4308.4036,N,07726.3757,W,1,06,1.85,161.1,M,-34.4,M,,*5D
lng=-77.439598, lat=43.140029, altitude=160.90, speed=22.96, satellites=6, angle=9.4200, fixquality=1
$GPRMC,144008.750,A,4308.4054,N,07726.3752,W,23.78,11.07,130924,,,A*7E
$GPGGA,144009.000,4308.4071,N,07726.3747,W,1,06,1.85,161.3,M,-34.4,M,,*59
lng=-77.439582, lat=43.140087, altitude=161.10, speed=23.78, satellites=6, angle=11.0700, fixquality=1
$GPRMC,144009.250,A,4308.4089,N,07726.3743,W,24.39,10.56,130924,,,A*7D
$GPGGA,144009.500,4308.4107,N,07726.3739,W,1,06,1.85,161.7,M,-34.4,M,,*51
lng=-77.439575, lat=43.140144, altitude=161.30, speed=24.39, satellites=6, angle=10.5600, fixquality=1
$GPRMC,144009.750,A,4308.4124,N,07726.3735,W,24.47,9.92,130924,,,A*46
$GPGGA,144010.000,4308.4142,N,07726.3731,W,1,06,1.85,162.0,M,-34.4,M,,*51
lng=-77.439559, lat=43.140209, altitude=161.70, speed=24.47, satellites=6, angle=9.9200, fixquality=1
$GPRMC,144010.250,A,4308.4159,N,07726.3727,W,24.56,9.82,130924,,,A*43
$GPGGA,144010.500,4308.4176,N,07726.3722,W,1,06,1.85,162.1,M,-34.4,M,,*50
lng=-77.439544, lat=43.140266, altitude=162.00, speed=24.56, satellites=6, angle=9.8200, fixquality=1
$GPRMC,144010.750,A,4308.4193,N,07726.3718,W,24.61,9.97,130924,,,A*4C
$GPGGA,144011.000,4308.4210,N,07726.3713,W,1,06,1.85,162.2,M,-34.4,M,,*56
lng=-77.439529, lat=43.140323, altitude=162.10, speed=24.61, satellites=6, angle=9.9700, fixquality=1
$GPRMC,144011.250,A,4308.4227,N,07726.3708,W,24.54,10.31,130924,,,A*77
$GPGGA,144011.500,4308.4244,N,07726.3704,W,1,06,1.85,162.3,M,-34.4,M,,*55
lng=-77.439506, lat=43.140380, altitude=162.20, speed=24.54, satellites=6, angle=10.3100, fixquality=1
$GPRMC,144011.750,A,4308.4260,N,07726.3699,W,24.32,10.20,130924,,,A*78
$GPGGA,144012.000,4308.4277,N,07726.3695,W,1,06,1.85,162.4,M,-34.4,M,,*5D
lng=-77.439498, lat=43.140430, altitude=162.30, speed=24.32, satellites=6, angle=10.2000, fixquality=1
$GPRMC,144012.250,A,4308.4294,N,07726.3691,W,24.04,9.53,130924,,,A*44
$GPGGA,144012.500,4308.4311,N,07726.3687,W,1,06,1.85,162.6,M,-34.4,M,,*58
lng=-77.439483, lat=43.140487, altitude=162.40, speed=24.04, satellites=6, angle=9.5300, fixquality=1
$GPRMC,144012.750,A,4308.4327,N,07726.3683,W,23.88,9.07,130924,,,A*49
$GPGGA,144013.000,4308.4344,N,07726.3680,W,1,06,1.85,162.7,M,-34.4,M,,*5A
lng=-77.439468, lat=43.140544, altitude=162.60, speed=23.88, satellites=6, angle=9.0700, fixquality=1
$GPRMC,144013.250,A,4308.4361,N,07726.3676,W,23.84,8.76,130924,,,A*4E
$GPGGA,144013.500,4308.4377,N,07726.3673,W,1,06,1.85,162.8,M,-34.4,M,,*5C
lng=-77.439460, lat=43.140602, altitude=162.70, speed=23.84, satellites=6, angle=8.7600, fixquality=1
$GPRMC,144013.750,A,4308.4393,N,07726.3670,W,23.48,8.27,130924,,,A*44
$GPGGA,144014.000,4308.4410,N,07726.3667,W,1,06,1.85,162.9,M,-34.4,M,,*5C
lng=-77.439453, lat=43.140659, altitude=162.80, speed=23.48, satellites=6, angle=8.2700, fixquality=1
$GPRMC,144014.250,A,4308.4426,N,07726.3664,W,23.26,7.65,130924,,,A*4B
$GPGGA,144014.500,4308.4442,N,07726.3661,W,1,06,1.85,163.2,M,-34.4,M,,*52
lng=-77.439437, lat=43.140705, altitude=162.90, speed=23.26, satellites=6, angle=7.6500, fixquality=1
$GPRMC,144014.750,A,4308.4457,N,07726.3659,W,22.53,6.11,130924,,,A*47
$GPGGA,144015.000,4308.4472,N,07726.3656,W,1,06,1.85,163.4,M,-34.4,M,,*57
lng=-77.439430, lat=43.140762, altitude=163.20, speed=22.53, satellites=6, angle=6.1100, fixquality=1
$GPRMC,144015.250,A,4308.4486,N,07726.3653,W,21.68,4.90,130924,,,A*45
$GPGGA,144015.500,4308.4499,N,07726.3652,W,1,06,1.85,163.7,M,-34.4,M,,*50
lng=-77.439422, lat=43.140811, altitude=163.40, speed=21.68, satellites=6, angle=4.9000, fixquality=1
$GPRMC,144015.750,A,4308.4511,N,07726.3649,W,20.16,2.30,130924,,,A*40
$GPGGA,144016.000,4308.4523,N,07726.3648,W,1,06,1.85,163.9,M,-34.4,M,,*53
lng=-77.439414, lat=43.140853, altitude=163.70, speed=20.16, satellites=6, angle=2.3000, fixquality=1
$GPRMC,144016.250,A,4308.4534,N,07726.3646,W,18.90,0.58,130924,,,A*47
$GPGGA,144016.500,4308.4545,N,07726.3645,W,1,06,1.85,164.2,M,-34.4,M,,*57
lng=-77.439414, lat=43.140892, altitude=163.90, speed=18.90, satellites=6, angle=0.5800, fixquality=1
$GPRMC,144016.750,A,4308.4556,N,07726.3645,W,17.56,357.47,130924,,,A*4F
$GPGGA,144017.000,4308.4565,N,07726.3645,W,1,06,1.85,164.5,M,-34.4,M,,*56
lng=-77.439407, lat=43.140926, altitude=164.20, speed=17.56, satellites=6, angle=357.4700, fixquality=1
$GPRMC,144017.250,A,4308.4574,N,07726.3645,W,16.02,353.49,130924,,,A*41
$GPGGA,144017.500,4308.4581,N,07726.3645,W,1,06,1.85,164.7,M,-34.4,M,,*5B
lng=-77.439407, lat=43.140956, altitude=164.50, speed=16.02, satellites=6, angle=353.4900, fixquality=1
$GPRMC,144017.750,A,4308.4585,N,07726.3644,W,14.01,349.50,130924,,,A*49
$GPGGA,144018.000,4308.4588,N,07726.3641,W,1,06,1.85,165.0,M,-34.4,M,,*5A
lng=-77.439407, lat=43.140975, altitude=164.70, speed=14.01, satellites=6, angle=349.5000, fixquality=1
$GPRMC,144018.250,A,4308.4590,N,07726.3638,W,11.86,347.77,130924,,,A*4D
$GPGGA,144018.500,4308.4587,N,07726.3631,W,1,06,1.86,165.4,M,-34.4,M,,*50
lng=-77.439399, lat=43.140983, altitude=165.00, speed=11.86, satellites=6, angle=347.7700, fixquality=1
$GPRMC,144018.750,A,4308.4580,N,07726.3618,W,8.74,349.06,130924,,,A*76
$GPGGA,144019.000,4308.4573,N,07726.3608,W,1,06,1.85,166.0,M,-34.4,M,,*51
lng=-77.439361, lat=43.140968, altitude=165.40, speed=8.74, satellites=6, angle=349.0600, fixquality=1
$GPRMC,144019.250,A,4308.4570,N,07726.3601,W,5.81,352.36,130924,,,A*7B
$GPGGA,144019.500,4308.4570,N,07726.3596,W,1,06,1.86,166.9,M,-34.4,M,,*59
lng=-77.439331, lat=43.140949, altitude=166.00, speed=5.81, satellites=6, angle=352.3600, fixquality=1
$GPRMC,144019.750,A,4308.4573,N,07726.3596,W,5.24,354.26,130924,,,A*78
$GPGGA,144020.000,4308.4576,N,07726.3596,W,1,06,1.85,167.2,M,-34.4,M,,*59
lng=-77.439323, lat=43.140956, altitude=166.90, speed=5.24, satellites=6, angle=354.2600, fixquality=1
$GPRMC,144020.250,A,4308.4579,N,07726.3596,W,5.50,346.26,130924,,,A*7D
$GPGGA,144020.500,4308.4583,N,07726.3598,W,1,06,1.85,167.7,M,-34.4,M,,*5D
lng=-77.439323, lat=43.140968, altitude=167.20, speed=5.50, satellites=6, angle=346.2600, fixquality=1
$GPRMC,144020.750,A,4308.4587,N,07726.3601,W,6.47,333.39,130924,,,A*7D
$GPGGA,144021.000,4308.4591,N,07726.3604,W,1,06,1.86,167.9,M,-34.4,M,,*51
lng=-77.439331, lat=43.140975, altitude=167.70, speed=6.47, satellites=6, angle=333.3900, fixquality=1
$GPRMC,144021.250,A,4308.4595,N,07726.3607,W,7.06,326.95,130924,,,A*7A
$GPGGA,144021.500,4308.4600,N,07726.3613,W,1,06,1.63,168.0,M,-34.4,M,,*54
lng=-77.439346, lat=43.140991, altitude=167.90, speed=7.06, satellites=6, angle=326.9500, fixquality=1
$GPRMC,144021.750,A,4308.4606,N,07726.3619,W,9.14,319.49,130924,,,A*79
$GPGGA,144022.000,4308.4611,N,07726.3625,W,1,06,1.63,168.1,M,-34.4,M,,*56
lng=-77.439361, lat=43.141006, altitude=168.00, speed=9.14, satellites=6, angle=319.4900, fixquality=1
$GPRMC,144022.250,A,4308.4615,N,07726.3633,W,10.27,313.63,130924,,,A*4F
$GPGGA,144022.500,4308.4620,N,07726.3642,W,1,06,1.63,168.3,M,-34.4,M,,*52
lng=-77.439384, lat=43.141025, altitude=168.10, speed=10.27, satellites=6, angle=313.6300, fixquality=1
$GPRMC,144022.750,A,4308.4623,N,07726.3654,W,12.28,301.20,130924,,,A*47
$GPGGA,144023.000,4308.4627,N,07726.3665,W,1,06,1.85,168.3,M,-34.4,M,,*5C
lng=-77.439422, lat=43.141040, altitude=168.30, speed=12.28, satellites=6, angle=301.2000, fixquality=1
$GPRMC,144023.250,A,4308.4630,N,07726.3677,W,13.11,293.88,130924,,,A*43
$GPGGA,144023.500,4308.4633,N,07726.3689,W,1,06,1.63,168.3,M,-34.4,M,,*56
lng=-77.439460, lat=43.141048, altitude=168.30, speed=13.11, satellites=6, angle=293.8800, fixquality=1
$GPRMC,144023.750,A,4308.4636,N,07726.3702,W,13.60,290.45,130924,,,A*47
$GPGGA,144024.000,4308.4638,N,07726.3716,W,1,06,1.86,168.3,M,-34.4,M,,*53
lng=-77.439498, lat=43.141056, altitude=168.30, speed=13.60, satellites=6, angle=290.4500, fixquality=1
$GPRMC,144024.250,A,4308.4639,N,07726.3730,W,14.32,283.75,130924,,,A*4A
$GPGGA,144024.500,4308.4641,N,07726.3744,W,1,06,1.63,168.2,M,-34.4,M,,*55
lng=-77.439552, lat=43.141063, altitude=168.30, speed=14.32, satellites=6, angle=283.7500, fixquality=1
$GPRMC,144024.750,A,4308.4642,N,07726.3760,W,15.25,280.91,130924,,,A*48
$GPGGA,144025.000,4308.4644,N,07726.3776,W,1,06,1.86,168.2,M,-34.4,M,,*5E
lng=-77.439598, lat=43.141071, altitude=168.20, speed=15.25, satellites=6, angle=280.9100, fixquality=1
$GPRMC,144025.250,A,4308.4645,N,07726.3792,W,16.17,278.63,130924,,,A*4E
$GPGGA,144025.500,4308.4647,N,07726.3808,W,1,06,1.86,168.2,M,-34.4,M,,*5E
lng=-77.439659, lat=43.141071, altitude=168.20, speed=16.17, satellites=6, angle=278.6300, fixquality=1
$GPRMC,144025.750,A,4308.4648,N,07726.3825,W,16.81,277.85,130924,,,A*4D
$GPGGA,144026.000,4308.4650,N,07726.3841,W,1,06,1.86,168.1,M,-34.4,M,,*50
lng=-77.439704, lat=43.141078, altitude=168.20, speed=16.81, satellites=6, angle=277.8500, fixquality=1
$GPRMC,144026.250,A,4308.4652,N,07726.3858,W,16.89,277.80,130924,,,A*47
$GPGGA,144026.500,4308.4653,N,07726.3874,W,1,06,1.86,168.1,M,-34.4,M,,*50
lng=-77.439765, lat=43.141090, altitude=168.10, speed=16.89, satellites=6, angle=277.8000, fixquality=1
$GPRMC,144026.750,A,4308.4655,N,07726.3891,W,17.11,276.59,130924,,,A*45
$GPGGA,144027.000,4308.4656,N,07726.3908,W,1,06,1.86,168.1,M,-34.4,M,,*5B
lng=-77.439819, lat=43.141090, altitude=168.10, speed=17.11, satellites=6, angle=276.5900, fixquality=1
$GPRMC,144027.250,A,4308.4658,N,07726.3924,W,17.18,276.56,130924,,,A*45
$GPGGA,144027.500,4308.4659,N,07726.3941,W,1,06,1.86,168.2,M,-34.4,M,,*5F
lng=-77.439872, lat=43.141098, altitude=168.10, speed=17.18, satellites=6, angle=276.5600, fixquality=1
$GPRMC,144027.750,A,4308.4661,N,07726.3957,W,17.27,277.05,130924,,,A*45
$GPGGA,144028.000,4308.4662,N,07726.3974,W,1,06,1.86,168.2,M,-34.4,M,,*5B
lng=-77.439926, lat=43.141105, altitude=168.20, speed=17.27, satellites=6, angle=277.0500, fixquality=1
$GPRMC,144028.250,A,4308.4664,N,07726.3991,W,17.30,277.59,130924,,,A*4F
$GPGGA,144028.500,4308.4666,N,07726.4007,W,1,06,1.86,168.3,M,-34.4,M,,*51
lng=-77.439979, lat=43.141105, altitude=168.20, speed=17.30, satellites=6, angle=277.5900, fixquality=1
$GPRMC,144028.750,A,4308.4667,N,07726.4023,W,17.13,277.24,130924,,,A*45
$GPGGA,144029.000,4308.4669,N,07726.4040,W,1,06,1.86,168.3,M,-34.4,M,,*59
lng=-77.440040, lat=43.141113, altitude=168.30, speed=17.13, satellites=6, angle=277.2400, fixquality=1
$GPRMC,144029.250,A,4308.4671,N,07726.4056,W,17.12,277.54,130924,,,A*42
$GPGGA,144029.500,4308.4672,N,07726.4072,W,1,06,1.86,168.4,M,-34.4,M,,*50
lng=-77.440093, lat=43.141120, altitude=168.30, speed=17.12, satellites=6, angle=277.5400, fixquality=1
$GPRMC,144029.750,A,4308.4674,N,07726.4088,W,16.76,276.74,130924,,,A*41
$GPGGA,144030.000,4308.4676,N,07726.4104,W,1,06,1.86,168.4,M,-34.4,M,,*59
lng=-77.440147, lat=43.141120, altitude=168.40, speed=16.76, satellites=6, angle=276.7400, fixquality=1
$GPRMC,144030.250,A,4308.4677,N,07726.4120,W,16.69,277.25,130924,,,A*47
$GPGGA,144030.500,4308.4678,N,07726.4135,W,1,06,1.86,168.4,M,-34.4,M,,*50
lng=-77.440200, lat=43.141128, altitude=168.40, speed=16.69, satellites=6, angle=277.2500, fixquality=1
$GPRMC,144030.750,A,4308.4680,N,07726.4151,W,16.07,276.15,130924,,,A*46
$GPGGA,144031.000,4308.4681,N,07726.4166,W,1,06,1.86,168.4,M,-34.4,M,,*54
lng=-77.440254, lat=43.141128, altitude=168.40, speed=16.07, satellites=6, angle=276.1500, fixquality=1
$GPRMC,144031.250,A,4308.4682,N,07726.4181,W,16.01,276.61,130924,,,A*48
$GPGGA,144031.500,4308.4683,N,07726.4197,W,1,06,1.86,168.4,M,-34.4,M,,*5D
lng=-77.440299, lat=43.141136, altitude=168.40, speed=16.01, satellites=6, angle=276.6100, fixquality=1
$GPRMC,144031.750,A,4308.4685,N,07726.4212,W,15.76,277.48,130924,,,A*4A
$GPGGA,144032.000,4308.4686,N,07726.4227,W,1,06,1.86,168.3,M,-34.4,M,,*51
lng=-77.440353, lat=43.141136, altitude=168.40, speed=15.76, satellites=6, angle=277.4800, fixquality=1
$GPRMC,144032.250,A,4308.4687,N,07726.4242,W,15.42,277.28,130924,,,A*4A
$GPGGA,144032.500,4308.4688,N,07726.4257,W,1,06,1.86,168.2,M,-34.4,M,,*5C
lng=-77.440406, lat=43.141147, altitude=168.30, speed=15.42, satellites=6, angle=277.2800, fixquality=1
$GPRMC,144032.750,A,4308.4689,N,07726.4272,W,15.54,278.83,130924,,,A*4B
$GPGGA,144033.000,4308.4690,N,07726.4287,W,1,06,1.86,168.0,M,-34.4,M,,*5E
lng=-77.440452, lat=43.141147, altitude=168.20, speed=15.54, satellites=6, angle=278.8300, fixquality=1
$GPRMC,144033.250,A,4308.4692,N,07726.4303,W,16.38,278.50,130924,,,A*45
$GPGGA,144033.500,4308.4693,N,07726.4318,W,1,06,1.86,167.9,M,-34.4,M,,*59
lng=-77.440505, lat=43.141155, altitude=168.00, speed=16.38, satellites=6, angle=278.5000, fixquality=1
$GPRMC,144033.750,A,4308.4695,N,07726.4335,W,17.27,278.27,130924,,,A*4D
$GPGGA,144034.000,4308.4696,N,07726.4352,W,1,06,1.86,167.8,M,-34.4,M,,*51
lng=-77.440559, lat=43.141162, altitude=167.90, speed=17.27, satellites=6, angle=278.2700, fixquality=1
$GPRMC,144034.250,A,4308.4698,N,07726.4369,W,17.96,279.12,130924,,,A*46
$GPGGA,144034.500,4308.4700,N,07726.4386,W,1,06,1.86,167.6,M,-34.4,M,,*5D
lng=-77.440620, lat=43.141162, altitude=167.80, speed=17.96, satellites=6, angle=279.1200, fixquality=1
$GPRMC,144034.750,A,4308.4702,N,07726.4404,W,18.86,277.76,130924,,,A*4F
$GPGGA,144035.000,4308.4704,N,07726.4422,W,1,06,1.86,167.0,M,-34.4,M,,*52
lng=-77.440673, lat=43.141170, altitude=167.60, speed=18.86, satellites=6, angle=277.7600, fixquality=1
$GPRMC,144035.250,A,4308.4705,N,07726.4441,W,20.03,277.55,130924,,,A*4A
$GPGGA,144035.500,4308.4707,N,07726.4460,W,1,06,1.86,167.2,M,-34.4,M,,*50
lng=-77.440742, lat=43.141178, altitude=167.00, speed=20.03, satellites=6, angle=277.5500, fixquality=1
$GPRMC,144035.750,A,4308.4709,N,07726.4480,W,20.68,276.64,130924,,,A*40
$GPGGA,144036.000,4308.4710,N,07726.4500,W,1,06,1.86,167.2,M,-34.4,M,,*57
lng=-77.440803, lat=43.141178, altitude=167.20, speed=20.68, satellites=6, angle=276.6400, fixquality=1
$GPRMC,144036.250,A,4308.4712,N,07726.4520,W,20.80,277.65,130924,,,A*41
$GPGGA,144036.500,4308.4713,N,07726.4541,W,1,06,1.86,167.0,M,-34.4,M,,*56
lng=-77.440872, lat=43.141185, altitude=167.20, speed=20.80, satellites=6, angle=277.6500, fixquality=1
$GPRMC,144036.750,A,4308.4715,N,07726.4562,W,21.61,277.76,130924,,,A*49
$GPGGA,144037.000,4308.4717,N,07726.4583,W,1,06,1.86,166.7,M,-34.4,M,,*5E
lng=-77.440933, lat=43.141193, altitude=167.00, speed=21.61, satellites=6, angle=277.7600, fixquality=1
$GPRMC,144037.250,A,4308.4719,N,07726.4605,W,23.06,278.01,130924,,,A*4F
$GPGGA,144037.500,4308.4721,N,07726.4626,W,1,06,1.86,166.6,M,-34.4,M,,*53
lng=-77.441009, lat=43.141193, altitude=166.70, speed=23.06, satellites=6, angle=278.0100, fixquality=1
$GPRMC,144037.750,A,4308.4724,N,07726.4649,W,23.91,277.54,130924,,,A*4D
$GPGGA,144038.000,4308.4726,N,07726.4672,W,1,06,1.87,166.4,M,-34.4,M,,*5C
lng=-77.441078, lat=43.141201, altitude=166.60, speed=23.91, satellites=6, angle=277.5400, fixquality=1
$GPRMC,144038.250,A,4308.4728,N,07726.4695,W,24.95,277.16,130924,,,A*4F
$GPGGA,144038.500,4308.4730,N,07726.4719,W,1,06,1.86,166.3,M,-34.4,M,,*54
lng=-77.441162, lat=43.141212, altitude=166.40, speed=24.95, satellites=6, angle=277.1600, fixquality=1
$GPRMC,144038.750,A,4308.4733,N,07726.4743,W,25.80,275.92,130924,,,A*41
$GPGGA,144039.000,4308.4735,N,07726.4766,W,1,06,1.63,166.3,M,-34.4,M,,*56
lng=-77.441238, lat=43.141220, altitude=166.30, speed=25.80, satellites=6, angle=275.9200, fixquality=1
$GPRMC,144039.250,A,4308.4738,N,07726.4791,W,25.69,277.37,130924,,,A*4B
$GPGGA,144039.500,4308.4740,N,07726.4815,W,1,06,1.63,166.4,M,-34.4,M,,*5D
lng=-77.441314, lat=43.141227, altitude=166.30, speed=25.69, satellites=6, angle=277.3700, fixquality=1
$GPRMC,144039.750,A,4308.4742,N,07726.4840,W,25.84,278.04,130924,,,A*4C
$GPGGA,144040.000,4308.4745,N,07726.4864,W,1,06,1.86,166.5,M,-34.4,M,,*5F
lng=-77.441398, lat=43.141235, altitude=166.40, speed=25.84, satellites=6, angle=278.0400, fixquality=1
$GPRMC,144040.250,A,4308.4748,N,07726.4889,W,26.11,278.16,130924,,,A*44
$GPGGA,144040.500,4308.4750,N,07726.4914,W,1,06,1.87,166.5,M,-34.4,M,,*59
lng=-77.441482, lat=43.141242, altitude=166.50, speed=26.11, satellites=6, angle=278.1600, fixquality=1
$GPRMC,144040.750,A,4308.4752,N,07726.4939,W,26.31,276.73,130924,,,A*4F
$GPGGA,144041.000,4308.4755,N,07726.4964,W,1,06,1.86,166.5,M,-34.4,M,,*5E
lng=-77.441566, lat=43.141250, altitude=166.50, speed=26.31, satellites=6, angle=276.7300, fixquality=1
$GPRMC,144041.250,A,4308.4757,N,07726.4989,W,26.05,276.08,130924,,,A*4E
$GPGGA,144041.500,4308.4759,N,07726.5013,W,1,06,1.86,166.4,M,-34.4,M,,*5E
lng=-77.441650, lat=43.141258, altitude=166.50, speed=26.05, satellites=6, angle=276.0800, fixquality=1
$GPRMC,144041.750,A,4308.4761,N,07726.5038,W,25.66,276.25,130924,,,A*45
$GPGGA,144042.000,4308.4764,N,07726.5062,W,1,06,1.86,166.4,M,-34.4,M,,*50
lng=-77.441734, lat=43.141269, altitude=166.40, speed=25.66, satellites=6, angle=276.2500, fixquality=1
$GPRMC,144042.250,A,4308.4766,N,07726.5087,W,25.64,275.91,130924,,,A*4E
$GPGGA,144042.500,4308.4768,N,07726.5111,W,1,06,1.87,166.3,M,-34.4,M,,*5A
lng=-77.441810, lat=43.141277, altitude=166.40, speed=25.64, satellites=6, angle=275.9100, fixquality=1
$GPRMC,144042.750,A,4308.4770,N,07726.5136,W,25.75,275.91,130924,,,A*47
$GPGGA,144043.000,4308.4771,N,07726.5160,W,1,06,1.86,166.1,M,-34.4,M,,*53
lng=-77.441894, lat=43.141284, altitude=166.30, speed=25.75, satellites=6, angle=275.9100, fixquality=1
$GPRMC,144043.250,A,4308.4773,N,07726.5185,W,25.72,275.17,130924,,,A*41
$GPGGA,144043.500,4308.4774,N,07726.5210,W,1,06,1.87,166.1,M,-34.4,M,,*56
lng=-77.441978, lat=43.141292, altitude=166.10, speed=25.72, satellites=6, angle=275.1700, fixquality=1
$GPRMC,144043.750,A,4308.4776,N,07726.5234,W,25.70,274.56,130924,,,A*4E
$GPGGA,144044.000,4308.4778,N,07726.5259,W,1,06,1.87,166.0,M,-34.4,M,,*54
lng=-77.442054, lat=43.141292, altitude=166.10, speed=25.70, satellites=6, angle=274.5600, fixquality=1
$GPRMC,144044.250,A,4308.4779,N,07726.5284,W,25.98,274.16,130924,,,A*4A
$GPGGA,144044.500,4308.4780,N,07726.5309,W,1,06,1.87,166.0,M,-34.4,M,,*52
lng=-77.442138, lat=43.141300, altitude=166.00, speed=25.98, satellites=6, angle=274.1600, fixquality=1
$GPRMC,144044.750,A,4308.4782,N,07726.5335,W,26.04,274.12,130924,,,A*42
$GPGGA,144045.000,4308.4783,N,07726.5360,W,1,06,1.87,165.9,M,-34.4,M,,*50
lng=-77.442230, lat=43.141300, altitude=166.00, speed=26.04, satellites=6, angle=274.1200, fixquality=1
$GPRMC,144045.250,A,4308.4784,N,07726.5386,W,26.70,274.11,130924,,,A*48
$GPGGA,144045.500,4308.4786,N,07726.5412,W,1,06,1.87,165.9,M,-34.4,M,,*52
lng=-77.442306, lat=43.141307, altitude=165.90, speed=26.70, satellites=6, angle=274.1100, fixquality=1
$GPRMC,144045.750,A,4308.4787,N,07726.5437,W,26.84,274.26,130924,,,A*4C
$GPGGA,144046.000,4308.4789,N,07726.5463,W,1,06,1.87,165.9,M,-34.4,M,,*5D
lng=-77.442398, lat=43.141307, altitude=165.90, speed=26.84, satellites=6, angle=274.2600, fixquality=1
$GPRMC,144046.250,A,4308.4790,N,07726.5489,W,27.05,274.39,130924,,,A*4F
$GPGGA,144046.500,4308.4792,N,07726.5515,W,1,06,1.87,165.9,M,-34.4,M,,*52
lng=-77.442481, lat=43.141315, altitude=165.90, speed=27.05, satellites=6, angle=274.3900, fixquality=1
$GPRMC,144046.750,A,4308.4793,N,07726.5541,W,27.02,273.56,130924,,,A*45
$GPGGA,144047.000,4308.4794,N,07726.5567,W,1,06,1.87,165.8,M,-34.4,M,,*54
lng=-77.442573, lat=43.141323, altitude=165.90, speed=27.02, satellites=6, angle=273.5600, fixquality=1
$GPRMC,144047.250,A,4308.4794,N,07726.5593,W,27.12,272.64,130924,,,A*48
$GPGGA,144047.500,4308.4795,N,07726.5619,W,1,06,1.87,165.9,M,-34.4,M,,*5B
lng=-77.442649, lat=43.141323, altitude=165.80, speed=27.12, satellites=6, angle=272.6400, fixquality=1
$GPRMC,144047.750,A,4308.4796,N,07726.5645,W,27.19,272.27,130924,,,A*4B
$GPGGA,144048.000,4308.4796,N,07726.5671,W,1,06,1.87,165.9,M,-34.4,M,,*5C
lng=-77.442741, lat=43.141323, altitude=165.90, speed=27.19, satellites=6, angle=272.2700, fixquality=1
$GPRMC,144048.250,A,4308.4797,N,07726.5697,W,27.28,272.18,130924,,,A*41
$GPGGA,144048.500,4308.4797,N,07726.5724,W,1,06,1.87,166.0,M,-34.4,M,,*53
lng=-77.442832, lat=43.141323, altitude=165.90, speed=27.28, satellites=6, angle=272.1800, fixquality=1
$GPRMC,144048.750,A,4308.4798,N,07726.5750,W,27.75,272.69,130924,,,A*4F
$GPGGA,144049.000,4308.4799,N,07726.5777,W,1,06,1.87,166.1,M,-34.4,M,,*5E
lng=-77.442916, lat=43.141334, altitude=166.00, speed=27.75, satellites=6, angle=272.6900, fixquality=1
$GPRMC,144049.250,A,4308.4801,N,07726.5804,W,28.19,273.34,130924,,,A*46
$GPGGA,144049.500,4308.4802,N,07726.5831,W,1,06,1.87,166.2,M,-34.4,M,,*58
lng=-77.443008, lat=43.141334, altitude=166.10, speed=28.19, satellites=6, angle=273.3400, fixquality=1
$GPRMC,144049.750,A,4308.4803,N,07726.5859,W,28.59,273.83,130924,,,A*41
$GPGGA,144050.000,4308.4804,N,07726.5886,W,1,06,1.87,166.2,M,-34.4,M,,*5F
lng=-77.443099, lat=43.141342, altitude=166.20, speed=28.59, satellites=6, angle=273.8300, fixquality=1
$GPRMC,144050.250,A,4308.4806,N,07726.5914,W,28.67,274.12,130924,,,A*43
$GPGGA,144050.500,4308.4808,N,07726.5941,W,1,06,1.87,166.3,M,-34.4,M,,*5D
lng=-77.443191, lat=43.141342, altitude=166.20, speed=28.67, satellites=6, angle=274.1200, fixquality=1
$GPRMC,144050.750,A,4308.4809,N,07726.5969,W,29.04,274.26,130924,,,A*40
$GPGGA,144051.000,4308.4810,N,07726.5997,W,1,06,1.87,166.4,M,-34.4,M,,*5C
lng=-77.443275, lat=43.141349, altitude=166.30, speed=29.04, satellites=6, angle=274.2600, fixquality=1
$GPRMC,144051.250,A,4308.4812,N,07726.6025,W,29.28,273.78,130924,,,A*4E
$GPGGA,144051.500,4308.4813,N,07726.6053,W,1,06,1.87,166.6,M,-34.4,M,,*5A
lng=-77.443374, lat=43.141349, altitude=166.40, speed=29.28, satellites=6, angle=273.7800, fixquality=1
$GPRMC,144051.750,A,4308.4814,N,07726.6081,W,29.65,272.95,130924,,,A*48
$GPGGA,144052.000,4308.4815,N,07726.6110,W,1,06,1.87,166.8,M,-34.4,M,,*52
lng=-77.443466, lat=43.141357, altitude=166.60, speed=29.65, satellites=6, angle=272.9500, fixquality=1
$GPRMC,144052.250,A,4308.4816,N,07726.6138,W,29.60,272.55,130924,,,A*46
$GPGGA,144052.500,4308.4816,N,07726.6166,W,1,06,1.87,166.9,M,-34.4,M,,*54
lng=-77.443565, lat=43.141357, altitude=166.80, speed=29.60, satellites=6, angle=272.5500, fixquality=1
$GPRMC,144052.750,A,4308.4816,N,07726.6194,W,29.63,271.34,130924,,,A*42
$GPGGA,144053.000,4308.4817,N,07726.6223,W,1,06,1.87,166.9,M,-34.4,M,,*53
lng=-77.443656, lat=43.141357, altitude=166.90, speed=29.63, satellites=6, angle=271.3400, fixquality=1
$GPRMC,144053.250,A,4308.4817,N,07726.6252,W,29.80,271.25,130924,,,A*43
$GPGGA,144053.500,4308.4817,N,07726.6280,W,1,06,1.87,167.0,M,-34.4,M,,*57
lng=-77.443748, lat=43.141365, altitude=166.90, speed=29.80, satellites=6, angle=271.2500, fixquality=1
$GPRMC,144053.750,A,4308.4818,N,07726.6309,W,29.95,271.17,130924,,,A*43
$GPGGA,144054.000,4308.4818,N,07726.6338,W,1,06,1.87,167.1,M,-34.4,M,,*59
lng=-77.443847, lat=43.141365, altitude=167.00, speed=29.95, satellites=6, angle=271.1700, fixquality=1
$GPRMC,144054.250,A,4308.4818,N,07726.6367,W,30.05,270.18,130924,,,A*46
$GPGGA,144054.500,4308.4818,N,07726.6396,W,1,07,1.39,167.2,M,-34.4,M,,*5F
lng=-77.443946, lat=43.141365, altitude=167.10, speed=30.05, satellites=6, angle=270.1800, fixquality=1
$GPRMC,144054.750,A,4308.4818,N,07726.6425,W,30.10,269.38,130924,,,A*4C
$GPGGA,144055.000,4308.4817,N,07726.6454,W,1,07,1.39,167.3,M,-34.4,M,,*5C
lng=-77.444046, lat=43.141365, altitude=167.20, speed=30.10, satellites=7, angle=269.3800, fixquality=1
$GPRMC,144055.250,A,4308.4816,N,07726.6483,W,30.34,268.45,130924,,,A*47
$GPGGA,144055.500,4308.4815,N,07726.6512,W,1,07,1.39,167.4,M,-34.4,M,,*5F
lng=-77.444137, lat=43.141357, altitude=167.30, speed=30.34, satellites=7, angle=268.4500, fixquality=1
$GPRMC,144055.750,A,4308.4814,N,07726.6542,W,30.60,267.54,130924,,,A*42
$GPGGA,144056.000,4308.4813,N,07726.6571,W,1,07,1.39,167.5,M,-34.4,M,,*5B
lng=-77.444236, lat=43.141357, altitude=167.40, speed=30.60, satellites=7, angle=267.5400, fixquality=1
$GPRMC,144056.250,A,4308.4812,N,07726.6601,W,31.06,266.64,130924,,,A*45
$GPGGA,144056.500,4308.4810,N,07726.6631,W,1,07,1.39,167.6,M,-34.4,M,,*59
lng=-77.444335, lat=43.141349, altitude=167.50, speed=31.06, satellites=7, angle=266.6400, fixquality=1
$GPRMC,144056.750,A,4308.4809,N,07726.6660,W,31.42,265.80,130924,,,A*44
$GPGGA,144057.000,4308.4807,N,07726.6690,W,1,07,1.39,167.7,M,-34.4,M,,*51
lng=-77.444435, lat=43.141349, altitude=167.60, speed=31.42, satellites=7, angle=265.8000, fixquality=1
$GPRMC,144057.250,A,4308.4805,N,07726.6720,W,31.49,265.85,130924,,,A*47
$GPGGA,144057.500,4308.4804,N,07726.6750,W,1,07,1.38,167.8,M,-34.4,M,,*54
lng=-77.444534, lat=43.141342, altitude=167.70, speed=31.49, satellites=7, angle=265.8500, fixquality=1
$GPRMC,144057.750,A,4308.4803,N,07726.6781,W,31.92,266.73,130924,,,A*43
$GPGGA,144058.000,4308.4801,N,07726.6811,W,1,07,1.39,167.9,M,-34.4,M,,*51
lng=-77.444633, lat=43.141342, altitude=167.80, speed=31.92, satellites=7, angle=266.7300, fixquality=1
$GPRMC,144058.250,A,4308.4800,N,07726.6841,W,31.99,266.47,130924,,,A*45
$GPGGA,144058.500,4308.4798,N,07726.6871,W,1,07,1.39,168.1,M,-34.4,M,,*5A
lng=-77.444732, lat=43.141334, altitude=167.90, speed=31.99, satellites=7, angle=266.4700, fixquality=1
$GPRMC,144058.750,A,4308.4797,N,07726.6901,W,31.87,266.69,130924,,,A*47
$GPGGA,144059.000,4308.4795,N,07726.6932,W,1,07,1.39,168.3,M,-34.4,M,,*57
lng=-77.444831, lat=43.141323, altitude=168.10, speed=31.87, satellites=7, angle=266.6900, fixquality=1
$GPRMC,144059.250,A,4308.4794,N,07726.6962,W,31.84,266.87,130924,,,A*46
$GPGGA,144059.500,4308.4792,N,07726.6992,W,1,07,1.39,168.5,M,-34.4,M,,*59
lng=-77.444938, lat=43.141323, altitude=168.30, speed=31.84, satellites=7, angle=266.8700, fixquality=1
$GPRMC,144059.750,A,4308.4791,N,07726.7022,W,31.78,267.02,130924,,,A*45
$GPGGA,144100.000,4308.4789,N,07726.7052,W,1,07,1.39,168.8,M,-34.4,M,,*52
lng=-77.445037, lat=43.141315, altitude=168.50, speed=31.78, satellites=7, angle=267.0200, fixquality=1
$GPRMC,144100.250,A,4308.4788,N,07726.7082,W,31.76,266.76,130924,,,A*43
$GPGGA,144100.500,4308.4786,N,07726.7112,W,1,07,1.39,169.1,M,-34.4,M,,*55
lng=-77.445137, lat=43.141315, altitude=168.80, speed=31.76, satellites=7, angle=266.7600, fixquality=1
$GPRMC,144100.750,A,4308.4785,N,07726.7142,W,31.57,266.45,130924,,,A*45
$GPGGA,144101.000,4308.4783,N,07726.7172,W,1,07,1.39,169.4,M,-34.4,M,,*57
lng=-77.445236, lat=43.141307, altitude=169.10, speed=31.57, satellites=7, angle=266.4500, fixquality=1
$GPRMC,144101.250,A,4308.4781,N,07726.7202,W,31.59,266.24,130924,,,A*4B
$GPGGA,144101.500,4308.4779,N,07726.7232,W,1,07,1.39,169.6,M,-34.4,M,,*52
lng=-77.445335, lat=43.141300, altitude=169.40, speed=31.59, satellites=7, angle=266.2400, fixquality=1
$GPRMC,144101.750,A,4308.4777,N,07726.7262,W,31.64,265.58,130924,,,A*47
$GPGGA,144102.000,4308.4774,N,07726.7292,W,1,07,1.39,169.8,M,-34.4,M,,*5D
lng=-77.445434, lat=43.141292, altitude=169.60, speed=31.64, satellites=7, angle=265.5800, fixquality=1
$GPRMC,144102.250,A,4308.4772,N,07726.7322,W,31.67,265.29,130924,,,A*44
$GPGGA,144102.500,4308.4770,N,07726.7352,W,1,07,1.39,170.1,M,-34.4,M,,*50
lng=-77.445541, lat=43.141284, altitude=169.80, speed=31.67, satellites=7, angle=265.2900, fixquality=1
$GPRMC,144102.750,A,4308.4768,N,07726.7382,W,31.45,265.34,130924,,,A*4C
$GPGGA,144103.000,4308.4766,N,07726.7412,W,1,07,1.39,170.4,M,-34.4,M,,*55
lng=-77.445640, lat=43.141277, altitude=170.10, speed=31.45, satellites=7, angle=265.3400, fixquality=1
$GPRMC,144103.250,A,4308.4764,N,07726.7442,W,31.46,265.40,130924,,,A*4F
$GPGGA,144103.500,4308.4762,N,07726.7472,W,1,07,1.39,170.8,M,-34.4,M,,*5E
lng=-77.445732, lat=43.141277, altitude=170.40, speed=31.46, satellites=7, angle=265.4000, fixquality=1
$GPRMC,144103.750,A,4308.4760,N,07726.7502,W,31.52,265.65,130924,,,A*49
$GPGGA,144104.000,4308.4759,N,07726.7532,W,1,07,1.39,171.1,M,-34.4,M,,*59
lng=-77.445831, lat=43.141269, altitude=170.80, speed=31.52, satellites=7, angle=265.6500, fixquality=1
$GPRMC,144104.250,A,4308.4757,N,07726.7561,W,31.55,265.53,130924,,,A*48
$GPGGA,144104.500,4308.4755,N,07726.7591,W,1,07,1.39,171.4,M,-34.4,M,,*5C
lng=-77.445930, lat=43.141258, altitude=171.10, speed=31.55, satellites=7, angle=265.5300, fixquality=1
$GPRMC,144104.750,A,4308.4753,N,07726.7621,W,31.52,265.00,130924,,,A*4F
$GPGGA,144105.000,4308.4750,N,07726.7650,W,1,07,1.39,171.6,M,-34.4,M,,*51
lng=-77.446037, lat=43.141250, altitude=171.40, speed=31.52, satellites=7, angle=265.0000, fixquality=1
$GPRMC,144105.250,A,4308.4748,N,07726.7680,W,30.94,264.69,130924,,,A*4F
$GPGGA,144105.500,4308.4747,N,07726.7709,W,1,07,1.39,172.0,M,-34.4,M,,*5A
lng=-77.446136, lat=43.141242, altitude=171.60, speed=30.94, satellites=7, angle=264.6900, fixquality=1
$GPRMC,144105.750,A,4308.4745,N,07726.7738,W,30.88,265.17,130924,,,A*40
$GPGGA,144106.000,4308.4743,N,07726.7767,W,1,07,1.39,172.2,M,-34.4,M,,*52
lng=-77.446235, lat=43.141242, altitude=172.00, speed=30.88, satellites=7, angle=265.1700, fixquality=1
$GPRMC,144106.250,A,4308.4742,N,07726.7796,W,30.35,265.19,130924,,,A*4D
$GPGGA,144106.500,4308.4740,N,07726.7825,W,1,07,1.39,172.3,M,-34.4,M,,*5C
lng=-77.446327, lat=43.141235, altitude=172.20, speed=30.35, satellites=7, angle=265.1900, fixquality=1
$GPRMC,144106.750,A,4308.4739,N,07726.7853,W,30.00,265.70,130924,,,A*4B
$GPGGA,144107.000,4308.4738,N,07726.7882,W,1,07,1.39,172.2,M,-34.4,M,,*5B
lng=-77.446418, lat=43.141235, altitude=172.30, speed=30.00, satellites=7, angle=265.7000, fixquality=1
$GPRMC,144107.250,A,4308.4736,N,07726.7910,W,29.96,265.95,130924,,,A*4A
$GPGGA,144107.500,4308.4735,N,07726.7939,W,1,07,1.39,172.2,M,-34.4,M,,*52
lng=-77.446517, lat=43.141227, altitude=172.20, speed=29.96, satellites=7, angle=265.9500, fixquality=1
$GPRMC,144107.750,A,4308.4733,N,07726.7967,W,30.04,265.46,130924,,,A*47
$GPGGA,144108.000,4308.4732,N,07726.7996,W,1,07,1.39,172.2,M,-34.4,M,,*5A
lng=-77.446617, lat=43.141220, altitude=172.20, speed=30.04, satellites=7, angle=265.4600, fixquality=1
$GPRMC,144108.250,A,4308.4730,N,07726.8024,W,30.11,265.13,130924,,,A*4B
$GPGGA,144108.500,4308.4728,N,07726.8053,W,1,07,1.39,172.2,M,-34.4,M,,*5B
lng=-77.446701, lat=43.141220, altitude=172.20, speed=30.11, satellites=7, angle=265.1300, fixquality=1
$GPRMC,144108.750,A,4308.4726,N,07726.8082,W,30.21,265.41,130924,,,A*41
$GPGGA,144109.000,4308.4724,N,07726.8111,W,1,07,1.39,172.1,M,-34.4,M,,*57
lng=-77.446800, lat=43.141212, altitude=172.20, speed=30.21, satellites=7, angle=265.4100, fixquality=1
$GPRMC,144109.250,A,4308.4722,N,07726.8140,W,30.26,264.98,130924,,,A*4C
$GPGGA,144109.500,4308.4720,N,07726.8168,W,1,07,1.39,172.1,M,-34.4,M,,*58
lng=-77.446899, lat=43.141201, altitude=172.10, speed=30.26, satellites=7, angle=264.9800, fixquality=1
$GPRMC,144109.750,A,4308.4718,N,07726.8197,W,30.29,264.54,130924,,,A*45
$GPGGA,144110.000,4308.4716,N,07726.8226,W,1,07,1.39,172.0,M,-34.4,M,,*58
lng=-77.446998, lat=43.141193, altitude=172.10, speed=30.29, satellites=7, angle=264.5400, fixquality=1
$GPRMC,144110.250,A,4308.4714,N,07726.8256,W,30.62,264.24,130924,,,A*42
$GPGGA,144110.500,4308.4712,N,07726.8285,W,1,07,1.39,171.9,M,-34.4,M,,*5A
lng=-77.447097, lat=43.141185, altitude=172.00, speed=30.62, satellites=7, angle=264.2400, fixquality=1
$GPRMC,144110.750,A,4308.4709,N,07726.8314,W,30.71,264.10,130924,,,A*49
$GPGGA,144111.000,4308.4706,N,07726.8344,W,1,07,1.39,171.5,M,-34.4,M,,*5B
lng=-77.447189, lat=43.141178, altitude=171.90, speed=30.71, satellites=7, angle=264.1000, fixquality=1
$GPRMC,144111.250,A,4308.4704,N,07726.8373,W,30.75,263.94,130924,,,A*4E
$GPGGA,144111.500,4308.4702,N,07726.8403,W,1,07,1.39,171.3,M,-34.4,M,,*58
lng=-77.447288, lat=43.141170, altitude=171.50, speed=30.75, satellites=7, angle=263.9400, fixquality=1
$GPRMC,144111.750,A,4308.4699,N,07726.8432,W,30.78,264.60,130924,,,A*4D
$GPGGA,144112.000,4308.4697,N,07726.8462,W,1,07,1.39,171.0,M,-34.4,M,,*57
lng=-77.447387, lat=43.141162, altitude=171.30, speed=30.78, satellites=7, angle=264.6000, fixquality=1
$GPRMC,144112.250,A,4308.4695,N,07726.8491,W,30.80,265.26,130924,,,A*4A
$GPGGA,144112.500,4308.4693,N,07726.8520,W,1,07,1.39,170.9,M,-34.4,M,,*59
lng=-77.447486, lat=43.141162, altitude=171.00, speed=30.80, satellites=7, angle=265.2600, fixquality=1
$GPRMC,144112.750,A,4308.4691,N,07726.8550,W,30.83,265.18,130924,,,A*49
$GPGGA,144113.000,4308.4689,N,07726.8579,W,1,07,1.39,170.6,M,-34.4,M,,*55
lng=-77.447586, lat=43.141155, altitude=170.90, speed=30.83, satellites=7, angle=265.1800, fixquality=1
$GPRMC,144113.250,A,4308.4687,N,07726.8609,W,30.83,265.21,130924,,,A*4F
$GPGGA,144113.500,4308.4686,N,07726.8638,W,1,07,1.39,170.5,M,-34.4,M,,*5A
lng=-77.447677, lat=43.141147, altitude=170.60, speed=30.83, satellites=7, angle=265.2100, fixquality=1
$GPRMC,144113.750,A,4308.4684,N,07726.8668,W,30.91,265.81,130924,,,A*47
$GPGGA,144114.000,4308.4683,N,07726.8698,W,1,07,1.39,170.3,M,-34.4,M,,*51
lng=-77.447776, lat=43.141136, altitude=170.50, speed=30.91, satellites=7, angle=265.8100, fixquality=1
$GPRMC,144114.250,A,4308.4681,N,07726.8727,W,31.13,265.53,130924,,,A*4E
$GPGGA,144114.500,4308.4680,N,07726.8757,W,1,07,1.39,170.1,M,-34.4,M,,*57
lng=-77.447875, lat=43.141136, altitude=170.30, speed=31.13, satellites=7, angle=265.5300, fixquality=1
$GPRMC,144114.750,A,4308.4678,N,07726.8788,W,31.42,266.30,130924,,,A*4A
$GPGGA,144115.000,4308.4677,N,07726.8818,W,1,07,1.39,169.8,M,-34.4,M,,*5E
lng=-77.447982, lat=43.141128, altitude=170.10, speed=31.42, satellites=7, angle=266.3000, fixquality=1
$GPRMC,144115.250,A,4308.4676,N,07726.8848,W,31.84,266.44,130924,,,A*4A
$GPGGA,144115.500,4308.4675,N,07726.8879,W,1,07,1.39,169.6,M,-34.4,M,,*50
lng=-77.448081, lat=43.141128, altitude=169.80, speed=31.84, satellites=7, angle=266.4400, fixquality=1
$GPRMC,144115.750,A,4308.4674,N,07726.8910,W,32.06,266.78,130924,,,A*47
$GPGGA,144116.000,4308.4672,N,07726.8941,W,1,07,1.39,169.2,M,-34.4,M,,*5F
lng=-77.448188, lat=43.141120, altitude=169.60, speed=32.06, satellites=7, angle=266.7800, fixquality=1
$GPRMC,144116.250,A,4308.4670,N,07726.8972,W,32.36,266.11,130924,,,A*4D
$GPGGA,144116.500,4308.4669,N,07726.9004,W,1,07,1.39,168.8,M,-34.4,M,,*52
lng=-77.448280, lat=43.141113, altitude=169.20, speed=32.36, satellites=7, angle=266.1100, fixquality=1
$GPRMC,144116.750,A,4308.4667,N,07726.9035,W,32.95,265.69,130924,,,A*40
$GPGGA,144117.000,4308.4665,N,07726.9067,W,1,07,1.39,168.6,M,-34.4,M,,*51
lng=-77.448387, lat=43.141113, altitude=168.80, speed=32.95, satellites=7, angle=265.6900, fixquality=1
$GPRMC,144117.250,A,4308.4664,N,07726.9099,W,33.16,265.51,130924,,,A*40
$GPGGA,144117.500,4308.4662,N,07726.9131,W,1,07,1.39,168.3,M,-34.4,M,,*54
lng=-77.448493, lat=43.141105, altitude=168.60, speed=33.16, satellites=7, angle=265.5100, fixquality=1
$GPRMC,144117.750,A,4308.4660,N,07726.9163,W,33.42,265.97,130924,,,A*4E
$GPGGA,144118.000,4308.4659,N,07726.9196,W,1,07,1.39,167.9,M,-34.4,M,,*5E
lng=-77.448608, lat=43.141098, altitude=168.30, speed=33.42, satellites=7, angle=265.9700, fixquality=1
$GPRMC,144118.250,A,4308.4657,N,07726.9228,W,33.43,265.91,130924,,,A*4B
$GPGGA,144118.500,4308.4655,N,07726.9260,W,1,07,1.39,167.7,M,-34.4,M,,*53
lng=-77.448715, lat=43.141098, altitude=167.90, speed=33.43, satellites=7, angle=265.9100, fixquality=1
$GPRMC,144118.750,A,4308.4653,N,07726.9291,W,33.33,265.73,130924,,,A*43
$GPGGA,144119.000,4308.4652,N,07726.9323,W,1,07,1.39,167.4,M,-34.4,M,,*55
lng=-77.448822, lat=43.141090, altitude=167.70, speed=33.33, satellites=7, angle=265.7300, fixquality=1
$GPRMC,144119.250,A,4308.4650,N,07726.9355,W,33.26,265.33,130924,,,A*4D
$GPGGA,144119.500,4308.4648,N,07726.9387,W,1,07,1.39,167.2,M,-34.4,M,,*53
lng=-77.448928, lat=43.141078, altitude=167.40, speed=33.26, satellites=7, angle=265.3300, fixquality=1
$GPRMC,144119.750,A,4308.4645,N,07726.9418,W,33.07,264.80,130924,,,A*48
$GPGGA,144120.000,4308.4643,N,07726.9450,W,1,07,1.39,166.9,M,-34.4,M,,*50
lng=-77.449028, lat=43.141071, altitude=167.20, speed=33.07, satellites=7, angle=264.8000, fixquality=1
$GPRMC,144120.250,A,4308.4641,N,07726.9482,W,33.07,265.01,130924,,,A*48
$GPGGA,144120.500,4308.4639,N,07726.9514,W,1,07,1.39,166.5,M,-34.4,M,,*55
lng=-77.449134, lat=43.141063, altitude=166.90, speed=33.07, satellites=7, angle=265.0100, fixquality=1
$GPRMC,144120.750,A,4308.4637,N,07726.9546,W,33.15,265.12,130924,,,A*44
$GPGGA,144121.000,4308.4635,N,07726.9578,W,1,07,1.39,165.9,M,-34.4,M,,*58
lng=-77.449241, lat=43.141063, altitude=166.50, speed=33.15, satellites=7, angle=265.1200, fixquality=1
$GPRMC,144121.250,A,4308.4633,N,07726.9609,W,33.13,265.23,130924,,,A*48
$GPGGA,144121.500,4308.4631,N,07726.9641,W,1,07,1.39,165.5,M,-34.4,M,,*5C
lng=-77.449348, lat=43.141056, altitude=165.90, speed=33.13, satellites=7, angle=265.2300, fixquality=1
$GPRMC,144121.750,A,4308.4629,N,07726.9674,W,33.16,265.59,130924,,,A*44
$GPGGA,144122.000,4308.4626,N,07726.9706,W,1,07,1.39,165.1,M,-34.4,M,,*5A
lng=-77.449455, lat=43.141048, altitude=165.50, speed=33.16, satellites=7, angle=265.5900, fixquality=1
$GPRMC,144122.250,A,4308.4624,N,07726.9739,W,33.97,265.09,130924,,,A*4B
$GPGGA,144122.500,4308.4623,N,07726.9772,W,1,07,1.39,164.8,M,-34.4,M,,*51
lng=-77.449569, lat=43.141040, altitude=165.10, speed=33.97, satellites=7, angle=265.0900, fixquality=1
$GPRMC,144122.750,A,4308.4621,N,07726.9805,W,34.43,265.65,130924,,,A*4F
$GPGGA,144123.000,4308.4619,N,07726.9837,W,1,07,1.39,164.5,M,-34.4,M,,*5F
lng=-77.449676, lat=43.141033, altitude=164.80, speed=34.43, satellites=7, angle=265.6500, fixquality=1
$GPRMC,144123.250,A,4308.4617,N,07726.9870,W,34.47,265.51,130924,,,A*4F
$GPGGA,144123.500,4308.4615,N,07726.9904,W,1,07,1.39,164.3,M,-34.4,M,,*51
lng=-77.449783, lat=43.141033, altitude=164.50, speed=34.47, satellites=7, angle=265.5100, fixquality=1
$GPRMC,144123.750,A,4308.4613,N,07726.9937,W,34.68,265.18,130924,,,A*4C
$GPGGA,144124.000,4308.4611,N,07726.9970,W,1,07,1.39,164.1,M,-34.4,M,,*56
lng=-77.449897, lat=43.141025, altitude=164.30, speed=34.68, satellites=7, angle=265.1800, fixquality=1
$GPRMC,144124.250,A,4308.4609,N,07727.0003,W,34.73,265.04,130924,,,A*44
$GPGGA,144124.500,4308.4606,N,07727.0036,W,1,07,1.39,163.9,M,-34.4,M,,*59
lng=-77.450004, lat=43.141014, altitude=164.10, speed=34.73, satellites=7, angle=265.0400, fixquality=1
$GPRMC,144124.750,A,4308.4604,N,07727.0069,W,34.89,265.48,130924,,,A*4D
$GPGGA,144125.000,4308.4602,N,07727.0103,W,1,07,1.39,163.7,M,-34.4,M,,*50
lng=-77.450111, lat=43.141006, altitude=163.90, speed=34.89, satellites=7, angle=265.4800, fixquality=1
$GPRMC,144125.250,A,4308.4600,N,07727.0136,W,34.85,265.28,130924,,,A*4C
$GPGGA,144125.500,4308.4598,N,07727.0169,W,1,07,1.39,163.6,M,-34.4,M,,*58
lng=-77.450225, lat=43.140998, altitude=163.70, speed=34.85, satellites=7, angle=265.2800, fixquality=1
$GPRMC,144125.750,A,4308.4597,N,07727.0202,W,34.94,266.05,130924,,,A*4C
$GPGGA,144126.000,4308.4595,N,07727.0235,W,1,07,1.39,163.6,M,-34.4,M,,*59
lng=-77.450332, lat=43.140991, altitude=163.60, speed=34.94, satellites=7, angle=266.0500, fixquality=1
$GPRMC,144126.250,A,4308.4593,N,07727.0269,W,35.17,266.40,130924,,,A*48
$GPGGA,144126.500,4308.4592,N,07727.0302,W,1,07,1.39,163.5,M,-34.4,M,,*5D
lng=-77.450447, lat=43.140991, altitude=163.60, speed=35.17, satellites=7, angle=266.4000, fixquality=1
$GPRMC,144126.750,A,4308.4590,N,07727.0336,W,35.20,267.01,130924,,,A*45
$GPGGA,144127.000,4308.4589,N,07727.0369,W,1,07,1.39,163.3,M,-34.4,M,,*58
lng=-77.450561, lat=43.140983, altitude=163.50, speed=35.20, satellites=7, angle=267.0100, fixquality=1
$GPRMC,144127.250,A,4308.4588,N,07727.0403,W,35.25,267.50,130924,,,A*48
$GPGGA,144127.500,4308.4587,N,07727.0436,W,1,07,1.39,163.3,M,-34.4,M,,*5E
lng=-77.450675, lat=43.140983, altitude=163.30, speed=35.25, satellites=7, angle=267.5000, fixquality=1
$GPRMC,144127.750,A,4308.4586,N,07727.0469,W,35.27,268.40,130924,,,A*43
$GPGGA,144128.000,4308.4585,N,07727.0503,W,1,07,1.39,163.1,M,-34.4,M,,*53
lng=-77.450782, lat=43.140975, altitude=163.30, speed=35.27, satellites=7, angle=268.4000, fixquality=1
$GPRMC,144128.250,A,4308.4585,N,07727.0536,W,35.21,269.12,130924,,,A*41
