Vers 72
USE_SERIAL_FEEDBACK=true
DEVELOPMENT_MODE=false
USE_RMC_ONLY=false

$GPRMC,222847.750,A,4305.1896,N,07740.8846,W,16.03,356.63,180924,,,A*42
$GPGGA,222848.000,4305.1908,N,07740.8847,W,1,04,3.45,143.7,M,-34.4,M,,*54
lng=-77.681411, lat=43.086490, altitude=147.80, speed=16.03, satellites=4, angle=356.6300, fixquality=1
$GPRMC,222848.250,A,4305.1920,N,07740.8847,W,16.17,356.58,180924,,,A*48
$GPGGA,222848.500,4305.1932,N,07740.8848,W,1,04,3.45,143.5,M,-34.4,M,,*55
lng=-77.681411, lat=43.086532, altitude=143.70, speed=16.17, satellites=4, angle=356.5800, fixquality=1
$GPRMC,222848.750,A,4305.1944,N,07740.8849,W,16.42,357.03,180924,,,A*4E
$GPGGA,222849.000,4305.1957,N,07740.8849,W,1,04,3.45,143.7,M,-34.4,M,,*51
lng=-77.681411, lat=43.086570, altitude=143.50, speed=16.42, satellites=4, angle=357.0300, fixquality=1
$GPRMC,222849.250,A,4305.1969,N,07740.8850,W,16.73,356.95,180924,,,A*41
$GPGGA,222849.500,4305.1982,N,07740.8851,W,1,04,3.45,143.7,M,-34.4,M,,*55
lng=-77.681411, lat=43.086612, altitude=143.70, speed=16.73, satellites=4, angle=356.9500, fixquality=1
$GPRMC,222849.750,A,4305.1995,N,07740.8851,W,16.99,356.65,180924,,,A*4D
$GPGGA,222850.000,4305.2008,N,07740.8852,W,1,04,3.45,143.9,M,-34.4,M,,*5D
lng=-77.681419, lat=43.086662, altitude=143.70, speed=16.99, satellites=4, angle=356.6500, fixquality=1
$GPRMC,222850.250,A,4305.2021,N,07740.8853,W,17.44,357.39,180924,,,A*4E
$GPGGA,222850.500,4305.2034,N,07740.8853,W,1,04,3.45,143.8,M,-34.4,M,,*57
lng=-77.681419, lat=43.086704, altitude=143.90, speed=17.44, satellites=4, angle=357.3900, fixquality=1
$GPRMC,222850.750,A,4305.2046,N,07740.8854,W,17.64,357.56,180924,,,A*46
$GPGGA,222851.000,4305.2060,N,07740.8854,W,1,04,3.45,143.7,M,-34.4,M,,*5A
lng=-77.681419, lat=43.086742, altitude=143.80, speed=17.64, satellites=4, angle=357.5600, fixquality=1
$GPRMC,222851.250,A,4305.2073,N,07740.8855,W,18.01,357.47,180924,,,A*49
$GPGGA,222851.500,4305.2086,N,07740.8855,W,1,04,3.45,143.7,M,-34.4,M,,*56
lng=-77.681427, lat=43.086791, altitude=143.70, speed=18.01, satellites=4, angle=357.4700, fixquality=1
$GPRMC,222851.750,A,4305.2100,N,07740.8856,W,18.15,357.10,180924,,,A*4D
$GPGGA,222852.000,4305.2112,N,07740.8857,W,1,04,3.44,143.7,M,-34.4,M,,*5F
lng=-77.681427, lat=43.086833, altitude=143.70, speed=18.15, satellites=4, angle=357.1000, fixquality=1
$GPRMC,222852.250,A,4305.2125,N,07740.8858,W,18.10,357.35,180924,,,A*40
$GPGGA,222852.500,4305.2138,N,07740.8858,W,1,04,3.44,143.5,M,-34.4,M,,*5F
lng=-77.681427, lat=43.086872, altitude=143.70, speed=18.10, satellites=4, angle=357.3500, fixquality=1
$GPRMC,222852.750,A,4305.2151,N,07740.8859,W,18.15,357.08,180924,,,A*4C
$GPGGA,222853.000,4305.2163,N,07740.8860,W,1,04,3.44,143.3,M,-34.4,M,,*58
lng=-77.681427, lat=43.086921, altitude=143.50, speed=18.15, satellites=4, angle=357.0800, fixquality=1
$GPRMC,222853.250,A,4305.2176,N,07740.8861,W,18.11,355.91,180924,,,A*40
$GPGGA,222853.500,4305.2189,N,07740.8863,W,1,04,3.44,143.3,M,-34.4,M,,*5A
lng=-77.681434, lat=43.086963, altitude=143.30, speed=18.11, satellites=4, angle=355.9100, fixquality=1
$GPRMC,222853.750,A,4305.2202,N,07740.8864,W,18.19,354.87,180924,,,A*4E
$GPGGA,222854.000,4305.2214,N,07740.8866,W,1,04,3.44,143.3,M,-34.4,M,,*5A
lng=-77.681434, lat=43.087001, altitude=143.30, speed=18.19, satellites=4, angle=354.8700, fixquality=1
$GPRMC,222854.250,A,4305.2225,N,07740.8869,W,17.91,353.84,180924,,,A*4F
$GPGGA,222854.500,4305.2236,N,07740.8871,W,1,04,3.44,142.9,M,-34.4,M,,*52
lng=-77.681442, lat=43.087043, altitude=143.30, speed=17.91, satellites=4, angle=353.8400, fixquality=1
$GPRMC,222854.750,A,4305.2248,N,07740.8874,W,17.67,352.96,180924,,,A*46
$GPGGA,222855.000,4305.2260,N,07740.8876,W,1,04,3.43,142.7,M,-34.4,M,,*5B
lng=-77.681449, lat=43.087078, altitude=142.90, speed=17.67, satellites=4, angle=352.9600, fixquality=1
$GPRMC,222855.250,A,4305.2272,N,07740.8878,W,17.70,352.93,180924,,,A*44
$GPGGA,222855.500,4305.2284,N,07740.8880,W,1,04,3.43,142.4,M,-34.4,M,,*5E
lng=-77.681465, lat=43.087116, altitude=142.70, speed=17.70, satellites=4, angle=352.9300, fixquality=1
$GPRMC,222855.750,A,4305.2296,N,07740.8882,W,17.45,353.41,180924,,,A*46
$GPGGA,222856.000,4305.2307,N,07740.8883,W,1,04,3.43,142.1,M,-34.4,M,,*54
lng=-77.681472, lat=43.087158, altitude=142.40, speed=17.45, satellites=4, angle=353.4100, fixquality=1
$GPRMC,222856.250,A,4305.2318,N,07740.8884,W,16.55,355.36,180924,,,A*47
$GPGGA,222856.500,4305.2328,N,07740.8886,W,1,04,3.43,141.7,M,-34.4,M,,*5C
lng=-77.681472, lat=43.087200, altitude=142.10, speed=16.55, satellites=4, angle=355.3600, fixquality=1
$GPRMC,222856.750,A,4305.2337,N,07740.8887,W,15.13,356.15,180924,,,A*4F
$GPGGA,222857.000,4305.2345,N,07740.8888,W,1,04,3.43,141.1,M,-34.4,M,,*5B
lng=-77.681480, lat=43.087230, altitude=141.70, speed=15.13, satellites=4, angle=356.1500, fixquality=1
$GPRMC,222857.250,A,4305.2352,N,07740.8888,W,13.15,358.26,180924,,,A*49
$GPGGA,222857.500,4305.2359,N,07740.8889,W,1,04,3.43,140.3,M,-34.4,M,,*51
lng=-77.681480, lat=43.087257, altitude=141.10, speed=13.15, satellites=4, angle=358.2600, fixquality=1
$GPRMC,222857.750,A,4305.2364,N,07740.8889,W,11.13,1.08,180924,,,A*4F
$GPGGA,222858.000,4305.2368,N,07740.8889,W,1,04,3.43,139.6,M,-34.4,M,,*52
lng=-77.681480, lat=43.087272, altitude=140.30, speed=11.13, satellites=4, angle=1.0800, fixquality=1
$GPRMC,222858.250,A,4305.2371,N,07740.8889,W,8.28,4.07,180924,,,A*7B
$GPGGA,222858.500,4305.2374,N,07740.8888,W,1,04,3.43,139.1,M,-34.4,M,,*5C
lng=-77.681480, lat=43.087287, altitude=139.60, speed=8.28, satellites=4, angle=4.0700, fixquality=1
$GPRMC,222858.750,A,4305.2376,N,07740.8888,W,6.14,8.03,180924,,,A*71
$GPGGA,222859.000,4305.2378,N,07740.8886,W,1,04,3.42,138.8,M,-34.4,M,,*53
lng=-77.681480, lat=43.087295, altitude=139.10, speed=6.14, satellites=4, angle=8.0300, fixquality=1
$GPRMC,222859.250,A,4305.2379,N,07740.8885,W,4.23,16.01,180924,,,A*4C
$GPGGA,222859.500,4305.2381,N,07740.8884,W,1,04,2.14,138.5,M,-34.4,M,,*5D
lng=-77.681480, lat=43.087295, altitude=138.80, speed=4.23, satellites=4, angle=16.0100, fixquality=1
$GPRMC,222859.750,A,4305.2382,N,07740.8883,W,3.34,18.90,180924,,,A*4C
$GPGGA,222900.000,4305.2383,N,07740.8882,W,1,04,2.14,138.3,M,-34.4,M,,*57
lng=-77.681472, lat=43.087303, altitude=138.50, speed=3.34, satellites=4, angle=18.9000, fixquality=1
$GPRMC,222900.250,A,4305.2389,N,07740.8880,W,3.36,21.28,180924,,,A*47
$GPGGA,222900.500,4305.2394,N,07740.8878,W,1,05,2.07,140.5,M,-34.4,M,,*5B
lng=-77.681472, lat=43.087314, altitude=138.30, speed=3.36, satellites=4, angle=21.2800, fixquality=1
$GPRMC,222900.750,A,4305.2398,N,07740.8877,W,3.56,18.69,180924,,,A*43
$GPGGA,222901.000,4305.2402,N,07740.8875,W,1,05,2.07,141.7,M,-34.4,M,,*59
lng=-77.681465, lat=43.087329, altitude=140.50, speed=3.56, satellites=5, angle=18.6900, fixquality=1
$GPRMC,222901.250,A,4305.2406,N,07740.8873,W,4.22,16.76,180924,,,A*47
$GPGGA,222901.500,4305.2413,N,07740.8870,W,1,05,2.07,143.0,M,-34.4,M,,*5C
lng=-77.681449, lat=43.087345, altitude=141.70, speed=4.22, satellites=5, angle=16.7600, fixquality=1
$GPRMC,222901.750,A,4305.2419,N,07740.8868,W,5.11,25.14,180924,,,A*43
$GPGGA,222902.000,4305.2425,N,07740.8864,W,1,05,2.44,144.8,M,-34.4,M,,*52
lng=-77.681442, lat=43.087360, altitude=143.00, speed=5.11, satellites=5, angle=25.1400, fixquality=1
$GPRMC,222902.250,A,4305.2430,N,07740.8859,W,6.31,34.85,180924,,,A*45
$GPGGA,222902.500,4305.2434,N,07740.8854,W,1,05,2.07,144.7,M,-34.4,M,,*5C
lng=-77.681427, lat=43.087387, altitude=144.80, speed=6.31, satellites=5, angle=34.8500, fixquality=1
$GPRMC,222902.750,A,4305.2440,N,07740.8846,W,8.13,43.42,180924,,,A*4C
$GPGGA,222903.000,4305.2450,N,07740.8837,W,1,05,2.44,144.7,M,-34.4,M,,*58
lng=-77.681411, lat=43.087402, altitude=144.70, speed=8.13, satellites=5, angle=43.4200, fixquality=1
$GPRMC,222903.250,A,4305.2455,N,07740.8828,W,10.21,48.76,180924,,,A*70
$GPGGA,222903.500,4305.2460,N,07740.8819,W,1,05,2.07,145.1,M,-34.4,M,,*52
lng=-77.681381, lat=43.087425, altitude=144.70, speed=10.21, satellites=5, angle=48.7600, fixquality=1
$GPRMC,222903.750,A,4305.2463,N,07740.8809,W,11.65,55.02,180924,,,A*7D
$GPGGA,222904.000,4305.2461,N,07740.8796,W,1,05,2.07,145.2,M,-34.4,M,,*5A
lng=-77.681350, lat=43.087436, altitude=145.10, speed=11.65, satellites=5, angle=55.0200, fixquality=1
$GPRMC,222904.250,A,4305.2464,N,07740.8783,W,13.08,66.99,180924,,,A*7E
$GPGGA,222904.500,4305.2467,N,07740.8770,W,1,05,2.07,145.2,M,-34.4,M,,*51
lng=-77.681304, lat=43.087444, altitude=145.20, speed=13.08, satellites=5, angle=66.9900, fixquality=1
$GPRMC,222904.750,A,4305.2469,N,07740.8757,W,14.17,70.95,180924,,,A*7D
$GPGGA,222905.000,4305.2472,N,07740.8741,W,1,05,2.44,145.4,M,-34.4,M,,*52
lng=-77.681259, lat=43.087451, altitude=145.20, speed=14.17, satellites=5, angle=70.9500, fixquality=1
$GPRMC,222905.250,A,4305.2474,N,07740.8726,W,15.65,75.03,180924,,,A*7D
$GPGGA,222905.500,4305.2476,N,07740.8709,W,1,05,2.07,145.7,M,-34.4,M,,*5B
lng=-77.681205, lat=43.087459, altitude=145.40, speed=15.65, satellites=5, angle=75.0300, fixquality=1
$GPRMC,222905.750,A,4305.2479,N,07740.8692,W,16.98,77.61,180924,,,A*7C
$GPGGA,222906.000,4305.2481,N,07740.8674,W,1,05,2.44,145.9,M,-34.4,M,,*57
lng=-77.681152, lat=43.087467, altitude=145.70, speed=16.98, satellites=5, angle=77.6100, fixquality=1
$GPRMC,222906.250,A,4305.2484,N,07740.8655,W,18.37,79.25,180924,,,A*76
$GPGGA,222906.500,4305.2487,N,07740.8637,W,1,05,2.07,146.2,M,-34.4,M,,*5C
lng=-77.681098, lat=43.087474, altitude=145.90, speed=18.37, satellites=5, angle=79.2500, fixquality=1
$GPRMC,222906.750,A,4305.2490,N,07740.8617,W,19.31,79.35,180924,,,A*76
$GPGGA,222907.000,4305.2494,N,07740.8598,W,1,05,2.44,146.6,M,-34.4,M,,*5F
lng=-77.681030, lat=43.087482, altitude=146.20, speed=19.31, satellites=5, angle=79.3500, fixquality=1
$GPRMC,222907.250,A,4305.2498,N,07740.8578,W,20.04,78.90,180924,,,A*72
$GPGGA,222907.500,4305.2502,N,07740.8558,W,1,05,2.07,147.1,M,-34.4,M,,*59
lng=-77.680961, lat=43.087501, altitude=146.60, speed=20.04, satellites=5, angle=78.9000, fixquality=1
$GPRMC,222907.750,A,4305.2506,N,07740.8538,W,20.29,78.37,180924,,,A*77
$GPGGA,222908.000,4305.2509,N,07740.8518,W,1,05,2.44,147.4,M,-34.4,M,,*5E
lng=-77.680900, lat=43.087509, altitude=147.10, speed=20.29, satellites=5, angle=78.3700, fixquality=1
$GPRMC,222908.250,A,4305.2513,N,07740.8499,W,20.28,78.69,180924,,,A*79
$GPGGA,222908.500,4305.2516,N,07740.8479,W,1,05,2.44,147.7,M,-34.4,M,,*50
lng=-77.680831, lat=43.087524, altitude=147.40, speed=20.28, satellites=5, angle=78.6900, fixquality=1
$GPRMC,222908.750,A,4305.2519,N,07740.8460,W,20.14,79.20,180924,,,A*73
$GPGGA,222909.000,4305.2521,N,07740.8441,W,1,05,2.44,147.9,M,-34.4,M,,*55
lng=-77.680770, lat=43.087532, altitude=147.70, speed=20.14, satellites=5, angle=79.2000, fixquality=1
$GPRMC,222909.250,A,4305.2524,N,07740.8421,W,19.62,80.20,180924,,,A*71
$GPGGA,222909.500,4305.2526,N,07740.8402,W,1,05,2.07,148.1,M,-34.4,M,,*50
lng=-77.680702, lat=43.087539, altitude=147.90, speed=19.62, satellites=5, angle=80.2000, fixquality=1
$GPRMC,222909.750,A,4305.2529,N,07740.8383,W,19.36,80.44,180924,,,A*75
$GPGGA,222910.000,4305.2531,N,07740.8365,W,1,05,2.44,148.2,M,-34.4,M,,*59
lng=-77.680641, lat=43.087547, altitude=148.10, speed=19.36, satellites=5, angle=80.4400, fixquality=1
$GPRMC,222910.250,A,4305.2533,N,07740.8346,W,19.13,81.08,180924,,,A*74
$GPGGA,222910.500,4305.2536,N,07740.8328,W,1,05,2.07,148.4,M,-34.4,M,,*53
lng=-77.680572, lat=43.087558, altitude=148.20, speed=19.13, satellites=5, angle=81.0800, fixquality=1
$GPRMC,222910.750,A,4305.2538,N,07740.8309,W,19.24,81.56,180924,,,A*7E
$GPGGA,222911.000,4305.2540,N,07740.8290,W,1,05,2.44,148.5,M,-34.4,M,,*52
lng=-77.680519, lat=43.087566, altitude=148.40, speed=19.24, satellites=5, angle=81.5600, fixquality=1
$GPRMC,222911.250,A,4305.2541,N,07740.8271,W,19.47,83.13,180924,,,A*7C
$GPGGA,222911.500,4305.2543,N,07740.8252,W,1,05,2.07,148.7,M,-34.4,M,,*5F
lng=-77.680450, lat=43.087566, altitude=148.50, speed=19.47, satellites=5, angle=83.1300, fixquality=1
$GPRMC,222911.750,A,4305.2544,N,07740.8233,W,19.83,83.68,180924,,,A*7E
$GPGGA,222912.000,4305.2546,N,07740.8214,W,1,05,2.07,149.0,M,-34.4,M,,*58
lng=-77.680389, lat=43.087574, altitude=148.70, speed=19.83, satellites=5, angle=83.6800, fixquality=1
$GPRMC,222912.250,A,4305.2547,N,07740.8194,W,20.29,84.56,180924,,,A*75
$GPGGA,222912.500,4305.2549,N,07740.8174,W,1,05,2.07,149.4,M,-34.4,M,,*53
lng=-77.680320, lat=43.087581, altitude=149.00, speed=20.29, satellites=5, angle=84.5600, fixquality=1
$GPRMC,222912.750,A,4305.2551,N,07740.8154,W,20.77,84.59,180924,,,A*7F
$GPGGA,222913.000,4305.2554,N,07740.8134,W,1,05,2.43,150.2,M,-34.4,M,,*51
lng=-77.680259, lat=43.087581, altitude=149.40, speed=20.77, satellites=5, angle=84.5900, fixquality=1
$GPRMC,222913.250,A,4305.2557,N,07740.8113,W,21.24,84.62,180924,,,A*71
$GPGGA,222913.500,4305.2559,N,07740.8093,W,1,05,2.07,151.0,M,-34.4,M,,*56
lng=-77.680191, lat=43.087596, altitude=150.20, speed=21.24, satellites=5, angle=84.6200, fixquality=1
$GPRMC,222913.750,A,4305.2562,N,07740.8072,W,21.54,84.69,180924,,,A*78
$GPGGA,222914.000,4305.2564,N,07740.8052,W,1,05,2.07,151.6,M,-34.4,M,,*51
lng=-77.680122, lat=43.087604, altitude=151.00, speed=21.54, satellites=5, angle=84.6900, fixquality=1
$GPRMC,222914.250,A,4305.2565,N,07740.8031,W,21.49,85.45,180924,,,A*79
$GPGGA,222914.500,4305.2566,N,07740.8010,W,1,05,2.07,152.0,M,-34.4,M,,*55
lng=-77.680053, lat=43.087604, altitude=151.60, speed=21.49, satellites=5, angle=85.4500, fixquality=1
$GPRMC,222914.750,A,4305.2566,N,07740.7990,W,21.25,86.43,180924,,,A*7D
$GPGGA,222915.000,4305.2567,N,07740.7970,W,1,05,2.07,152.4,M,-34.4,M,,*54
lng=-77.679977, lat=43.087612, altitude=152.00, speed=21.25, satellites=5, angle=86.4300, fixquality=1
$GPRMC,222915.250,A,4305.2568,N,07740.7950,W,20.98,86.97,180924,,,A*75
$GPGGA,222915.500,4305.2569,N,07740.7930,W,1,05,2.07,152.9,M,-34.4,M,,*56
lng=-77.679916, lat=43.087612, altitude=152.40, speed=20.98, satellites=5, angle=86.9700, fixquality=1
$GPRMC,222915.750,A,4305.2569,N,07740.7910,W,20.59,87.67,180924,,,A*76
$GPGGA,222916.000,4305.2569,N,07740.7890,W,1,05,2.07,153.3,M,-34.4,M,,*50
lng=-77.679847, lat=43.087612, altitude=152.90, speed=20.59, satellites=5, angle=87.6700, fixquality=1
$GPRMC,222916.250,A,4305.2569,N,07740.7871,W,20.29,88.51,180924,,,A*7B
$GPGGA,222916.500,4305.2569,N,07740.7852,W,1,05,2.07,153.8,M,-34.4,M,,*50
lng=-77.679786, lat=43.087612, altitude=153.30, speed=20.29, satellites=5, angle=88.5100, fixquality=1
$GPRMC,222916.750,A,4305.2568,N,07740.7833,W,19.80,89.26,180924,,,A*71
$GPGGA,222917.000,4305.2568,N,07740.7814,W,1,05,2.07,154.3,M,-34.4,M,,*5B
lng=-77.679718, lat=43.087612, altitude=153.80, speed=19.80, satellites=5, angle=89.2600, fixquality=1
$GPRMC,222917.250,A,4305.2568,N,07740.7796,W,19.40,90.19,180924,,,A*7D
$GPGGA,222917.500,4305.2568,N,07740.7777,W,1,05,2.07,154.8,M,-34.4,M,,*5F
lng=-77.679664, lat=43.087612, altitude=154.30, speed=19.40, satellites=5, angle=90.1900, fixquality=1
$GPRMC,222917.750,A,4305.2568,N,07740.7759,W,19.07,90.00,180924,,,A*70
$GPGGA,222918.000,4305.2568,N,07740.7742,W,1,05,2.07,155.3,M,-34.4,M,,*59
lng=-77.679595, lat=43.087612, altitude=154.80, speed=19.07, satellites=5, angle=90.0000, fixquality=1
$GPRMC,222918.250,A,4305.2569,N,07740.7724,W,18.60,89.44,180924,,,A*79
$GPGGA,222918.500,4305.2569,N,07740.7706,W,1,06,2.35,155.6,M,-34.4,M,,*5A
lng=-77.679542, lat=43.087612, altitude=155.30, speed=18.60, satellites=5, angle=89.4400, fixquality=1
$GPRMC,222918.750,A,4305.2569,N,07740.7689,W,17.65,89.46,180924,,,A*72
$GPGGA,222919.000,4305.2569,N,07740.7674,W,1,06,2.35,155.9,M,-34.4,M,,*55
lng=-77.679481, lat=43.087612, altitude=155.60, speed=17.65, satellites=6, angle=89.4600, fixquality=1
$GPRMC,222919.250,A,4305.2569,N,07740.7659,W,15.78,90.45,180924,,,A*7E
$GPGGA,222919.500,4305.2569,N,07740.7645,W,1,06,1.89,156.3,M,-34.4,M,,*5F
lng=-77.679435, lat=43.087612, altitude=155.90, speed=15.78, satellites=6, angle=90.4500, fixquality=1
$GPRMC,222919.750,A,4305.2570,N,07740.7634,W,12.58,90.54,180924,,,A*7D
$GPGGA,222920.000,4305.2572,N,07740.7624,W,1,06,2.35,156.7,M,-34.4,M,,*5D
lng=-77.679389, lat=43.087612, altitude=156.30, speed=12.58, satellites=6, angle=90.5400, fixquality=1
$GPRMC,222920.250,A,4305.2572,N,07740.7615,W,10.42,88.40,180924,,,A*76
$GPGGA,222920.500,4305.2572,N,07740.7606,W,1,06,1.89,157.0,M,-34.4,M,,*5A
lng=-77.679359, lat=43.087623, altitude=156.70, speed=10.42, satellites=6, angle=88.4000, fixquality=1
$GPRMC,222920.750,A,4305.2572,N,07740.7599,W,8.30,89.15,180924,,,A*49
$GPGGA,222921.000,4305.2571,N,07740.7594,W,1,06,2.35,157.3,M,-34.4,M,,*52
lng=-77.679328, lat=43.087623, altitude=157.00, speed=8.30, satellites=6, angle=89.1500, fixquality=1
$GPRMC,222921.250,A,4305.2571,N,07740.7589,W,5.76,93.85,180924,,,A*42
$GPGGA,222921.500,4305.2570,N,07740.7584,W,1,06,1.89,157.6,M,-34.4,M,,*56
lng=-77.679313, lat=43.087623, altitude=157.30, speed=5.76, satellites=6, angle=93.8500, fixquality=1
$GPRMC,222921.750,A,4305.2570,N,07740.7581,W,4.07,98.46,180924,,,A*4D
$GPGGA,222922.000,4305.2569,N,07740.7579,W,1,05,2.07,157.8,M,-34.4,M,,*52
lng=-77.679306, lat=43.087612, altitude=157.60, speed=4.07, satellites=6, angle=98.4600, fixquality=1
$GPRMC,222922.250,A,4305.2569,N,07740.7578,W,2.48,106.31,180924,,,A*7E
$GPGGA,222922.500,4305.2568,N,07740.7578,W,1,06,1.89,158.1,M,-34.4,M,,*57
lng=-77.679298, lat=43.087612, altitude=157.80, speed=2.48, satellites=5, angle=106.3100, fixquality=1
$GPGGA,222924.000,4305.2581,N,07740.7583,W,1,06,2.35,159.2,M,-34.4,M,,*51
$GPRMC,222924.000,A,4305.2581,N,07740.7583,W,0.11,106.31,180924,,,A*73
lng=-77.679306, lat=43.087638, altitude=159.20, speed=0.10, satellites=6, angle=106.3100, fixquality=1
$GPGGA,222924.250,4305.2582,N,07740.7583,W,1,06,2.35,159.4,M,-34.4,M,,*53
$GPRMC,222924.250,A,4305.2582,N,07740.7583,W,0.12,106.31,180924,,,A*74
lng=-77.679306, lat=43.087638, altitude=159.40, speed=0.11, satellites=6, angle=106.3100, fixquality=1
$GPGGA,222926.500,4305.2590,N,07740.7567,W,1,06,1.89,160.4,M,-34.4,M,,*54
$GPRMC,222926.500,A,4305.2590,N,07740.7567,W,0.23,106.31,180924,,,A*7F
lng=-77.679283, lat=43.087646, altitude=160.40, speed=0.21, satellites=6, angle=106.3100, fixquality=1
$GPGGA,222926.750,4305.2591,N,07740.7564,W,1,06,1.89,160.5,M,-34.4,M,,*50
$GPRMC,222926.750,A,4305.2591,N,07740.7564,W,0.32,106.31,180924,,,A*7A
lng=-77.679275, lat=43.087654, altitude=160.50, speed=0.23, satellites=6, angle=106.3100, fixquality=1
$GPRMC,222927.000,A,4305.2592,N,07740.7559,W,4.07,65.82,180924,,,A*4A
$GPGGA,222927.250,4305.2592,N,07740.7554,W,1,06,2.35,160.7,M,-34.4,M,,*52
lng=-77.679267, lat=43.087654, altitude=160.60, speed=4.07, satellites=6, angle=65.8200, fixquality=1
$GPRMC,222927.500,A,4305.2592,N,07740.7548,W,5.40,72.88,180924,,,A*41
$GPGGA,222927.750,4305.2592,N,07740.7541,W,1,06,2.35,160.9,M,-34.4,M,,*5D
lng=-77.679244, lat=43.087654, altitude=160.70, speed=5.40, satellites=6, angle=72.8800, fixquality=1
$GPRMC,222928.000,A,4305.2590,N,07740.7532,W,7.08,80.62,180924,,,A*43
$GPGGA,222928.250,4305.2589,N,07740.7523,W,1,06,2.35,161.1,M,-34.4,M,,*50
lng=-77.679222, lat=43.087646, altitude=160.90, speed=7.08, satellites=6, angle=80.6200, fixquality=1
$GPRMC,222928.500,A,4305.2587,N,07740.7514,W,8.46,88.28,180924,,,A*47
$GPGGA,222928.750,4305.2584,N,07740.7503,W,1,06,2.35,161.3,M,-34.4,M,,*58
lng=-77.679191, lat=43.087646, altitude=161.10, speed=8.46, satellites=6, angle=88.2800, fixquality=1
$GPRMC,222929.000,A,4305.2581,N,07740.7492,W,9.88,94.05,180924,,,A*4B
$GPGGA,222929.250,4305.2580,N,07740.7482,W,1,06,2.35,161.6,M,-34.4,M,,*55
lng=-77.679153, lat=43.087638, altitude=161.30, speed=9.88, satellites=6, angle=94.0500, fixquality=1
$GPRMC,222929.500,A,4305.2580,N,07740.7471,W,10.73,93.79,180924,,,A*72
$GPGGA,222929.750,4305.2580,N,07740.7460,W,1,06,2.35,161.8,M,-34.4,M,,*52
lng=-77.679115, lat=43.087631, altitude=161.60, speed=10.73, satellites=6, angle=93.7900, fixquality=1
$GPRMC,222930.000,A,4305.2579,N,07740.7448,W,11.73,93.54,180924,,,A*7D
$GPGGA,222930.250,4305.2581,N,07740.7436,W,1,07,1.34,162.1,M,-34.4,M,,*54
lng=-77.679077, lat=43.087631, altitude=161.80, speed=11.73, satellites=6, angle=93.5400, fixquality=1
$GPRMC,222930.500,A,4305.2582,N,07740.7423,W,12.54,90.91,180924,,,A*7D
$GPGGA,222930.750,4305.2583,N,07740.7410,W,1,07,1.34,162.3,M,-34.4,M,,*55
lng=-77.679039, lat=43.087638, altitude=162.10, speed=12.54, satellites=7, angle=90.9100, fixquality=1
$GPRMC,222931.000,A,4305.2583,N,07740.7397,W,13.55,90.45,180924,,,A*79
$GPGGA,222931.250,4305.2583,N,07740.7383,W,1,07,1.34,162.4,M,-34.4,M,,*5B
lng=-77.678993, lat=43.087638, altitude=162.30, speed=13.55, satellites=7, angle=90.4500, fixquality=1
$GPRMC,222931.500,A,4305.2583,N,07740.7370,W,14.03,90.05,180924,,,A*75
$GPGGA,222931.750,4305.2582,N,07740.7356,W,1,07,1.34,162.3,M,-34.4,M,,*50
lng=-77.678947, lat=43.087638, altitude=162.40, speed=14.03, satellites=7, angle=90.0500, fixquality=1
$GPRMC,222932.000,A,4305.2582,N,07740.7341,W,14.81,89.93,180924,,,A*7D
$GPGGA,222932.250,4305.2582,N,07740.7327,W,1,07,1.34,162.3,M,-34.4,M,,*50
lng=-77.678901, lat=43.087638, altitude=162.30, speed=14.81, satellites=7, angle=89.9300, fixquality=1
$GPRMC,222932.500,A,4305.2582,N,07740.7312,W,15.23,89.32,180924,,,A*7C
$GPGGA,222932.750,4305.2582,N,07740.7297,W,1,07,1.34,162.4,M,-34.4,M,,*58
lng=-77.678855, lat=43.087638, altitude=162.30, speed=15.23, satellites=7, angle=89.3200, fixquality=1
$GPRMC,222933.000,A,4305.2582,N,07740.7282,W,15.47,89.05,180924,,,A*76
$GPGGA,222933.250,4305.2582,N,07740.7266,W,1,07,1.34,162.4,M,-34.4,M,,*52
lng=-77.678802, lat=43.087638, altitude=162.40, speed=15.47, satellites=7, angle=89.0500, fixquality=1
$GPRMC,222933.500,A,4305.2582,N,07740.7251,W,15.78,88.77,180924,,,A*75
$GPGGA,222933.750,4305.2580,N,07740.7235,W,1,07,1.34,162.4,M,-34.4,M,,*53
lng=-77.678749, lat=43.087638, altitude=162.40, speed=15.78, satellites=7, angle=88.7700, fixquality=1
$GPRMC,222934.000,A,4305.2576,N,07740.7219,W,16.22,88.38,180924,,,A*77
$GPGGA,222934.250,4305.2574,N,07740.7202,W,1,07,1.34,162.4,M,-34.4,M,,*5E
lng=-77.678695, lat=43.087631, altitude=162.40, speed=16.22, satellites=7, angle=88.3800, fixquality=1
$GPRMC,222934.500,A,4305.2572,N,07740.7185,W,16.44,88.28,180924,,,A*71
$GPGGA,222934.750,4305.2571,N,07740.7168,W,1,07,1.34,162.5,M,-34.4,M,,*50
lng=-77.678634, lat=43.087623, altitude=162.40, speed=16.44, satellites=7, angle=88.2800, fixquality=1
$GPRMC,222935.000,A,4305.2570,N,07740.7151,W,16.77,88.28,180924,,,A*7E
$GPGGA,222935.250,4305.2570,N,07740.7134,W,1,07,1.34,162.7,M,-34.4,M,,*5E
lng=-77.678588, lat=43.087612, altitude=162.50, speed=16.77, satellites=7, angle=88.2800, fixquality=1
$GPRMC,222935.500,A,4305.2570,N,07740.7117,W,17.28,88.93,180924,,,A*72
$GPGGA,222935.750,4305.2570,N,07740.7100,W,1,07,1.34,162.8,M,-34.4,M,,*53
lng=-77.678535, lat=43.087612, altitude=162.70, speed=17.28, satellites=7, angle=88.9300, fixquality=1
$GPRMC,222936.000,A,4305.2570,N,07740.7083,W,17.67,89.12,180924,,,A*7B
$GPGGA,222936.250,4305.2570,N,07740.7066,W,1,07,1.34,162.9,M,-34.4,M,,*55
lng=-77.678474, lat=43.087612, altitude=162.80, speed=17.67, satellites=7, angle=89.1200, fixquality=1
$GPRMC,222936.500,A,4305.2570,N,07740.7048,W,17.94,89.34,180924,,,A*71
$GPGGA,222936.750,4305.2571,N,07740.7031,W,1,07,1.26,162.9,M,-34.4,M,,*50
lng=-77.678413, lat=43.087612, altitude=162.90, speed=17.94, satellites=7, angle=89.3400, fixquality=1
$GPRMC,222937.000,A,4305.2571,N,07740.7014,W,18.17,89.53,180924,,,A*78
$GPGGA,222937.250,4305.2572,N,07740.6998,W,1,07,1.34,162.9,M,-34.4,M,,*5F
lng=-77.678352, lat=43.087623, altitude=162.90, speed=18.17, satellites=7, angle=89.5300, fixquality=1
$GPRMC,222937.500,A,4305.2573,N,07740.6981,W,18.20,89.41,180924,,,A*7C
$GPGGA,222937.750,4305.2574,N,07740.6964,W,1,07,1.34,162.9,M,-34.4,M,,*5F
lng=-77.678306, lat=43.087623, altitude=162.90, speed=18.20, satellites=7, angle=89.4100, fixquality=1
$GPRMC,222938.000,A,4305.2574,N,07740.6947,W,18.24,89.13,180924,,,A*78
$GPGGA,222938.250,4305.2575,N,07740.6929,W,1,07,1.34,162.9,M,-34.4,M,,*5D
lng=-77.678245, lat=43.087623, altitude=162.90, speed=18.24, satellites=7, angle=89.1300, fixquality=1
$GPRMC,222938.500,A,4305.2575,N,07740.6912,W,18.42,89.23,180924,,,A*7F
$GPGGA,222938.750,4305.2575,N,07740.6894,W,1,07,1.34,163.0,M,-34.4,M,,*57
lng=-77.678192, lat=43.087623, altitude=162.90, speed=18.42, satellites=7, angle=89.2300, fixquality=1
$GPRMC,222939.000,A,4305.2575,N,07740.6877,W,18.48,89.11,180924,,,A*72
$GPGGA,222939.250,4305.2575,N,07740.6859,W,1,07,1.34,163.2,M,-34.4,M,,*50
lng=-77.678123, lat=43.087623, altitude=163.00, speed=18.48, satellites=7, angle=89.1100, fixquality=1
$GPRMC,222939.500,A,4305.2576,N,07740.6841,W,18.67,88.80,180924,,,A*75
$GPGGA,222939.750,4305.2576,N,07740.6823,W,1,07,1.34,163.3,M,-34.4,M,,*5A
lng=-77.678070, lat=43.087631, altitude=163.20, speed=18.67, satellites=7, angle=88.8000, fixquality=1
$GPRMC,222940.000,A,4305.2577,N,07740.6805,W,18.77,88.33,180924,,,A*76
$GPGGA,222940.250,4305.2578,N,07740.6787,W,1,07,1.34,163.4,M,-34.4,M,,*59
lng=-77.678009, lat=43.087631, altitude=163.30, speed=18.77, satellites=7, angle=88.3300, fixquality=1
$GPRMC,222940.500,A,4305.2578,N,07740.6769,W,18.88,88.03,180924,,,A*7A
$GPGGA,222940.750,4305.2578,N,07740.6750,W,1,07,1.34,163.6,M,-34.4,M,,*54
lng=-77.677947, lat=43.087631, altitude=163.40, speed=18.88, satellites=7, angle=88.0300, fixquality=1
$GPRMC,222941.000,A,4305.2579,N,07740.6732,W,18.96,88.63,180924,,,A*78
$GPGGA,222941.250,4305.2579,N,07740.6714,W,1,07,1.34,163.7,M,-34.4,M,,*50
lng=-77.677886, lat=43.087631, altitude=163.60, speed=18.96, satellites=7, angle=88.6300, fixquality=1
$GPRMC,222941.500,A,4305.2580,N,07740.6696,W,18.96,89.22,180924,,,A*70
$GPGGA,222941.750,4305.2580,N,07740.6679,W,1,07,1.34,163.7,M,-34.4,M,,*59
lng=-77.677825, lat=43.087631, altitude=163.70, speed=18.96, satellites=7, angle=89.2200, fixquality=1
$GPRMC,222942.000,A,4305.2581,N,07740.6662,W,18.45,89.40,180924,,,A*76
$GPGGA,222942.250,4305.2581,N,07740.6645,W,1,07,1.34,163.8,M,-34.4,M,,*5E
lng=-77.677764, lat=43.087638, altitude=163.70, speed=18.45, satellites=7, angle=89.4000, fixquality=1
$GPRMC,222942.500,A,4305.2581,N,07740.6628,W,17.96,89.80,180924,,,A*70
$GPGGA,222942.750,4305.2580,N,07740.6611,W,1,07,1.34,164.0,M,-34.4,M,,*54
lng=-77.677711, lat=43.087638, altitude=163.80, speed=17.96, satellites=7, angle=89.8000, fixquality=1
$GPRMC,222943.000,A,4305.2581,N,07740.6595,W,17.43,89.49,180924,,,A*7C
$GPGGA,222943.250,4305.2581,N,07740.6579,W,1,07,1.34,164.0,M,-34.4,M,,*5C
lng=-77.677658, lat=43.087638, altitude=164.00, speed=17.43, satellites=7, angle=89.4900, fixquality=1
$GPRMC,222943.500,A,4305.2581,N,07740.6563,W,16.98,89.32,180924,,,A*7B
$GPGGA,222943.750,4305.2582,N,07740.6547,W,1,07,1.34,164.0,M,-34.4,M,,*57
lng=-77.677604, lat=43.087638, altitude=164.00, speed=16.98, satellites=7, angle=89.3200, fixquality=1
$GPRMC,222944.000,A,4305.2583,N,07740.6532,W,16.58,88.90,180924,,,A*7A
$GPGGA,222944.250,4305.2584,N,07740.6516,W,1,07,1.34,164.0,M,-34.4,M,,*57
lng=-77.677558, lat=43.087638, altitude=164.00, speed=16.58, satellites=7, angle=88.9000, fixquality=1
$GPRMC,222944.500,A,4305.2584,N,07740.6500,W,16.28,88.96,180924,,,A*78
$GPGGA,222944.750,4305.2584,N,07740.6484,W,1,06,1.37,163.9,M,-34.4,M,,*54
lng=-77.677497, lat=43.087638, altitude=164.00, speed=16.28, satellites=7, angle=88.9600, fixquality=1
$GPRMC,222945.000,A,4305.2585,N,07740.6468,W,15.81,88.61,180924,,,A*7A
$GPGGA,222945.250,4305.2585,N,07740.6452,W,1,07,1.34,163.9,M,-34.4,M,,*58
lng=-77.677452, lat=43.087638, altitude=163.90, speed=15.81, satellites=6, angle=88.6100, fixquality=1
$GPRMC,222945.500,A,4305.2585,N,07740.6437,W,15.75,88.55,180924,,,A*79
$GPGGA,222945.750,4305.2585,N,07740.6422,W,1,07,1.34,163.8,M,-34.4,M,,*5B
lng=-77.677391, lat=43.087638, altitude=163.90, speed=15.75, satellites=7, angle=88.5500, fixquality=1
$GPRMC,222946.000,A,4305.2585,N,07740.6408,W,15.44,88.47,180924,,,A*72
$GPGGA,222946.250,4305.2585,N,07740.6394,W,1,07,1.34,163.8,M,-34.4,M,,*57
lng=-77.677345, lat=43.087638, altitude=163.80, speed=15.44, satellites=7, angle=88.4700, fixquality=1
$GPRMC,222946.500,A,4305.2585,N,07740.6379,W,14.91,88.32,180924,,,A*7D
$GPGGA,222946.750,4305.2584,N,07740.6365,W,1,07,1.34,163.8,M,-34.4,M,,*5D
lng=-77.677291, lat=43.087638, altitude=163.80, speed=14.91, satellites=7, angle=88.3200, fixquality=1
$GPRMC,222947.000,A,4305.2585,N,07740.6351,W,14.32,87.90,180924,,,A*7D
$GPGGA,222947.250,4305.2585,N,07740.6338,W,1,07,1.34,163.8,M,-34.4,M,,*50
lng=-77.677253, lat=43.087638, altitude=163.80, speed=14.32, satellites=7, angle=87.9000, fixquality=1
$GPRMC,222947.500,A,4305.2585,N,07740.6325,W,13.68,87.93,180924,,,A*70
$GPGGA,222947.750,4305.2585,N,07740.6313,W,1,07,1.34,163.9,M,-34.4,M,,*5D
lng=-77.677207, lat=43.087638, altitude=163.80, speed=13.68, satellites=7, angle=87.9300, fixquality=1
$GPRMC,222948.000,A,4305.2585,N,07740.6301,W,12.59,89.09,180924,,,A*72
$GPGGA,222948.250,4305.2586,N,07740.6290,W,1,07,1.34,163.9,M,-34.4,M,,*5E
lng=-77.677162, lat=43.087638, altitude=163.90, speed=12.59, satellites=7, angle=89.0900, fixquality=1
$GPRMC,222948.500,A,4305.2586,N,07740.6280,W,11.29,89.54,180924,,,A*70
$GPGGA,222948.750,4305.2587,N,07740.6270,W,1,07,1.34,163.9,M,-34.4,M,,*54
lng=-77.677131, lat=43.087646, altitude=163.90, speed=11.29, satellites=7, angle=89.5400, fixquality=1
$GPRMC,222949.000,A,4305.2588,N,07740.6262,W,9.52,89.26,180924,,,A*46
$GPGGA,222949.250,4305.2588,N,07740.6254,W,1,07,1.34,163.9,M,-34.4,M,,*59
lng=-77.677101, lat=43.087646, altitude=163.90, speed=9.52, satellites=7, angle=89.2600, fixquality=1
$GPRMC,222949.500,A,4305.2588,N,07740.6247,W,8.13,89.44,180924,,,A*44
$GPGGA,222949.750,4305.2589,N,07740.6240,W,1,07,1.34,163.9,M,-34.4,M,,*58
lng=-77.677078, lat=43.087646, altitude=163.90, speed=8.13, satellites=7, angle=89.4400, fixquality=1
$GPRMC,222950.000,A,4305.2588,N,07740.6235,W,6.53,91.40,180924,,,A*4B
$GPGGA,222950.250,4305.2589,N,07740.6230,W,1,07,1.34,164.0,M,-34.4,M,,*5C
lng=-77.677055, lat=43.087646, altitude=163.90, speed=6.53, satellites=7, angle=91.4000, fixquality=1
$GPRMC,222950.500,A,4305.2588,N,07740.6226,W,5.22,91.99,180924,,,A*4D
$GPGGA,222950.750,4305.2588,N,07740.6222,W,1,07,1.34,164.1,M,-34.4,M,,*5A
lng=-77.677040, lat=43.087646, altitude=164.00, speed=5.22, satellites=7, angle=91.9900, fixquality=1
$GPRMC,222951.000,A,4305.2587,N,07740.6219,W,3.92,97.48,180924,,,A*4D
$GPGGA,222951.250,4305.2587,N,07740.6217,W,1,07,1.34,164.2,M,-34.4,M,,*54
lng=-77.677032, lat=43.087646, altitude=164.10, speed=3.92, satellites=7, angle=97.4800, fixquality=1
$GPRMC,222951.500,A,4305.2587,N,07740.6215,W,3.03,98.30,180924,,,A*4C
$GPGGA,222951.750,4305.2586,N,07740.6215,W,1,07,1.26,164.2,M,-34.4,M,,*51
lng=-77.677024, lat=43.087646, altitude=164.20, speed=3.03, satellites=7, angle=98.3000, fixquality=1
$GPRMC,222952.000,A,4305.2586,N,07740.6215,W,2.01,98.30,180924,,,A*48
$GPGGA,222952.250,4305.2585,N,07740.6214,W,1,07,1.26,164.2,M,-34.4,M,,*55
lng=-77.677024, lat=43.087646, altitude=164.20, speed=2.01, satellites=7, angle=98.3000, fixquality=1
$GPGGA,222955.250,4305.2584,N,07740.6202,W,1,07,1.26,164.5,M,-34.4,M,,*53
$GPRMC,222955.250,A,4305.2584,N,07740.6202,W,1.45,98.30,180924,,,A*4F
lng=-77.677001, lat=43.087638, altitude=164.50, speed=1.41, satellites=7, angle=98.3000, fixquality=1
$GPGGA,222955.500,4305.2584,N,07740.6200,W,1,07,1.26,164.6,M,-34.4,M,,*50
$GPRMC,222955.500,A,4305.2584,N,07740.6200,W,1.53,98.30,180924,,,A*48
lng=-77.677001, lat=43.087638, altitude=164.60, speed=1.45, satellites=7, angle=98.3000, fixquality=1
$GPGGA,222957.000,4305.2583,N,07740.6186,W,1,07,1.26,164.6,M,-34.4,M,,*5D
$GPRMC,222957.000,A,4305.2583,N,07740.6186,W,2.51,91.14,180924,,,A*4B
lng=-77.676979, lat=43.087638, altitude=164.60, speed=2.16, satellites=7, angle=95.2900, fixquality=1
$GPGGA,222957.250,4305.2583,N,07740.6183,W,1,07,1.26,164.6,M,-34.4,M,,*5F
$GPRMC,222957.250,A,4305.2583,N,07740.6183,W,2.67,88.22,180924,,,A*41
lng=-77.676971, lat=43.087638, altitude=164.60, speed=2.51, satellites=7, angle=91.1400, fixquality=1
$GPGGA,222957.500,4305.2583,N,07740.6180,W,1,07,1.26,164.6,M,-34.4,M,,*5E
$GPRMC,222957.500,A,4305.2583,N,07740.6180,W,2.71,85.55,180924,,,A*4A
lng=-77.676971, lat=43.087638, altitude=164.60, speed=2.67, satellites=7, angle=88.2200, fixquality=1
$GPGGA,222957.750,4305.2583,N,07740.6177,W,1,07,1.26,164.6,M,-34.4,M,,*51
$GPRMC,222957.750,A,4305.2583,N,07740.6177,W,2.87,86.55,180924,,,A*4F
lng=-77.676963, lat=43.087638, altitude=164.60, speed=2.71, satellites=7, angle=85.5500, fixquality=1
$GPGGA,222958.000,4305.2582,N,07740.6173,W,1,07,1.26,164.6,M,-34.4,M,,*59
$GPRMC,222958.000,A,4305.2582,N,07740.6173,W,2.86,88.03,180924,,,A*4B
lng=-77.676956, lat=43.087638, altitude=164.60, speed=2.87, satellites=7, angle=86.5500, fixquality=1
$GPGGA,222958.250,4305.2582,N,07740.6170,W,1,07,1.26,164.6,M,-34.4,M,,*5D
$GPRMC,222958.250,A,4305.2582,N,07740.6170,W,2.82,90.28,180924,,,A*4B
lng=-77.676956, lat=43.087638, altitude=164.60, speed=2.86, satellites=7, angle=88.0300, fixquality=1
$GPGGA,222958.500,4305.2582,N,07740.6168,W,1,07,1.26,164.6,M,-34.4,M,,*56
$GPRMC,222958.500,A,4305.2582,N,07740.6168,W,2.76,91.90,180924,,,A*49
lng=-77.676948, lat=43.087638, altitude=164.60, speed=2.82, satellites=7, angle=90.2800, fixquality=1
$GPGGA,222958.750,4305.2581,N,07740.6165,W,1,07,1.26,164.6,M,-34.4,M,,*5F
$GPRMC,222958.750,A,4305.2581,N,07740.6165,W,2.68,92.46,180924,$GPGGA,222959.000,4305.2582,N,07740.6163,W,1,07,1.26,164.7,M,-34.4,M,,*58
lng=-77.676948, lat=43.087638, altitude=164.60, speed=2.76, satellites=7, angle=91.9000, fixquality=1
$GPRMC,222959.250,A,4305.2581,N,07740.6161,W,2.17,93.35,180924,,,A*4A
$GPGGA,222959.500,4305.2581,N,07740.6159,W,1,07,1.26,164.7,M,-34.4,M,,*57
lng=-77.676933, lat=43.087638, altitude=164.60, speed=2.17, satellites=7, angle=93.3500, fixquality=1
$GPGGA,223014.000,4305.2579,N,07740.6148,W,1,07,1.26,165.4,M,-34.4,M,,*56
$GPRMC,223014.000,A,4305.2579,N,07740.6148,W,1.68,45.23,180924,,,A*47
lng=-77.676910, lat=43.087631, altitude=165.40, speed=1.28, satellites=7, angle=115.3500, fixquality=1
$GPGGA,223014.250,4305.2579,N,07740.6144,W,1,07,1.26,165.4,M,-34.4,M,,*5D
$GPRMC,223014.250,A,4305.2579,N,07740.6144,W,2.05,53.79,180924,,,A*4C
lng=-77.676902, lat=43.087631, altitude=165.40, speed=1.68, satellites=7, angle=45.2300, fixquality=1
$GPRMC,223014.500,A,4305.2580,N,07740.6141,W,2.76,69.39,180924,,,A*44
$GPGGA,223014.750,4305.2582,N,07740.6135,W,1,07,1.26,165.5,M,-34.4,M,,*5B
lng=-77.676902, lat=43.087631, altitude=165.40, speed=2.76, satellites=7, angle=69.3900, fixquality=1
$GPRMC,223015.000,A,4305.2583,N,07740.6130,W,4.24,72.59,180924,,,A*48
$GPGGA,223015.250,4305.2583,N,07740.6125,W,1,07,1.34,165.6,M,-34.4,M,,*5F
lng=-77.676879, lat=43.087638, altitude=165.50, speed=4.24, satellites=7, angle=72.5900, fixquality=1
$GPRMC,223015.500,A,4305.2584,N,07740.6119,W,4.85,76.24,180924,,,A*44
$GPGGA,223015.750,4305.2584,N,07740.6112,W,1,07,1.34,165.7,M,-34.4,M,,*58
lng=-77.676864, lat=43.087638, altitude=165.60, speed=4.85, satellites=7, angle=76.2400, fixquality=1
$GPRMC,223016.000,A,4305.2585,N,07740.6104,W,5.69,79.41,180924,,,A*40
$GPGGA,223016.250,4305.2585,N,07740.6096,W,1,07,1.34,165.7,M,-34.4,M,,*52
lng=-77.676841, lat=43.087638, altitude=165.70, speed=5.69, satellites=7, angle=79.4100, fixquality=1
$GPRMC,223016.500,A,4305.2585,N,07740.6089,W,6.32,82.29,180924,,,A*46
$GPGGA,223016.750,4305.2585,N,07740.6081,W,1,07,1.34,165.8,M,-34.4,M,,*5E
lng=-77.676811, lat=43.087638, altitude=165.70, speed=6.32, satellites=7, angle=82.2900, fixquality=1
$GPRMC,223017.000,A,4305.2586,N,07740.6073,W,7.21,84.25,180924,,,A*4D
$GPGGA,223017.250,4305.2586,N,07740.6065,W,1,07,1.34,165.8,M,-34.4,M,,*53
lng=-77.676788, lat=43.087646, altitude=165.80, speed=7.21, satellites=7, angle=84.2500, fixquality=1
$GPRMC,223017.500,A,4305.2586,N,07740.6057,W,7.85,85.31,180924,,,A*44
$GPGGA,223017.750,4305.2586,N,07740.6048,W,1,07,1.34,165.9,M,-34.4,M,,*58
lng=-77.676757, lat=43.087646, altitude=165.80, speed=7.85, satellites=7, angle=85.3100, fixquality=1
$GPRMC,223018.000,A,4305.2586,N,07740.6038,W,9.00,86.21,180924,,,A*46
$GPGGA,223018.250,4305.2586,N,07740.6028,W,1,07,1.34,165.9,M,-34.4,M,,*54
lng=-77.676734, lat=43.087646, altitude=165.90, speed=9.00, satellites=7, angle=86.2100, fixquality=1
$GPRMC,223018.500,A,4305.2586,N,07740.6019,W,9.81,87.27,180924,,,A*4E
$GPGGA,223018.750,4305.2586,N,07740.6009,W,1,07,1.34,166.1,M,-34.4,M,,*59
lng=-77.676704, lat=43.087646, altitude=165.90, speed=9.81, satellites=7, angle=87.2700, fixquality=1
$GPRMC,223019.000,A,4305.2586,N,07740.5998,W,10.91,88.07,180924,,,A*7D
$GPGGA,223019.250,4305.2587,N,07740.5987,W,1,07,1.34,166.2,M,-34.4,M,,*53
lng=-77.676658, lat=43.087646, altitude=166.10, speed=10.91, satellites=7, angle=88.0700, fixquality=1
$GPRMC,223019.500,A,4305.2587,N,07740.5975,W,11.77,88.11,180924,,,A*74
$GPGGA,223019.750,4305.2587,N,07740.5963,W,1,07,1.34,166.3,M,-34.4,M,,*5D
lng=-77.676628, lat=43.087646, altitude=166.20, speed=11.77, satellites=7, angle=88.1100, fixquality=1
$GPRMC,223020.000,A,4305.2586,N,07740.5950,W,12.75,88.61,180924,,,A*7B
$GPGGA,223020.250,4305.2586,N,07740.5937,W,1,07,1.34,166.4,M,-34.4,M,,*55
lng=-77.676589, lat=43.087646, altitude=166.30, speed=12.75, satellites=7, angle=88.6100, fixquality=1
$GPRMC,223020.500,A,4305.2587,N,07740.5923,W,13.45,88.44,180924,,,A*7E
$GPGGA,223020.750,4305.2587,N,07740.5909,W,1,07,1.34,166.4,M,-34.4,M,,*5C
lng=-77.676536, lat=43.087646, altitude=166.40, speed=13.45, satellites=7, angle=88.4400, fixquality=1
$GPRMC,223021.000,A,4305.2587,N,07740.5895,W,14.16,88.37,180924,,,A*73
$GPGGA,223021.250,4305.2587,N,07740.5881,W,1,07,1.34,166.4,M,-34.4,M,,*59
lng=-77.676490, lat=43.087646, altitude=166.40, speed=14.16, satellites=7, angle=88.3700, fixquality=1
$GPRMC,223021.500,A,4305.2587,N,07740.5867,W,14.53,88.62,180924,,,A*7A
$GPGGA,223021.750,4305.2587,N,07740.5853,W,1,07,1.34,166.5,M,-34.4,M,,*52
lng=-77.676445, lat=43.087646, altitude=166.40, speed=14.53, satellites=7, angle=88.6200, fixquality=1
$GPRMC,223022.000,A,4305.2587,N,07740.5838,W,14.80,89.06,180924,,,A*7B
$GPGGA,223022.250,4305.2588,N,07740.5824,W,1,07,1.34,166.5,M,-34.4,M,,*5B
lng=-77.676399, lat=43.087646, altitude=166.50, speed=14.80, satellites=7, angle=89.0600, fixquality=1
$GPRMC,223022.500,A,4305.2589,N,07740.5808,W,15.18,89.38,180924,,,A*7E
$GPGGA,223022.750,4305.2590,N,07740.5792,W,1,07,1.34,166.5,M,-34.4,M,,*55
lng=-77.676345, lat=43.087646, altitude=166.50, speed=15.18, satellites=7, angle=89.3800, fixquality=1
$GPRMC,223023.000,A,4305.2591,N,07740.5775,W,15.77,89.28,180924,,,A*7E
$GPGGA,223023.250,4305.2591,N,07740.5757,W,1,07,1.34,166.6,M,-34.4,M,,*5A
lng=-77.676292, lat=43.087654, altitude=166.50, speed=15.77, satellites=7, angle=89.2800, fixquality=1
$GPRMC,223023.500,A,4305.2592,N,07740.5742,W,16.10,89.15,180924,,,A*70
$GPGGA,223023.750,4305.2593,N,07740.5726,W,1,07,1.34,166.7,M,-34.4,M,,*5A
lng=-77.676239, lat=43.087654, altitude=166.60, speed=16.10, satellites=7, angle=89.1500, fixquality=1
$GPRMC,223024.000,A,4305.2594,N,07740.5710,W,16.20,89.00,180924,,,A*74
$GPGGA,223024.250,4305.2595,N,07740.5693,W,1,07,1.34,166.7,M,-34.4,M,,*51
lng=-77.676177, lat=43.087654, altitude=166.70, speed=16.20, satellites=7, angle=89.0000, fixquality=1
$GPRMC,223024.500,A,4305.2595,N,07740.5678,W,16.40,89.41,180924,,,A*7C
$GPGGA,223024.750,4305.2596,N,07740.5663,W,1,07,1.34,166.7,M,-34.4,M,,*58
lng=-77.676132, lat=43.087654, altitude=166.70, speed=16.40, satellites=7, angle=89.4100, fixquality=1
$GPRMC,223025.000,A,4305.2596,N,07740.5647,W,16.36,89.30,180924,,,A*70
$GPGGA,223025.250,4305.2597,N,07740.5631,W,1,07,1.34,166.8,M,-34.4,M,,*55
lng=-77.676078, lat=43.087661, altitude=166.70, speed=16.36, satellites=7, angle=89.3000, fixquality=1
$GPRMC,223025.500,A,4305.2598,N,07740.5615,W,16.15,89.66,180924,,,A*7E
$GPGGA,223025.750,4305.2598,N,07740.5600,W,1,07,1.35,166.7,M,-34.4,M,,*53
lng=-77.676025, lat=43.087661, altitude=166.80, speed=16.15, satellites=7, angle=89.6600, fixquality=1
$GPRMC,223026.000,A,4305.2599,N,07740.5585,W,15.90,89.73,180924,,,A*79
$GPGGA,223026.250,4305.2599,N,07740.5570,W,1,07,1.35,166.6,M,-34.4,M,,*51
lng=-77.675979, lat=43.087661, altitude=166.70, speed=15.90, satellites=7, angle=89.7300, fixquality=1
$GPRMC,223026.500,A,4305.2600,N,07740.5555,W,15.80,89.94,180924,,,A*7A
$GPGGA,223026.750,4305.2600,N,07740.5540,W,1,07,1.35,166.5,M,-34.4,M,,*57
lng=-77.675926, lat=43.087661, altitude=166.60, speed=15.80, satellites=7, angle=89.9400, fixquality=1
$GPRMC,223027.000,A,4305.2601,N,07740.5526,W,15.27,89.49,180924,,,A*76
$GPGGA,223027.250,4305.2601,N,07740.5512,W,1,07,1.35,166.4,M,-34.4,M,,*54
lng=-77.675880, lat=43.087669, altitude=166.50, speed=15.27, satellites=7, angle=89.4900, fixquality=1
$GPRMC,223027.500,A,4305.2601,N,07740.5498,W,14.88,89.15,180924,,,A*7A
$GPGGA,223027.750,4305.2601,N,07740.5484,W,1,07,1.35,166.3,M,-34.4,M,,*58
lng=-77.675827, lat=43.087669, altitude=166.40, speed=14.88, satellites=7, angle=89.1500, fixquality=1
$GPRMC,223028.000,A,4305.2601,N,07740.5471,W,14.44,89.59,180924,,,A*7F
$GPGGA,223028.250,4305.2602,N,07740.5458,W,1,07,1.35,166.1,M,-34.4,M,,*52
lng=-77.675781, lat=43.087669, altitude=166.30, speed=14.44, satellites=7, angle=89.5900, fixquality=1
$GPRMC,223028.500,A,4305.2602,N,07740.5444,W,14.33,89.51,180924,,,A*77
$GPGGA,223028.750,4305.2602,N,07740.5431,W,1,07,1.35,166.0,M,-34.4,M,,*59
lng=-77.675743, lat=43.087669, altitude=166.10, speed=14.33, satellites=7, angle=89.5100, fixquality=1
$GPRMC,223029.000,A,4305.2602,N,07740.5419,W,13.74,89.24,180924,,,A*7D
$GPGGA,223029.250,4305.2603,N,07740.5406,W,1,07,1.35,165.9,M,-34.4,M,,*52
lng=-77.675697, lat=43.087669, altitude=166.00, speed=13.74, satellites=7, angle=89.2400, fixquality=1
$GPRMC,223029.500,A,4305.2603,N,07740.5393,W,13.49,88.90,180924,,,A*7C
$GPGGA,223029.750,4305.2603,N,07740.5381,W,1,07,1.35,165.9,M,-34.4,M,,*5F
lng=-77.675651, lat=43.087669, altitude=165.90, speed=13.49, satellites=7, angle=88.9000, fixquality=1
$GPRMC,223030.000,A,4305.2603,N,07740.5369,W,13.12,89.68,180924,,,A*7C
$GPGGA,223030.250,4305.2604,N,07740.5357,W,1,07,1.35,166.0,M,-34.4,M,,*54
lng=-77.675621, lat=43.087669, altitude=165.90, speed=13.12, satellites=7, angle=89.6800, fixquality=1
$GPRMC,223030.500,A,4305.2604,N,07740.5345,W,13.06,90.22,180924,,,A*73
$GPGGA,223030.750,4305.2605,N,07740.5334,W,1,07,1.35,166.0,M,-34.4,M,,*55
lng=-77.675575, lat=43.087669, altitude=166.00, speed=13.06, satellites=7, angle=90.2200, fixquality=1
$GPRMC,223031.000,A,4305.2606,N,07740.5323,W,12.62,90.42,180924,,,A*70
$GPGGA,223031.250,4305.2605,N,07740.5313,W,1,07,1.35,166.2,M,-34.4,M,,*56
lng=-77.675537, lat=43.087680, altitude=166.00, speed=12.62, satellites=7, angle=90.4200, fixquality=1
$GPRMC,223031.500,A,4305.2605,N,07740.5302,W,12.35,91.17,180924,,,A*76
$GPGGA,223031.750,4305.2605,N,07740.5292,W,1,07,1.35,166.2,M,-34.4,M,,*5B
lng=-77.675506, lat=43.087680, altitude=166.20, speed=12.35, satellites=7, angle=91.1700, fixquality=1
$GPRMC,223032.000,A,4305.2605,N,07740.5281,W,11.85,90.27,180924,,,A*70
$GPGGA,223032.250,4305.2605,N,07740.5270,W,1,07,1.35,166.1,M,-34.4,M,,*52
lng=-77.675468, lat=43.087680, altitude=166.20, speed=11.85, satellites=7, angle=90.2700, fixquality=1
$GPRMC,223032.500,A,4305.2605,N,07740.5259,W,11.29,89.29,180924,,,A*70
$GPGGA,223032.750,4305.2605,N,07740.5249,W,1,07,1.35,166.2,M,-34.4,M,,*5E
lng=-77.675430, lat=43.087680, altitude=166.10, speed=11.29, satellites=7, angle=89.2900, fixquality=1
$GPRMC,223033.000,A,4305.2605,N,07740.5238,W,11.14,89.62,180924,,,A*72
$GPGGA,223033.250,4305.2605,N,07740.5228,W,1,07,1.35,166.2,M,-34.4,M,,*5D
lng=-77.675399, lat=43.087680, altitude=166.20, speed=11.14, satellites=7, angle=89.6200, fixquality=1
$GPRMC,223033.500,A,4305.2605,N,07740.5218,W,10.96,88.32,180924,,,A*7A
$GPGGA,223033.750,4305.2605,N,07740.5209,W,1,07,1.35,166.2,M,-34.4,M,,*5B
lng=-77.675369, lat=43.087680, altitude=166.20, speed=10.96, satellites=7, angle=88.3200, fixquality=1
$GPRMC,223034.000,A,4305.2606,N,07740.5199,W,10.94,88.21,180924,,,A*71
$GPGGA,223034.250,4305.2606,N,07740.5188,W,1,07,1.35,166.3,M,-34.4,M,,*51
lng=-77.675331, lat=43.087680, altitude=166.20, speed=10.94, satellites=7, angle=88.2100, fixquality=1
$GPRMC,223034.500,A,4305.2606,N,07740.5178,W,11.19,87.56,180924,,,A*70
$GPGGA,223034.750,4305.2607,N,07740.5168,W,1,07,1.35,166.4,M,-34.4,M,,*5C
lng=-77.675292, lat=43.087680, altitude=166.30, speed=11.19, satellites=7, angle=87.5600, fixquality=1
$GPRMC,223035.000,A,4305.2608,N,07740.5157,W,11.65,87.03,180924,,,A*7C
$GPGGA,223035.250,4305.2609,N,07740.5146,W,1,07,1.35,166.4,M,-34.4,M,,*5A
lng=-77.675262, lat=43.087680, altitude=166.40, speed=11.65, satellites=7, angle=87.0300, fixquality=1
$GPRMC,223035.500,A,4305.2609,N,07740.5134,W,11.77,86.43,180924,,,A*7B
$GPGGA,223035.750,4305.2610,N,07740.5123,W,1,07,1.35,166.4,M,-34.4,M,,*54
lng=-77.675216, lat=43.087680, altitude=166.40, speed=11.77, satellites=7, angle=86.4300, fixquality=1
$GPRMC,223036.000,A,4305.2611,N,07740.5112,W,11.77,87.19,180924,,,A*7E
$GPGGA,223036.250,4305.2611,N,07740.5101,W,1,07,1.35,166.4,M,-34.4,M,,*53
lng=-77.675186, lat=43.087688, altitude=166.40, speed=11.77, satellites=7, angle=87.1900, fixquality=1
$GPRMC,223036.500,A,4305.2611,N,07740.5090,W,11.72,88.27,180924,,,A*77
$GPGGA,223036.750,4305.2611,N,07740.5080,W,1,07,1.35,166.6,M,-34.4,M,,*5C
lng=-77.675148, lat=43.087688, altitude=166.40, speed=11.72, satellites=7, angle=88.2700, fixquality=1
$GPRMC,223037.000,A,4305.2611,N,07740.5069,W,11.34,88.83,180924,,,A*79
$GPGGA,223037.250,4305.2610,N,07740.5058,W,1,07,1.35,166.7,M,-34.4,M,,*5D
lng=-77.675117, lat=43.087688, altitude=166.60, speed=11.34, satellites=7, angle=88.8300, fixquality=1
$GPRMC,223037.500,A,4305.2610,N,07740.5047,W,11.11,89.54,180924,,,A*7D
$GPGGA,223037.750,4305.2609,N,07740.5036,W,1,07,1.35,166.9,M,-34.4,M,,*56
lng=-77.675079, lat=43.087688, altitude=166.70, speed=11.11, satellites=7, angle=89.5400, fixquality=1
$GPRMC,223038.000,A,4305.2609,N,07740.5026,W,10.86,89.45,180924,,,A*77
$GPGGA,223038.250,4305.2609,N,07740.5015,W,1,07,1.35,167.0,M,-34.4,M,,*55
lng=-77.675041, lat=43.087680, altitude=166.90, speed=10.86, satellites=7, angle=89.4500, fixquality=1
$GPRMC,223038.500,A,4305.2609,N,07740.5005,W,10.34,89.26,180924,,,A*7F
$GPGGA,223038.750,4305.2609,N,07740.4995,W,1,07,1.35,167.0,M,-34.4,M,,*50
lng=-77.675010, lat=43.087680, altitude=167.00, speed=10.34, satellites=7, angle=89.2600, fixquality=1
$GPRMC,223039.000,A,4305.2608,N,07740.4985,W,9.75,90.35,180924,,,A*4D
$GPGGA,223039.250,4305.2608,N,07740.4975,W,1,07,1.35,167.0,M,-34.4,M,,*5B
lng=-77.674972, lat=43.087680, altitude=167.00, speed=9.75, satellites=7, angle=90.3500, fixquality=1
$GPRMC,223039.500,A,4305.2607,N,07740.4966,W,9.33,91.71,180924,,,A*49
$GPGGA,223039.750,4305.2608,N,07740.4957,W,1,07,1.35,167.1,M,-34.4,M,,*5F
lng=-77.674942, lat=43.087680, altitude=167.00, speed=9.33, satellites=7, angle=91.7100, fixquality=1
$GPRMC,223040.000,A,4305.2607,N,07740.4948,W,8.96,92.49,180924,,,A*48
$GPGGA,223040.250,4305.2604,N,07740.4940,W,1,07,1.35,167.2,M,-34.4,M,,*5D
lng=-77.674911, lat=43.087680, altitude=167.10, speed=8.96, satellites=7, angle=92.4900, fixquality=1
$GPRMC,223040.500,A,4305.2602,N,07740.4932,W,8.68,93.43,180924,,,A*4F
$GPGGA,223040.750,4305.2599,N,07740.4925,W,1,07,1.35,167.2,M,-34.4,M,,*5C
lng=-77.674888, lat=43.087669, altitude=167.20, speed=8.68, satellites=7, angle=93.4300, fixquality=1
$GPRMC,223041.000,A,4305.2597,N,07740.4918,W,8.06,94.20,180924,,,A*46
$GPGGA,223041.250,4305.2594,N,07740.4911,W,1,07,1.35,167.3,M,-34.4,M,,*53
lng=-77.674858, lat=43.087661, altitude=167.20, speed=8.06, satellites=7, angle=94.2000, fixquality=1
$GPRMC,223041.500,A,4305.2592,N,07740.4904,W,7.84,95.01,180924,,,A*4C
$GPGGA,223041.750,4305.2590,N,07740.4896,W,1,07,1.35,167.2,M,-34.4,M,,*5D
lng=-77.674835, lat=43.087654, altitude=167.30, speed=7.84, satellites=7, angle=95.0100, fixquality=1
$GPRMC,223042.000,A,4305.2588,N,07740.4889,W,7.44,97.24,180924,,,A*4C
$GPGGA,223042.250,4305.2587,N,07740.4882,W,1,07,1.35,167.0,M,-34.4,M,,*5A
lng=-77.674812, lat=43.087646, altitude=167.20, speed=7.44, satellites=7, angle=97.2400, fixquality=1
$GPRMC,223042.500,A,4305.2586,N,07740.4874,W,7.35,102.76,180924,,,A*79
$GPGGA,223042.750,4305.2584,N,07740.4867,W,1,07,1.35,166.9,M,-34.4,M,,*5F
lng=-77.674789, lat=43.087646, altitude=167.00, speed=7.35, satellites=7, angle=102.7600, fixquality=1
$GPRMC,223043.000,A,4305.2582,N,07740.4860,W,7.32,108.70,180924,,,A*77
$GPGGA,223043.250,4305.2580,N,07740.4854,W,1,07,1.35,166.6,M,-34.4,M,,*50
lng=-77.674766, lat=43.087638, altitude=166.90, speed=7.32, satellites=7, angle=108.7000, fixquality=1
$GPRMC,223043.500,A,4305.2578,N,07740.4847,W,7.28,112.00,180924,,,A*75
$GPGGA,223043.750,4305.2576,N,07740.4840,W,1,07,1.35,166.5,M,-34.4,M,,*5A
lng=-77.674751, lat=43.087631, altitude=166.60, speed=7.28, satellites=7, angle=112.0000, fixquality=1
$GPRMC,223044.000,A,4305.2572,N,07740.4833,W,7.79,117.54,180924,,,A*7E
$GPGGA,223044.250,4305.2568,N,07740.4826,W,1,07,1.35,166.2,M,-34.4,M,,*50
lng=-77.674720, lat=43.087623, altitude=166.50, speed=7.79, satellites=7, angle=117.5400, fixquality=1
$GPRMC,223044.500,A,4305.2564,N,07740.4818,W,8.60,122.07,180924,,,A*72
$GPGGA,223044.750,4305.2560,N,07740.4811,W,1,07,1.35,166.2,M,-34.4,M,,*59
lng=-77.674697, lat=43.087604, altitude=166.20, speed=8.60, satellites=7, angle=122.0700, fixquality=1
$GPRMC,223045.000,A,4305.2555,N,07740.4803,W,9.31,124.76,180924,,,A*7B
$GPGGA,223045.250,4305.2551,N,07740.4795,W,1,07,1.35,166.1,M,-34.4,M,,*5F
lng=-77.674674, lat=43.087589, altitude=166.20, speed=9.31, satellites=7, angle=124.7600, fixquality=1
$GPRMC,223045.500,A,4305.2546,N,07740.4788,W,9.79,124.23,180924,,,A*7C
$GPGGA,223045.750,4305.2542,N,07740.4780,W,1,07,1.35,166.0,M,-34.4,M,,*5D
lng=-77.674652, lat=43.087574, altitude=166.10, speed=9.79, satellites=7, angle=124.2300, fixquality=1
$GPRMC,223046.000,A,4305.2539,N,07740.4772,W,10.13,118.86,180924,,,A*43
$GPGGA,223046.250,4305.2536,N,07740.4763,W,1,07,1.35,165.7,M,-34.4,M,,*51
lng=-77.674613, lat=43.087566, altitude=166.00, speed=10.13, satellites=7, angle=118.8600, fixquality=1
$GPRMC,223046.500,A,4305.2532,N,07740.4754,W,10.55,113.05,180924,,,A*4B
$GPGGA,223046.750,4305.2530,N,07740.4745,W,1,07,1.35,165.6,M,-34.4,M,,*57
lng=-77.674591, lat=43.087558, altitude=165.70, speed=10.55, satellites=7, angle=113.0500, fixquality=1
$GPRMC,223047.000,A,4305.2527,N,07740.4735,W,11.08,108.12,180924,,,A*49
$GPGGA,223047.250,4305.2525,N,07740.4725,W,1,07,1.35,165.6,M,-34.4,M,,*51
lng=-77.674560, lat=43.087547, altitude=165.60, speed=11.08, satellites=7, angle=108.1200, fixquality=1
$GPRMC,223047.500,A,4305.2521,N,07740.4716,W,11.25,104.37,180924,,,A*4F
$GPGGA,223047.750,4305.2519,N,07740.4706,W,1,07,1.35,165.7,M,-34.4,M,,*5B
lng=-77.674530, lat=43.087532, altitude=165.60, speed=11.25, satellites=7, angle=104.3700, fixquality=1
$GPRMC,223048.000,A,4305.2517,N,07740.4695,W,11.51,102.09,180924,,,A*42
$GPGGA,223048.250,4305.2516,N,07740.4683,W,1,07,1.35,165.8,M,-34.4,M,,*5D
lng=-77.674491, lat=43.087524, altitude=165.70, speed=11.51, satellites=7, angle=102.0900, fixquality=1
$GPRMC,223048.500,A,4305.2515,N,07740.4673,W,11.75,99.18,180924,,,A*78
$GPGGA,223048.750,4305.2515,N,07740.4662,W,1,07,1.35,166.0,M,-34.4,M,,*5F
lng=-77.674453, lat=43.087524, altitude=165.80, speed=11.75, satellites=7, angle=99.1800, fixquality=1
$GPRMC,223049.000,A,4305.2516,N,07740.4651,W,11.98,93.13,180924,,,A*7D
$GPGGA,223049.250,4305.2517,N,07740.4639,W,1,07,1.35,165.9,M,-34.4,M,,*5D
lng=-77.674423, lat=43.087524, altitude=166.00, speed=11.98, satellites=7, angle=93.1300, fixquality=1
$GPRMC,223049.500,A,4305.2518,N,07740.4628,W,12.31,88.43,180924,,,A*77
$GPGGA,223049.750,4305.2520,N,07740.4616,W,1,07,1.35,165.8,M,-34.4,M,,*50
lng=-77.674385, lat=43.087532, altitude=165.90, speed=12.31, satellites=7, angle=88.4300, fixquality=1
$GPRMC,223050.000,A,4305.2524,N,07740.4605,W,12.31,80.59,180924,,,A*79
$GPGGA,223050.250,4305.2528,N,07740.4594,W,1,07,1.35,165.9,M,-34.4,M,,*5D
lng=-77.674339, lat=43.087539, altitude=165.80, speed=12.31, satellites=7, angle=80.5900, fixquality=1
$GPRMC,223050.500,A,4305.2533,N,07740.4584,W,12.39,72.38,180924,,,A*72
$GPGGA,223050.750,4305.2540,N,07740.4575,W,1,07,1.35,166.2,M,-34.4,M,,*51
lng=-77.674308, lat=43.087558, altitude=165.90, speed=12.39, satellites=7, angle=72.3800, fixquality=1
$GPRMC,223051.000,A,4305.2546,N,07740.4566,W,11.91,57.36,180924,,,A*70
$GPGGA,223051.250,4305.2552,N,07740.4557,W,1,07,1.35,166.3,M,-34.4,M,,*57
lng=-77.674278, lat=43.087574, altitude=166.20, speed=11.91, satellites=7, angle=57.3600, fixquality=1
$GPRMC,223051.500,A,4305.2557,N,07740.4548,W,12.02,52.90,180924,,,A*79
$GPGGA,223051.750,4305.2562,N,07740.4539,W,1,07,1.35,166.5,M,-34.4,M,,*5F
lng=-77.674240, lat=43.087596, altitude=166.30, speed=12.02, satellites=7, angle=52.9000, fixquality=1
$GPRMC,223052.000,A,4305.2568,N,07740.4530,W,12.23,52.52,180924,,,A*71
$GPGGA,223052.250,4305.2573,N,07740.4521,W,1,07,1.35,166.7,M,-34.4,M,,*52
lng=-77.674217, lat=43.087612, altitude=166.50, speed=12.23, satellites=7, angle=52.5200, fixquality=1
$GPRMC,223052.500,A,4305.2578,N,07740.4511,W,11.99,55.10,180924,,,A*75
$GPGGA,223052.750,4305.2582,N,07740.4502,W,1,07,1.35,166.9,M,-34.4,M,,*56
lng=-77.674186, lat=43.087631, altitude=166.70, speed=11.99, satellites=7, angle=55.1000, fixquality=1
$GPRMC,223053.000,A,4305.2587,N,07740.4491,W,12.01,56.77,180924,,,A*78
$GPGGA,223053.250,4305.2591,N,07740.4481,W,1,07,1.35,167.1,M,-34.4,M,,*53
lng=-77.674156, lat=43.087646, altitude=166.90, speed=12.01, satellites=7, angle=56.7700, fixquality=1
$GPRMC,223053.500,A,4305.2594,N,07740.4471,W,11.81,63.19,180924,,,A*74
$GPGGA,223053.750,4305.2597,N,07740.4461,W,1,07,1.35,167.4,M,-34.4,M,,*5B
lng=-77.674118, lat=43.087654, altitude=167.10, speed=11.81, satellites=7, angle=63.1900, fixquality=1
$GPRMC,223054.000,A,4305.2600,N,07740.4450,W,11.78,68.95,180924,,,A*72
$GPGGA,223054.250,4305.2603,N,07740.4439,W,1,07,1.35,168.0,M,-34.4,M,,*51
lng=-77.674079, lat=43.087661, altitude=167.40, speed=11.78, satellites=7, angle=68.9500, fixquality=1
$GPRMC,223054.500,A,4305.2604,N,07740.4428,W,11.81,73.72,180924,,,A*79
$GPGGA,223054.750,4305.2606,N,07740.4417,W,1,07,1.35,168.3,M,-34.4,M,,*5E
lng=-77.674049, lat=43.087669, altitude=168.00, speed=11.81, satellites=7, angle=73.7200, fixquality=1
$GPRMC,223055.000,A,4305.2607,N,07740.4406,W,11.71,77.06,180924,,,A*7A
$GPGGA,223055.250,4305.2608,N,07740.4395,W,1,07,1.35,168.5,M,-34.4,M,,*5F
lng=-77.674003, lat=43.087680, altitude=168.30, speed=11.71, satellites=7, angle=77.0600, fixquality=1
$GPRMC,223055.500,A,4305.2610,N,07740.4385,W,11.52,80.23,180924,,,A*7B
$GPGGA,223055.750,4305.2612,N,07740.4374,W,1,07,1.35,168.8,M,-34.4,M,,*53
lng=-77.673973, lat=43.087688, altitude=168.50, speed=11.52, satellites=7, angle=80.2300, fixquality=1
$GPRMC,223056.000,A,4305.2614,N,07740.4363,W,11.32,81.22,180924,,,A*77
$GPGGA,223056.250,4305.2616,N,07740.4352,W,1,07,1.35,169.0,M,-34.4,M,,*5C
lng=-77.673942, lat=43.087688, altitude=168.80, speed=11.32, satellites=7, angle=81.2200, fixquality=1
$GPRMC,223056.500,A,4305.2617,N,07740.4342,W,11.25,83.18,180924,,,A*7F
$GPGGA,223056.750,4305.2619,N,07740.4331,W,1,07,1.35,169.0,M,-34.4,M,,*53
lng=-77.673904, lat=43.087696, altitude=169.00, speed=11.25, satellites=7, angle=83.1800, fixquality=1
$GPRMC,223057.000,A,4305.2620,N,07740.4320,W,11.33,85.73,180924,,,A*77
$GPGGA,223057.250,4305.2621,N,07740.4309,W,1,07,1.35,169.0,M,-34.4,M,,*57
lng=-77.673866, lat=43.087703, altitude=169.00, speed=11.33, satellites=7, angle=85.7300, fixquality=1
$GPRMC,223057.500,A,4305.2621,N,07740.4298,W,11.53,87.18,180924,,,A*78
$GPGGA,223057.750,4305.2621,N,07740.4287,W,1,07,1.35,168.9,M,-34.4,M,,*5D
lng=-77.673828, lat=43.087703, altitude=169.00, speed=11.53, satellites=7, angle=87.1800, fixquality=1
$GPRMC,223058.000,A,4305.2622,N,07740.4275,W,11.76,88.15,180924,,,A*77
$GPGGA,223058.250,4305.2622,N,07740.4264,W,1,07,1.35,168.8,M,-34.4,M,,*58
lng=-77.673797, lat=43.087703, altitude=168.90, speed=11.76, satellites=7, angle=88.1500, fixquality=1
$GPRMC,223058.500,A,4305.2622,N,07740.4253,W,12.02,88.86,180924,,,A*7C
$GPGGA,223058.750,4305.2622,N,07740.4241,W,1,07,1.35,168.8,M,-34.4,M,,*5A
lng=-77.673751, lat=43.087703, altitude=168.80, speed=12.02, satellites=7, angle=88.8600, fixquality=1
$GPRMC,223059.000,A,4305.2622,N,07740.4230,W,12.10,89.42,180924,,,A*77
$GPGGA,223059.250,4305.2622,N,07740.4219,W,1,07,1.35,168.6,M,-34.4,M,,*5D
lng=-77.673713, lat=43.087703, altitude=168.80, speed=12.10, satellites=7, angle=89.4200, fixquality=1
$GPRMC,223059.500,A,4305.2622,N,07740.4207,W,11.84,89.00,180924,,,A*7E
$GPGGA,223059.750,4305.2622,N,07740.4196,W,1,07,1.35,168.5,M,-34.4,M,,*5F
lng=-77.673683, lat=43.087703, altitude=168.60, speed=11.84, satellites=7, angle=89.0000, fixquality=1
$GPRMC,223100.000,A,4305.2623,N,07740.4185,W,11.46,88.22,180924,,,A*71
$GPGGA,223100.250,4305.2623,N,07740.4174,W,1,07,1.35,168.4,M,-34.4,M,,*5B
lng=-77.673637, lat=43.087703, altitude=168.50, speed=11.46, satellites=7, angle=88.2200, fixquality=1
$GPRMC,223100.500,A,4305.2624,N,07740.4163,W,11.38,87.76,180924,,,A*7C
$GPGGA,223100.750,4305.2625,N,07740.4152,W,1,07,1.35,168.2,M,-34.4,M,,*5A
lng=-77.673606, lat=43.087703, altitude=168.40, speed=11.38, satellites=7, angle=87.7600, fixquality=1
$GPRMC,223101.000,A,4305.2625,N,07740.4140,W,11.71,87.63,180924,,,A*71
$GPGGA,223101.250,4305.2626,N,07740.4129,W,1,07,1.35,168.0,M,-34.4,M,,*53
lng=-77.673568, lat=43.087711, altitude=168.20, speed=11.71, satellites=7, angle=87.6300, fixquality=1
$GPRMC,223101.500,A,4305.2626,N,07740.4117,W,11.96,87.87,180924,,,A*76
$GPGGA,223101.750,4305.2626,N,07740.4105,W,1,07,1.35,167.8,M,-34.4,M,,*5F
lng=-77.673530, lat=43.087711, altitude=168.00, speed=11.96, satellites=7, angle=87.8700, fixquality=1
$GPRMC,223102.000,A,4305.2626,N,07740.4094,W,12.17,88.14,180924,,,A*75
$GPGGA,223102.250,4305.2626,N,07740.4081,W,1,07,1.35,167.7,M,-34.4,M,,*5B
lng=-77.673484, lat=43.087711, altitude=167.80, speed=12.17, satellites=7, angle=88.1400, fixquality=1
$GPRMC,223102.500,A,4305.2626,N,07740.4069,W,12.47,88.46,180924,,,A*70
$GPGGA,223102.750,4305.2626,N,07740.4057,W,1,07,1.35,167.6,M,-34.4,M,,*54
lng=-77.673446, lat=43.087711, altitude=167.70, speed=12.47, satellites=7, angle=88.4600, fixquality=1
$GPRMC,223103.000,A,4305.2626,N,07740.4044,W,12.97,89.17,180924,,,A*73
$GPGGA,223103.250,4305.2626,N,07740.4030,W,1,07,1.35,167.6,M,-34.4,M,,*51
lng=-77.673408, lat=43.087711, altitude=167.60, speed=12.97, satellites=7, angle=89.1700, fixquality=1
$GPRMC,223103.500,A,4305.2625,N,07740.4016,W,13.46,88.94,180924,,,A*75
$GPGGA,223103.750,4305.2625,N,07740.4002,W,1,07,1.35,167.4,M,-34.4,M,,*54
lng=-77.673355, lat=43.087711, altitude=167.60, speed=13.46, satellites=7, angle=88.9400, fixquality=1
$GPRMC,223104.000,A,4305.2625,N,07740.3988,W,14.03,89.35,180924,,,A*72
$GPGGA,223104.250,4305.2625,N,07740.3974,W,1,07,1.35,167.1,M,-34.4,M,,*5C
lng=-77.673316, lat=43.087711, altitude=167.40, speed=14.03, satellites=7, angle=89.3500, fixquality=1
$GPRMC,223104.500,A,4305.2625,N,07740.3960,W,14.26,88.38,180924,,,A*7A
$GPGGA,223104.750,4305.2626,N,07740.3946,W,1,07,1.35,167.0,M,-34.4,M,,*5A
lng=-77.673263, lat=43.087711, altitude=167.10, speed=14.26, satellites=7, angle=88.3800, fixquality=1
$GPRMC,223105.000,A,4305.2627,N,07740.3932,W,14.70,88.07,180924,,,A*74
$GPGGA,223105.250,4305.2628,N,07740.3918,W,1,07,1.35,167.0,M,-34.4,M,,*5B
lng=-77.673217, lat=43.087711, altitude=167.00, speed=14.70, satellites=7, angle=88.0700, fixquality=1
$GPRMC,223105.500,A,4305.2628,N,07740.3903,W,14.90,86.91,180924,,,A*73
$GPGGA,223105.750,4305.2629,N,07740.3889,W,1,07,1.35,166.9,M,-34.4,M,,*5E
lng=-77.673171, lat=43.087711, altitude=167.00, speed=14.90, satellites=7, angle=86.9100, fixquality=1
$GPRMC,223106.000,A,4305.2629,N,07740.3875,W,15.16,86.25,180924,,,A*74
$GPGGA,223106.250,4305.2631,N,07740.3859,W,1,07,1.35,166.8,M,-34.4,M,,*5D
