Vers 72
USE_SERIAL_FEEDBACK=true
DEVELOPMENT_MODE=false
USE_RMC_ONLY=false

$GPRMC,194309.750,A,4305.2603,N,07740.7628,W,0.80,89.91,040924,,,A*48
$GPGGA,194310.000,4305.2602,N,07740.7624,W,1,04,2.50,157.6,M,-34.4,M,,*5F
lng=-77.679374, lat=43.087669, altitude=158.80, speed=0.80, satellites=4, angle=89.9100, fixquality=1
$GPRMC,194310.250,A,4305.2602,N,07740.7619,W,2.13,89.69,040924,,,A*49
$GPGGA,194310.500,4305.2602,N,07740.7614,W,1,04,2.50,157.4,M,-34.4,M,,*5B
lng=-77.679359, lat=43.087669, altitude=157.60, speed=2.13, satellites=4, angle=89.6900, fixquality=1
$GPRMC,194310.750,A,4305.2602,N,07740.7608,W,5.65,83.63,040924,,,A*4A
$GPGGA,194311.000,4305.2603,N,07740.7601,W,1,04,2.77,157.2,M,-34.4,M,,*59
lng=-77.679344, lat=43.087669, altitude=157.40, speed=5.65, satellites=4, angle=83.6300, fixquality=1
$GPRMC,194311.250,A,4305.2604,N,07740.7592,W,8.99,81.50,040924,,,A*44
$GPGGA,194311.500,4305.2605,N,07740.7583,W,1,04,2.77,157.0,M,-34.4,M,,*51
lng=-77.679321, lat=43.087669, altitude=157.20, speed=8.99, satellites=4, angle=81.5000, fixquality=1
$GPRMC,194311.750,A,4305.2607,N,07740.7573,W,10.38,77.92,040924,,,A*78
$GPGGA,194312.000,4305.2610,N,07740.7562,W,1,04,2.49,156.9,M,-34.4,M,,*59
lng=-77.679290, lat=43.087680, altitude=157.00, speed=10.38, satellites=4, angle=77.9200, fixquality=1
$GPRMC,194312.250,A,4305.2613,N,07740.7551,W,11.85,71.69,040924,,,A*7E
$GPGGA,194312.500,4305.2617,N,07740.7540,W,1,04,2.49,156.8,M,-34.4,M,,*5A
lng=-77.679244, lat=43.087688, altitude=156.90, speed=11.85, satellites=4, angle=71.6900, fixquality=1
$GPRMC,194312.750,A,4305.2621,N,07740.7530,W,12.33,65.81,040924,,,A*70
$GPGGA,194313.000,4305.2625,N,07740.7519,W,1,04,2.49,156.8,M,-34.4,M,,*53
lng=-77.679214, lat=43.087703, altitude=156.80, speed=12.33, satellites=4, angle=65.8100, fixquality=1
$GPRMC,194313.250,A,4305.2631,N,07740.7510,W,12.40,53.28,040924,,,A*75
$GPGGA,194313.500,4305.2638,N,07740.7501,W,1,04,2.49,156.9,M,-34.4,M,,*52
lng=-77.679183, lat=43.087718, altitude=156.80, speed=12.40, satellites=4, angle=53.2800, fixquality=1
$GPRMC,194313.750,A,4305.2645,N,07740.7493,W,12.80,43.62,040924,,,A*7A
$GPGGA,194314.000,4305.2652,N,07740.7486,W,1,04,2.49,157.0,M,-34.4,M,,*5A
lng=-77.679161, lat=43.087745, altitude=156.90, speed=12.80, satellites=4, angle=43.6200, fixquality=1
$GPRMC,194314.250,A,4305.2661,N,07740.7480,W,13.20,32.24,040924,,,A*73
$GPGGA,194314.500,4305.2670,N,07740.7476,W,1,04,2.49,157.0,M,-34.4,M,,*50
lng=-77.679130, lat=43.087768, altitude=157.00, speed=13.20, satellites=4, angle=32.2400, fixquality=1
$GPRMC,194314.750,A,4305.2679,N,07740.7472,W,13.22,21.82,040924,,,A*7E
$GPGGA,194315.000,4305.2690,N,07740.7471,W,1,04,2.49,157.0,M,-34.4,M,,*5D
lng=-77.679115, lat=43.087802, altitude=157.00, speed=13.22, satellites=4, angle=21.8200, fixquality=1
$GPRMC,194315.250,A,4305.2701,N,07740.7472,W,14.26,7.47,040924,,,A*4A
$GPGGA,194315.500,4305.2713,N,07740.7473,W,1,04,2.77,157.2,M,-34.4,M,,*5F
lng=-77.679115, lat=43.087833, altitude=157.00, speed=14.26, satellites=4, angle=7.4700, fixquality=1
$GPRMC,194315.750,A,4305.2725,N,07740.7474,W,15.52,0.44,040924,,,A*49
$GPGGA,194316.000,4305.2737,N,07740.7475,W,1,04,2.77,157.2,M,-34.4,M,,*59
lng=-77.679122, lat=43.087875, altitude=157.20, speed=15.52, satellites=4, angle=0.4400, fixquality=1
$GPRMC,194316.250,A,4305.2749,N,07740.7477,W,16.61,357.14,040924,,,A*41
$GPGGA,194316.500,4305.2761,N,07740.7478,W,1,04,2.77,157.2,M,-34.4,M,,*52
lng=-77.679122, lat=43.087913, altitude=157.20, speed=16.61, satellites=4, angle=357.1400, fixquality=1
$GPRMC,194316.750,A,4305.2774,N,07740.7480,W,17.59,356.26,040924,,,A*48
$GPGGA,194317.000,4305.2788,N,07740.7482,W,1,04,2.77,157.2,M,-34.4,M,,*54
lng=-77.679130, lat=43.087955, altitude=157.20, speed=17.59, satellites=4, angle=356.2600, fixquality=1
$GPRMC,194317.250,A,4305.2802,N,07740.7484,W,18.89,354.90,040924,,,A*4B
$GPGGA,194317.500,4305.2816,N,07740.7486,W,1,04,2.77,157.2,M,-34.4,M,,*5D
lng=-77.679145, lat=43.088005, altitude=157.20, speed=18.89, satellites=4, angle=354.9000, fixquality=1
$GPRMC,194317.750,A,4305.2831,N,07740.7488,W,20.17,356.35,040924,,,A*43
$GPGGA,194318.000,4305.2847,N,07740.7489,W,1,04,2.77,157.1,M,-34.4,M,,*5F
lng=-77.679153, lat=43.088054, altitude=157.20, speed=20.17, satellites=4, angle=356.3500, fixquality=1
$GPRMC,194318.250,A,4305.2864,N,07740.7491,W,21.53,357.25,040924,,,A*40
$GPGGA,194318.500,4305.2880,N,07740.7492,W,1,04,2.76,157.0,M,-34.4,M,,*5B
lng=-77.679153, lat=43.088111, altitude=157.10, speed=21.53, satellites=4, angle=357.2500, fixquality=1
$GPRMC,194318.750,A,4305.2897,N,07740.7494,W,22.65,357.57,040924,,,A*4F
$GPGGA,194319.000,4305.2915,N,07740.7495,W,1,04,2.77,156.9,M,-34.4,M,,*5C
lng=-77.679161, lat=43.088157, altitude=157.00, speed=22.65, satellites=4, angle=357.5700, fixquality=1
$GPRMC,194319.250,A,4305.2933,N,07740.7496,W,23.89,358.28,040924,,,A*42
$GPGGA,194319.500,4305.2950,N,07740.7498,W,1,04,2.77,156.8,M,-34.4,M,,*54
lng=-77.679161, lat=43.088222, altitude=156.90, speed=23.89, satellites=4, angle=358.2800, fixquality=1
$GPRMC,194319.750,A,4305.2968,N,07740.7500,W,24.40,357.58,040924,,,A*4D
$GPGGA,194320.000,4305.2986,N,07740.7502,W,1,04,2.77,156.8,M,-34.4,M,,*52
lng=-77.679168, lat=43.088279, altitude=156.80, speed=24.40, satellites=4, angle=357.5800, fixquality=1
$GPRMC,194320.250,A,4305.3004,N,07740.7503,W,24.62,357.60,040924,,,A*48
$GPGGA,194320.500,4305.3022,N,07740.7505,W,1,04,2.77,156.6,M,-34.4,M,,*58
lng=-77.679176, lat=43.088336, altitude=156.80, speed=24.62, satellites=4, angle=357.6000, fixquality=1
$GPRMC,194320.750,A,4305.3039,N,07740.7506,W,24.40,357.71,040924,,,A*46
$GPGGA,194321.000,4305.3056,N,07740.7508,W,1,04,2.76,156.5,M,-34.4,M,,*50
lng=-77.679176, lat=43.088394, altitude=156.60, speed=24.40, satellites=4, angle=357.7100, fixquality=1
$GPRMC,194321.250,A,4305.3073,N,07740.7509,W,23.95,357.95,040924,,,A*46
$GPGGA,194321.500,4305.3089,N,07740.7510,W,1,04,2.77,156.4,M,-34.4,M,,*5E
lng=-77.679183, lat=43.088451, altitude=156.50, speed=23.95, satellites=4, angle=357.9500, fixquality=1
$GPRMC,194321.750,A,4305.3105,N,07740.7511,W,23.59,357.69,040924,,,A*49
$GPGGA,194322.000,4305.3121,N,07740.7512,W,1,04,2.77,156.4,M,-34.4,M,,*59
lng=-77.679183, lat=43.088508, altitude=156.40, speed=23.59, satellites=4, angle=357.6900, fixquality=1
$GPRMC,194322.250,A,4305.3136,N,07740.7512,W,22.85,357.22,040924,,,A*43
$GPGGA,194322.500,4305.3151,N,07740.7513,W,1,04,2.76,156.4,M,-34.4,M,,*5B
lng=-77.679183, lat=43.088558, altitude=156.40, speed=22.85, satellites=4, angle=357.2200, fixquality=1
$GPRMC,194322.750,A,4305.3167,N,07740.7514,W,22.53,356.85,040924,,,A*43
$GPGGA,194323.000,4305.3182,N,07740.7515,W,1,04,2.76,156.4,M,-34.4,M,,*57
lng=-77.679191, lat=43.088615, altitude=156.40, speed=22.53, satellites=4, angle=356.8500, fixquality=1
$GPRMC,194323.250,A,4305.3196,N,07740.7515,W,22.10,357.31,040924,,,A*41
$GPGGA,194323.500,4305.3211,N,07740.7515,W,1,04,2.77,156.4,M,-34.4,M,,*5A
lng=-77.679191, lat=43.088665, altitude=156.40, speed=22.10, satellites=4, angle=357.3100, fixquality=1
$GPRMC,194323.750,A,4305.3224,N,07740.7515,W,20.85,358.19,040924,,,A*45
$GPGGA,194324.000,4305.3238,N,07740.7515,W,1,04,2.76,156.4,M,-34.4,M,,*52
lng=-77.679191, lat=43.088703, altitude=156.40, speed=20.85, satellites=4, angle=358.1900, fixquality=1
$GPRMC,194324.250,A,4305.3248,N,07740.7511,W,19.19,359.32,040924,,,A*4E
$GPGGA,194324.500,4305.3258,N,07740.7505,W,1,06,1.31,157.1,M,-34.4,M,,*56
lng=-77.679183, lat=43.088745, altitude=156.40, speed=19.19, satellites=4, angle=359.3200, fixquality=1
$GPRMC,194324.750,A,4305.3269,N,07740.7502,W,18.42,0.01,040924,,,A*4A
$GPGGA,194325.000,4305.3280,N,07740.7500,W,1,06,1.31,157.6,M,-34.4,M,,*55
lng=-77.679168, lat=43.088779, altitude=157.10, speed=18.42, satellites=6, angle=0.0100, fixquality=1
$GPRMC,194325.250,A,4305.3291,N,07740.7498,W,17.29,0.07,040924,,,A*4F
$GPGGA,194325.500,4305.3301,N,07740.7496,W,1,06,1.32,158.2,M,-34.4,M,,*5E
lng=-77.679168, lat=43.088817, altitude=157.60, speed=17.29, satellites=6, angle=0.0700, fixquality=1
$GPRMC,194325.750,A,4305.3310,N,07740.7495,W,15.48,0.25,040924,,,A*4A
$GPGGA,194326.000,4305.3319,N,07740.7494,W,1,06,1.31,158.6,M,-34.4,M,,*54
lng=-77.679161, lat=43.088851, altitude=158.20, speed=15.48, satellites=6, angle=0.2500, fixquality=1
$GPRMC,194326.250,A,4305.3327,N,07740.7492,W,13.48,0.15,040924,,,A*4A
$GPGGA,194326.500,4305.3334,N,07740.7491,W,1,06,1.32,159.1,M,-34.4,M,,*5E
lng=-77.679153, lat=43.088874, altitude=158.60, speed=13.48, satellites=6, angle=0.1500, fixquality=1
$GPRMC,194326.750,A,4305.3340,N,07740.7489,W,10.98,1.60,040924,,,A*49
$GPGGA,194327.000,4305.3346,N,07740.7489,W,1,06,1.31,159.3,M,-34.4,M,,*57
lng=-77.679153, lat=43.088901, altitude=159.10, speed=10.98, satellites=6, angle=1.6000, fixquality=1
$GPRMC,194327.250,A,4305.3352,N,07740.7487,W,9.16,2.14,040924,,,A*7E
$GPGGA,194327.500,4305.3356,N,07740.7486,W,1,06,1.31,159.7,M,-34.4,M,,*58
lng=-77.679145, lat=43.088916, altitude=159.30, speed=9.16, satellites=6, angle=2.1400, fixquality=1
$GPRMC,194327.750,A,4305.3361,N,07740.7484,W,8.11,2.60,040924,,,A*7D
$GPGGA,194328.000,4305.3365,N,07740.7481,W,1,06,1.31,160.5,M,-34.4,M,,*5D
lng=-77.679145, lat=43.088932, altitude=159.70, speed=8.11, satellites=6, angle=2.6000, fixquality=1
$GPRMC,194328.250,A,4305.3370,N,07740.7478,W,7.96,2.34,040924,,,A*75
$GPGGA,194328.500,4305.3374,N,07740.7475,W,1,06,1.31,161.4,M,-34.4,M,,*53
lng=-77.679130, lat=43.088947, altitude=160.50, speed=7.96, satellites=6, angle=2.3400, fixquality=1
$GPRMC,194328.750,A,4305.3379,N,07740.7473,W,8.06,4.74,040924,,,A*76
$GPGGA,194329.000,4305.3384,N,07740.7470,W,1,06,1.32,162.0,M,-34.4,M,,*59
lng=-77.679115, lat=43.088966, altitude=161.40, speed=8.06, satellites=6, angle=4.7400, fixquality=1
$GPRMC,194329.250,A,4305.3390,N,07740.7466,W,8.88,10.39,040924,,,A*4B
$GPGGA,194329.500,4305.3396,N,07740.7462,W,1,06,1.31,162.9,M,-34.4,M,,*56
lng=-77.679107, lat=43.088981, altitude=162.00, speed=8.88, satellites=6, angle=10.3900, fixquality=1
$GPRMC,194329.750,A,4305.3403,N,07740.7459,W,9.57,18.16,040924,,,A*49
$GPGGA,194330.000,4305.3408,N,07740.7455,W,1,06,1.30,163.4,M,-34.4,M,,*52
lng=-77.679100, lat=43.089004, altitude=162.90, speed=9.57, satellites=6, angle=18.1600, fixquality=1
$GPRMC,194330.250,A,4305.3412,N,07740.7449,W,9.33,27.34,040924,,,A*4B
$GPGGA,194330.500,4305.3417,N,07740.7444,W,1,06,1.31,163.8,M,-34.4,M,,*54
lng=-77.679084, lat=43.089023, altitude=163.40, speed=9.33, satellites=6, angle=27.3400, fixquality=1
$GPRMC,194330.750,A,4305.3422,N,07740.7438,W,9.10,35.72,040924,,,A*4B
$GPGGA,194331.000,4305.3426,N,07740.7431,W,1,06,1.30,164.0,M,-34.4,M,,*5E
lng=-77.679061, lat=43.089038, altitude=163.80, speed=9.10, satellites=6, angle=35.7200, fixquality=1
$GPRMC,194331.250,A,4305.3432,N,07740.7423,W,10.01,46.23,040924,,,A*7C
$GPGGA,194331.500,4305.3436,N,07740.7413,W,1,06,1.31,164.1,M,-34.4,M,,*5A
lng=-77.679039, lat=43.089054, altitude=164.00, speed=10.01, satellites=6, angle=46.2300, fixquality=1
$GPRMC,194331.750,A,4305.3439,N,07740.7403,W,10.95,59.80,040924,,,A*7A
$GPGGA,194332.000,4305.3440,N,07740.7392,W,1,06,1.32,164.2,M,-34.4,M,,*53
lng=-77.679000, lat=43.089061, altitude=164.10, speed=10.95, satellites=6, angle=59.8000, fixquality=1
$GPRMC,194332.250,A,4305.3441,N,07740.7380,W,12.18,73.84,040924,,,A*74
$GPGGA,194332.500,4305.3443,N,07740.7366,W,1,06,1.31,164.2,M,-34.4,M,,*5D
lng=-77.678962, lat=43.089069, altitude=164.20, speed=12.18, satellites=6, angle=73.8400, fixquality=1
$GPRMC,194332.750,A,4305.3444,N,07740.7352,W,14.10,78.87,040924,,,A*7D
$GPGGA,194333.000,4305.3446,N,07740.7336,W,1,06,1.31,164.2,M,-34.4,M,,*59
lng=-77.678924, lat=43.089069, altitude=164.20, speed=14.10, satellites=6, angle=78.8700, fixquality=1
$GPRMC,194333.250,A,4305.3447,N,07740.7321,W,15.97,81.44,040924,,,A*79
$GPGGA,194333.500,4305.3448,N,07740.7303,W,1,06,1.31,164.2,M,-34.4,M,,*54
lng=-77.678863, lat=43.089076, altitude=164.20, speed=15.97, satellites=6, angle=81.4400, fixquality=1
$GPRMC,194333.750,A,4305.3447,N,07740.7285,W,17.80,86.45,040924,,,A*71
$GPGGA,194334.000,4305.3446,N,07740.7267,W,1,06,1.31,164.0,M,-34.4,M,,*59
lng=-77.678810, lat=43.089076, altitude=164.20, speed=17.80, satellites=6, angle=86.4500, fixquality=1
$GPRMC,194334.250,A,4305.3446,N,07740.7248,W,19.29,89.79,040924,,,A*7E
$GPGGA,194334.500,4305.3446,N,07740.7228,W,1,06,1.31,163.9,M,-34.4,M,,*59
lng=-77.678741, lat=43.089076, altitude=164.00, speed=19.29, satellites=6, angle=89.7900, fixquality=1
$GPRMC,194334.750,A,4305.3447,N,07740.7206,W,21.02,88.54,040924,,,A*7C
$GPGGA,194335.000,4305.3447,N,07740.7185,W,1,06,1.31,163.8,M,-34.4,M,,*59
lng=-77.678680, lat=43.089076, altitude=163.90, speed=21.02, satellites=6, angle=88.5400, fixquality=1
$GPRMC,194335.250,A,4305.3447,N,07740.7163,W,22.23,88.05,040924,,,A*7C
$GPGGA,194335.500,4305.3448,N,07740.7140,W,1,06,1.31,163.7,M,-34.4,M,,*55
lng=-77.678604, lat=43.089076, altitude=163.80, speed=22.23, satellites=6, angle=88.0500, fixquality=1
$GPRMC,194335.750,A,4305.3448,N,07740.7118,W,23.09,87.07,040924,,,A*7E
$GPGGA,194336.000,4305.3449,N,07740.7094,W,1,06,1.31,163.8,M,-34.4,M,,*55
lng=-77.678535, lat=43.089076, altitude=163.70, speed=23.09, satellites=6, angle=87.0700, fixquality=1
$GPRMC,194336.250,A,4305.3450,N,07740.7070,W,24.38,86.18,040924,,,A*74
$GPGGA,194336.500,4305.3451,N,07740.7046,W,1,06,1.32,163.8,M,-34.4,M,,*55
lng=-77.678451, lat=43.089088, altitude=163.80, speed=24.38, satellites=6, angle=86.1800, fixquality=1
$GPRMC,194336.750,A,4305.3452,N,07740.7021,W,25.48,85.90,040924,,,A*72
$GPGGA,194337.000,4305.3453,N,07740.6995,W,1,06,1.31,163.9,M,-34.4,M,,*57
lng=-77.678367, lat=43.089088, altitude=163.80, speed=25.48, satellites=6, angle=85.9000, fixquality=1
$GPRMC,194337.250,A,4305.3455,N,07740.6969,W,26.89,85.12,040924,,,A*71
$GPGGA,194337.500,4305.3456,N,07740.6942,W,1,06,1.31,164.0,M,-34.4,M,,*53
lng=-77.678276, lat=43.089096, altitude=163.90, speed=26.89, satellites=6, angle=85.1200, fixquality=1
$GPRMC,194337.750,A,4305.3458,N,07740.6916,W,27.52,85.13,040924,,,A*77
$GPGGA,194338.000,4305.3459,N,07740.6888,W,1,06,1.31,164.1,M,-34.4,M,,*50
lng=-77.678192, lat=43.089096, altitude=164.00, speed=27.52, satellites=6, angle=85.1300, fixquality=1
$GPRMC,194338.250,A,4305.3460,N,07740.6861,W,27.80,85.73,040924,,,A*7E
$GPGGA,194338.500,4305.3461,N,07740.6834,W,1,06,1.31,164.4,M,-34.4,M,,*5C
lng=-77.678100, lat=43.089103, altitude=164.10, speed=27.80, satellites=6, angle=85.7300, fixquality=1
$GPRMC,194338.750,A,4305.3463,N,07740.6807,W,28.17,85.76,040924,,,A*7C
$GPGGA,194339.000,4305.3464,N,07740.6779,W,1,06,1.31,164.4,M,-34.4,M,,*5B
lng=-77.678009, lat=43.089103, altitude=164.40, speed=28.17, satellites=6, angle=85.7600, fixquality=1
$GPRMC,194339.250,A,4305.3465,N,07740.6751,W,28.77,86.02,040924,,,A*74
$GPGGA,194339.500,4305.3467,N,07740.6723,W,1,06,1.31,164.5,M,-34.4,M,,*53
lng=-77.677925, lat=43.089111, altitude=164.40, speed=28.77, satellites=6, angle=86.0200, fixquality=1
$GPRMC,194339.750,A,4305.3468,N,07740.6695,W,29.07,86.11,040924,,,A*71
$GPGGA,194340.000,4305.3469,N,07740.6667,W,1,06,1.32,164.6,M,-34.4,M,,*57
lng=-77.677825, lat=43.089111, altitude=164.50, speed=29.07, satellites=6, angle=86.1100, fixquality=1
$GPRMC,194340.250,A,4305.3471,N,07740.6638,W,29.50,85.62,040924,,,A*70
$GPGGA,194340.500,4305.3472,N,07740.6610,W,1,06,1.32,164.7,M,-34.4,M,,*59
lng=-77.677726, lat=43.089118, altitude=164.60, speed=29.50, satellites=6, angle=85.6200, fixquality=1
$GPRMC,194340.750,A,4305.3474,N,07740.6582,W,29.76,85.65,040924,,,A*71
$GPGGA,194341.000,4305.3476,N,07740.6553,W,1,06,1.30,164.8,M,-34.4,M,,*50
lng=-77.677635, lat=43.089118, altitude=164.70, speed=29.76, satellites=6, angle=85.6500, fixquality=1
$GPRMC,194341.250,A,4305.3477,N,07740.6524,W,29.79,85.60,040924,,,A*70
$GPGGA,194341.500,4305.3479,N,07740.6496,W,1,06,1.31,164.9,M,-34.4,M,,*52
lng=-77.677536, lat=43.089126, altitude=164.80, speed=29.79, satellites=6, angle=85.6000, fixquality=1
$GPRMC,194341.750,A,4305.3480,N,07740.6467,W,29.88,85.07,040924,,,A*74
$GPGGA,194342.000,4305.3482,N,07740.6439,W,1,06,1.32,164.9,M,-34.4,M,,*56
lng=-77.677444, lat=43.089134, altitude=164.90, speed=29.88, satellites=6, angle=85.0700, fixquality=1
$GPRMC,194342.250,A,4305.3484,N,07740.6410,W,29.69,85.43,040924,,,A*79
$GPGGA,194342.500,4305.3486,N,07740.6382,W,1,06,1.31,165.0,M,-34.4,M,,*5B
lng=-77.677352, lat=43.089145, altitude=164.90, speed=29.69, satellites=6, angle=85.4300, fixquality=1
$GPRMC,194342.750,A,4305.3487,N,07740.6353,W,29.26,85.32,040924,,,A*72
$GPGGA,194343.000,4305.3489,N,07740.6325,W,1,06,1.31,165.1,M,-34.4,M,,*5C
lng=-77.677253, lat=43.089145, altitude=165.00, speed=29.26, satellites=6, angle=85.3200, fixquality=1
$GPRMC,194343.250,A,4305.3490,N,07740.6298,W,28.98,85.58,040924,,,A*7E
$GPGGA,194343.500,4305.3492,N,07740.6270,W,1,06,1.31,165.1,M,-34.4,M,,*52
lng=-77.677162, lat=43.089153, altitude=165.10, speed=28.98, satellites=6, angle=85.5800, fixquality=1
$GPRMC,194343.750,A,4305.3493,N,07740.6242,W,28.72,85.67,040924,,,A*77
$GPGGA,194344.000,4305.3495,N,07740.6215,W,1,06,1.32,165.2,M,-34.4,M,,*54
lng=-77.677070, lat=43.089153, altitude=165.10, speed=28.72, satellites=6, angle=85.6700, fixquality=1
$GPRMC,194344.250,A,4305.3496,N,07740.6188,W,28.37,85.26,040924,,,A*71
$GPGGA,194344.500,4305.3498,N,07740.6161,W,1,06,1.31,165.2,M,-34.4,M,,*5F
lng=-77.676979, lat=43.089160, altitude=165.20, speed=28.37, satellites=6, angle=85.2600, fixquality=1
$GPRMC,194344.750,A,4305.3499,N,07740.6134,W,28.17,85.33,040924,,,A*7A
$GPGGA,194345.000,4305.3501,N,07740.6107,W,1,06,1.31,165.2,M,-34.4,M,,*5A
lng=-77.676887, lat=43.089168, altitude=165.20, speed=28.17, satellites=6, angle=85.3300, fixquality=1
$GPRMC,194345.250,A,4305.3502,N,07740.6081,W,27.53,85.36,040924,,,A*78
$GPGGA,194345.500,4305.3504,N,07740.6055,W,1,06,1.32,165.3,M,-34.4,M,,*5E
lng=-77.676795, lat=43.089168, altitude=165.20, speed=27.53, satellites=6, angle=85.3600, fixquality=1
$GPRMC,194345.750,A,4305.3506,N,07740.6028,W,27.25,85.21,040924,,,A*7D
$GPGGA,194346.000,4305.3507,N,07740.6003,W,1,06,1.32,165.3,M,-34.4,M,,*58
lng=-77.676719, lat=43.089176, altitude=165.30, speed=27.25, satellites=6, angle=85.2100, fixquality=1
$GPRMC,194346.250,A,4305.3509,N,07740.5977,W,27.03,85.15,040924,,,A*77
$GPGGA,194346.500,4305.3510,N,07740.5951,W,1,06,1.31,165.4,M,-34.4,M,,*52
lng=-77.676628, lat=43.089183, altitude=165.30, speed=27.03, satellites=6, angle=85.1500, fixquality=1
$GPRMC,194346.750,A,4305.3511,N,07740.5926,W,26.68,85.74,040924,,,A*74
$GPGGA,194347.000,4305.3513,N,07740.5901,W,1,06,1.31,165.5,M,-34.4,M,,*51
lng=-77.676544, lat=43.089183, altitude=165.40, speed=26.68, satellites=6, angle=85.7400, fixquality=1
$GPRMC,194347.250,A,4305.3514,N,07740.5876,W,26.25,85.74,040924,,,A*78
$GPGGA,194347.500,4305.3515,N,07740.5851,W,1,06,1.31,165.5,M,-34.4,M,,*56
lng=-77.676460, lat=43.089191, altitude=165.50, speed=26.25, satellites=6, angle=85.7400, fixquality=1
$GPRMC,194347.750,A,4305.3517,N,07740.5827,W,25.78,85.85,040924,,,A*7F
$GPGGA,194348.000,4305.3518,N,07740.5802,W,1,06,1.30,165.5,M,-34.4,M,,*56
lng=-77.676376, lat=43.089191, altitude=165.50, speed=25.78, satellites=6, angle=85.8500, fixquality=1
$GPRMC,194348.250,A,4305.3519,N,07740.5778,W,25.40,86.17,040924,,,A*7D
$GPGGA,194348.500,4305.3520,N,07740.5754,W,1,06,1.31,165.5,M,-34.4,M,,*55
lng=-77.676292, lat=43.089199, altitude=165.50, speed=25.40, satellites=6, angle=86.1700, fixquality=1
$GPRMC,194348.750,A,4305.3522,N,07740.5731,W,25.04,86.20,040924,,,A*79
$GPGGA,194349.000,4305.3523,N,07740.5707,W,1,06,1.32,165.5,M,-34.4,M,,*57
lng=-77.676223, lat=43.089199, altitude=165.50, speed=25.04, satellites=6, angle=86.2000, fixquality=1
$GPRMC,194349.250,A,4305.3524,N,07740.5683,W,25.01,86.47,040924,,,A*77
$GPGGA,194349.500,4305.3525,N,07740.5660,W,1,06,1.31,165.5,M,-34.4,M,,*57
lng=-77.676139, lat=43.089210, altitude=165.50, speed=25.01, satellites=6, angle=86.4700, fixquality=1
$GPRMC,194349.750,A,4305.3526,N,07740.5636,W,24.74,86.83,040924,,,A*75
$GPGGA,194350.000,4305.3527,N,07740.5613,W,1,06,1.31,165.5,M,-34.4,M,,*5C
lng=-77.676055, lat=43.089210, altitude=165.50, speed=24.74, satellites=6, angle=86.8300, fixquality=1
$GPRMC,194350.250,A,4305.3527,N,07740.5590,W,24.27,86.87,040924,,,A*74
$GPGGA,194350.500,4305.3528,N,07740.5568,W,1,06,1.31,165.5,M,-34.4,M,,*59
lng=-77.675987, lat=43.089210, altitude=165.50, speed=24.27, satellites=6, angle=86.8700, fixquality=1
$GPRMC,194350.750,A,4305.3529,N,07740.5545,W,24.05,86.77,040924,,,A*78
$GPGGA,194351.000,4305.3530,N,07740.5523,W,1,06,1.31,165.5,M,-34.4,M,,*5B
lng=-77.675910, lat=43.089218, altitude=165.50, speed=24.05, satellites=6, angle=86.7700, fixquality=1
$GPRMC,194351.250,A,4305.3530,N,07740.5501,W,23.13,87.32,040924,,,A*74
$GPGGA,194351.500,4305.3531,N,07740.5480,W,1,06,1.32,165.6,M,-34.4,M,,*57
lng=-77.675834, lat=43.089218, altitude=165.50, speed=23.13, satellites=6, angle=87.3200, fixquality=1
$GPRMC,194351.750,A,4305.3532,N,07740.5458,W,22.77,87.16,040924,,,A*7B
$GPGGA,194352.000,4305.3532,N,07740.5437,W,1,06,1.31,165.7,M,-34.4,M,,*5C
lng=-77.675765, lat=43.089218, altitude=165.60, speed=22.77, satellites=6, angle=87.1600, fixquality=1
$GPRMC,194352.250,A,4305.3533,N,07740.5415,W,22.45,87.00,040924,,,A*73
$GPGGA,194352.500,4305.3534,N,07740.5394,W,1,06,1.31,165.7,M,-34.4,M,,*51
lng=-77.675689, lat=43.089225, altitude=165.70, speed=22.45, satellites=6, angle=87.0000, fixquality=1
$GPRMC,194352.750,A,4305.3534,N,07740.5374,W,22.18,87.58,040924,,,A*74
$GPGGA,194353.000,4305.3535,N,07740.5354,W,1,06,1.31,165.7,M,-34.4,M,,*58
lng=-77.675628, lat=43.089225, altitude=165.70, speed=22.18, satellites=6, angle=87.5800, fixquality=1
$GPRMC,194353.250,A,4305.3535,N,07740.5333,W,21.82,88.80,040924,,,A*78
$GPGGA,194353.500,4305.3534,N,07740.5313,W,1,06,1.31,165.7,M,-34.4,M,,*5F
lng=-77.675552, lat=43.089225, altitude=165.70, speed=21.82, satellites=6, angle=88.8000, fixquality=1
$GPRMC,194353.750,A,4305.3534,N,07740.5293,W,21.39,91.70,040924,,,A*70
$GPGGA,194354.000,4305.3532,N,07740.5274,W,1,06,1.31,165.6,M,-34.4,M,,*5A
lng=-77.675491, lat=43.089225, altitude=165.70, speed=21.39, satellites=6, angle=91.7000, fixquality=1
$GPRMC,194354.250,A,4305.3528,N,07740.5256,W,20.33,99.38,040924,,,A*79
$GPGGA,194354.500,4305.3524,N,07740.5238,W,1,06,1.31,165.5,M,-34.4,M,,*53
lng=-77.675422, lat=43.089218, altitude=165.60, speed=20.33, satellites=6, angle=99.3800, fixquality=1
$GPRMC,194354.750,A,4305.3519,N,07740.5220,W,19.91,106.45,040924,,,A*40
$GPGGA,194355.000,4305.3513,N,07740.5203,W,1,06,1.30,165.5,M,-34.4,M,,*5A
lng=-77.675369, lat=43.089199, altitude=165.50, speed=19.91, satellites=6, angle=106.4500, fixquality=1
$GPRMC,194355.250,A,4305.3506,N,07740.5186,W,19.54,117.21,040924,,,A*4E
$GPGGA,194355.500,4305.3497,N,07740.5170,W,1,06,1.31,165.4,M,-34.4,M,,*55
lng=-77.675308, lat=43.089176, altitude=165.50, speed=19.54, satellites=6, angle=117.2100, fixquality=1
$GPRMC,194355.750,A,4305.3488,N,07740.5155,W,19.71,125.97,040924,,,A*49
$GPGGA,194356.000,4305.3478,N,07740.5142,W,1,06,1.32,165.3,M,-34.4,M,,*57
lng=-77.675262, lat=43.089145, altitude=165.40, speed=19.71, satellites=6, angle=125.9700, fixquality=1
$GPRMC,194356.250,A,4305.3467,N,07740.5130,W,19.35,136.42,040924,,,A*47
$GPGGA,194356.500,4305.3456,N,07740.5119,W,1,06,1.32,165.2,M,-34.4,M,,*51
lng=-77.675216, lat=43.089111, altitude=165.30, speed=19.35, satellites=6, angle=136.4200, fixquality=1
$GPRMC,194356.750,A,4305.3444,N,07740.5108,W,19.54,143.42,040924,,,A*4D
$GPGGA,194357.000,4305.3432,N,07740.5099,W,1,06,1.31,165.1,M,-34.4,M,,*5E
lng=-77.675178, lat=43.089069, altitude=165.20, speed=19.54, satellites=6, angle=143.4200, fixquality=1
$GPRMC,194357.250,A,4305.3420,N,07740.5091,W,19.81,151.29,040924,,,A*4C
$GPGGA,194357.500,4305.3406,N,07740.5083,W,1,06,1.31,165.0,M,-34.4,M,,*56
lng=-77.675155, lat=43.089031, altitude=165.10, speed=19.81, satellites=6, angle=151.2900, fixquality=1
$GPRMC,194357.750,A,4305.3392,N,07740.5076,W,20.68,156.76,040924,,,A*4E
$GPGGA,194358.000,4305.3377,N,07740.5070,W,1,06,1.30,164.9,M,-34.4,M,,*58
lng=-77.675132, lat=43.088989, altitude=165.00, speed=20.68, satellites=6, angle=156.7600, fixquality=1
$GPRMC,194358.250,A,4305.3362,N,07740.5065,W,21.61,161.98,040924,,,A*45
$GPGGA,194358.500,4305.3346,N,07740.5062,W,1,06,1.31,164.7,M,-34.4,M,,*53
lng=-77.675102, lat=43.088939, altitude=164.90, speed=21.61, satellites=6, angle=161.9800, fixquality=1
$GPRMC,194358.750,A,4305.3330,N,07740.5061,W,21.92,169.47,040924,,,A*45
$GPGGA,194359.000,4305.3315,N,07740.5061,W,1,06,1.31,164.5,M,-34.4,M,,*50
lng=-77.675094, lat=43.088882, altitude=164.70, speed=21.92, satellites=6, angle=169.4700, fixquality=1
$GPRMC,194359.250,A,4305.3299,N,07740.5061,W,22.02,176.33,040924,,,A*44
$GPGGA,194359.500,4305.3283,N,07740.5061,W,1,06,1.32,164.2,M,-34.4,M,,*5F
lng=-77.675094, lat=43.088832, altitude=164.50, speed=22.02, satellites=6, angle=176.3300, fixquality=1
$GPRMC,194359.750,A,4305.3267,N,07740.5061,W,22.29,179.37,040924,,,A*42
$GPGGA,194400.000,4305.3250,N,07740.5062,W,1,06,1.32,164.1,M,-34.4,M,,*5F
lng=-77.675094, lat=43.088779, altitude=164.20, speed=22.29, satellites=6, angle=179.3700, fixquality=1
$GPRMC,194400.250,A,4305.3234,N,07740.5063,W,22.45,181.50,040924,,,A*44
$GPGGA,194400.500,4305.3219,N,07740.5063,W,1,06,1.31,163.9,M,-34.4,M,,*5A
lng=-77.675102, lat=43.088722, altitude=164.10, speed=22.45, satellites=6, angle=181.5000, fixquality=1
$GPRMC,194400.750,A,4305.3203,N,07740.5064,W,22.31,181.18,040924,,,A*4D
$GPGGA,194401.000,4305.3187,N,07740.5064,W,1,06,1.32,163.7,M,-34.4,M,,*50
lng=-77.675102, lat=43.088672, altitude=163.90, speed=22.31, satellites=6, angle=181.1800, fixquality=1
$GPRMC,194401.250,A,4305.3172,N,07740.5064,W,21.94,179.09,040924,,,A*47
$GPGGA,194401.500,4305.3157,N,07740.5063,W,1,06,1.32,163.4,M,-34.4,M,,*5C
lng=-77.675102, lat=43.088623, altitude=163.70, speed=21.94, satellites=6, angle=179.0900, fixquality=1
$GPRMC,194401.750,A,4305.3141,N,07740.5062,W,21.74,177.29,040924,,,A*46
$GPGGA,194402.000,4305.3126,N,07740.5060,W,1,06,1.30,163.3,M,-34.4,M,,*5A
lng=-77.675102, lat=43.088565, altitude=163.40, speed=21.74, satellites=6, angle=177.2900, fixquality=1
$GPRMC,194402.250,A,4305.3110,N,07740.5056,W,21.79,172.50,040924,,,A*45
$GPGGA,194402.500,4305.3095,N,07740.5053,W,1,06,1.31,163.1,M,-34.4,M,,*55
lng=-77.675086, lat=43.088516, altitude=163.30, speed=21.79, satellites=6, angle=172.5000, fixquality=1
$GPRMC,194402.750,A,4305.3081,N,07740.5048,W,21.50,169.14,040924,,,A*47
$GPGGA,194403.000,4305.3067,N,07740.5042,W,1,06,1.31,163.1,M,-34.4,M,,*5C
lng=-77.675079, lat=43.088466, altitude=163.10, speed=21.50, satellites=6, angle=169.1400, fixquality=1
$GPRMC,194403.250,A,4305.3053,N,07740.5033,W,21.18,160.62,040924,,,A*44
$GPGGA,194403.500,4305.3041,N,07740.5023,W,1,06,1.31,162.9,M,-34.4,M,,*53
lng=-77.675056, lat=43.088420, altitude=163.10, speed=21.18, satellites=6, angle=160.6200, fixquality=1
$GPRMC,194403.750,A,4305.3029,N,07740.5014,W,20.83,152.96,040924,,,A*40
$GPGGA,194404.000,4305.3017,N,07740.5002,W,1,06,1.30,162.9,M,-34.4,M,,*50
lng=-77.675025, lat=43.088378, altitude=162.90, speed=20.83, satellites=6, angle=152.9600, fixquality=1
$GPRMC,194404.250,A,4305.3007,N,07740.4989,W,20.83,142.00,040924,,,A*4C
$GPGGA,194404.500,4305.2996,N,07740.4975,W,1,06,1.31,162.8,M,-34.4,M,,*5C
lng=-77.674980, lat=43.088344, altitude=162.90, speed=20.83, satellites=6, angle=142.0000, fixquality=1
$GPRMC,194404.750,A,4305.2986,N,07740.4962,W,20.49,135.78,040924,,,A*44
$GPGGA,194405.000,4305.2978,N,07740.4947,W,1,06,1.31,162.7,M,-34.4,M,,*56
lng=-77.674934, lat=43.088314, altitude=162.80, speed=20.49, satellites=6, angle=135.7800, fixquality=1
$GPRMC,194405.250,A,4305.2970,N,07740.4931,W,20.48,127.11,040924,,,A*42
$GPGGA,194405.500,4305.2962,N,07740.4915,W,1,06,1.31,162.6,M,-34.4,M,,*5E
lng=-77.674888, lat=43.088279, altitude=162.70, speed=20.48, satellites=6, angle=127.1100, fixquality=1
$GPRMC,194405.750,A,4305.2955,N,07740.4898,W,20.62,120.67,040924,,,A*4C
$GPGGA,194406.000,4305.2949,N,07740.4880,W,1,06,1.31,162.6,M,-34.4,M,,*5C
lng=-77.674827, lat=43.088256, altitude=162.60, speed=20.62, satellites=6, angle=120.6700, fixquality=1
$GPRMC,194406.250,A,4305.2943,N,07740.4862,W,20.88,113.92,040924,,,A*46
$GPGGA,194406.500,4305.2938,N,07740.4844,W,1,06,1.32,162.6,M,-34.4,M,,*54
lng=-77.674774, lat=43.088241, altitude=162.60, speed=20.88, satellites=6, angle=113.9200, fixquality=1
$GPRMC,194406.750,A,4305.2933,N,07740.4825,W,20.92,110.50,040924,,,A*41
$GPGGA,194407.000,4305.2929,N,07740.4806,W,1,06,1.31,162.6,M,-34.4,M,,*55
lng=-77.674705, lat=43.088222, altitude=162.60, speed=20.92, satellites=6, angle=110.5000, fixquality=1
$GPRMC,194407.250,A,4305.2925,N,07740.4787,W,20.84,106.88,040924,,,A*40
$GPGGA,194407.500,4305.2922,N,07740.4768,W,1,06,1.31,162.6,M,-34.4,M,,*5C
lng=-77.674644, lat=43.088207, altitude=162.60, speed=20.84, satellites=6, angle=106.8800, fixquality=1
$GPRMC,194407.750,A,4305.2918,N,07740.4749,W,20.75,104.29,040924,,,A*4E
$GPGGA,194408.000,4305.2916,N,07740.4730,W,1,06,1.31,162.7,M,-34.4,M,,*5D
lng=-77.674583, lat=43.088199, altitude=162.60, speed=20.75, satellites=6, angle=104.2900, fixquality=1
$GPRMC,194408.250,A,4305.2915,N,07740.4710,W,21.02,98.82,040924,,,A*71
$GPGGA,194408.500,4305.2915,N,07740.4690,W,1,06,1.32,162.6,M,-34.4,M,,*52
lng=-77.674522, lat=43.088191, altitude=162.70, speed=21.02, satellites=6, angle=98.8200, fixquality=1
$GPRMC,194408.750,A,4305.2915,N,07740.4670,W,20.98,93.53,040924,,,A*76
$GPGGA,194409.000,4305.2915,N,07740.4650,W,1,06,1.31,162.6,M,-34.4,M,,*59
lng=-77.674446, lat=43.088191, altitude=162.60, speed=20.98, satellites=6, angle=93.5300, fixquality=1
$GPRMC,194409.250,A,4305.2918,N,07740.4629,W,21.62,85.70,040924,,,A*71
$GPGGA,194409.500,4305.2921,N,07740.4608,W,1,06,1.31,162.6,M,-34.4,M,,*56
lng=-77.674385, lat=43.088199, altitude=162.60, speed=21.62, satellites=6, angle=85.7000, fixquality=1
$GPRMC,194409.750,A,4305.2926,N,07740.4587,W,22.22,78.12,040924,,,A*7F
$GPGGA,194410.000,4305.2931,N,07740.4568,W,1,06,1.31,162.6,M,-34.4,M,,*5F
lng=-77.674308, lat=43.088207, altitude=162.60, speed=22.22, satellites=6, angle=78.1200, fixquality=1
$GPRMC,194410.250,A,4305.2938,N,07740.4548,W,22.19,69.10,040924,,,A*74
$GPGGA,194410.500,4305.2946,N,07740.4529,W,1,06,1.31,162.5,M,-34.4,M,,*5C
lng=-77.674240, lat=43.088233, altitude=162.60, speed=22.19, satellites=6, angle=69.1000, fixquality=1
$GPRMC,194410.750,A,4305.2954,N,07740.4510,W,22.56,62.89,040924,,,A*76
$GPGGA,194411.000,4305.2963,N,07740.4493,W,1,06,1.31,162.5,M,-34.4,M,,*5F
lng=-77.674186, lat=43.088256, altitude=162.50, speed=22.56, satellites=6, angle=62.8900, fixquality=1
$GPRMC,194411.250,A,4305.2973,N,07740.4477,W,22.46,54.43,040924,,,A*75
$GPGGA,194411.500,4305.2984,N,07740.4460,W,1,06,1.31,162.6,M,-34.4,M,,*5C
lng=-77.674125, lat=43.088291, altitude=162.50, speed=22.46, satellites=6, angle=54.4300, fixquality=1
$GPRMC,194411.750,A,4305.2996,N,07740.4443,W,23.24,49.33,040924,,,A*72
$GPGGA,194412.000,4305.3010,N,07740.4425,W,1,06,1.30,162.6,M,-34.4,M,,*5F
lng=-77.674072, lat=43.088329, altitude=162.60, speed=23.24, satellites=6, angle=49.3300, fixquality=1
$GPRMC,194412.250,A,4305.3024,N,07740.4409,W,24.95,42.61,040924,,,A*7A
$GPGGA,194412.500,4305.3039,N,07740.4394,W,1,06,1.31,162.5,M,-34.4,M,,*5E
lng=-77.674018, lat=43.088371, altitude=162.60, speed=24.95, satellites=6, angle=42.6100, fixquality=1
$GPRMC,194412.750,A,4305.3054,N,07740.4379,W,25.67,36.96,040924,,,A*7F
$GPGGA,194413.000,4305.3069,N,07740.4365,W,1,06,1.31,162.6,M,-34.4,M,,*52
lng=-77.673965, lat=43.088420, altitude=162.50, speed=25.67, satellites=6, angle=36.9600, fixquality=1
$GPRMC,194413.250,A,4305.3085,N,07740.4352,W,26.51,30.98,040924,,,A*70
$GPGGA,194413.500,4305.3102,N,07740.4339,W,1,06,1.31,162.7,M,-34.4,M,,*53
lng=-77.673919, lat=43.088478, altitude=162.60, speed=26.51, satellites=6, angle=30.9800, fixquality=1
$GPRMC,194413.750,A,4305.3120,N,07740.4328,W,27.39,25.77,040924,,,A*7C
$GPGGA,194414.000,4305.3138,N,07740.4318,W,1,06,1.30,162.8,M,-34.4,M,,*55
lng=-77.673873, lat=43.088535, altitude=162.70, speed=27.39, satellites=6, angle=25.7700, fixquality=1
$GPRMC,194414.250,A,4305.3156,N,07740.4311,W,27.66,18.18,040924,,,A*78
$GPGGA,194414.500,4305.3175,N,07740.4304,W,1,06,1.31,162.8,M,-34.4,M,,*55
lng=-77.673851, lat=43.088588, altitude=162.80, speed=27.66, satellites=6, angle=18.1800, fixquality=1
$GPRMC,194414.750,A,4305.3193,N,07740.4299,W,27.92,12.02,040924,,,A*7F
$GPGGA,194415.000,4305.3211,N,07740.4295,W,1,06,1.31,162.9,M,-34.4,M,,*58
lng=-77.673828, lat=43.088657, altitude=162.80, speed=27.92, satellites=6, angle=12.0200, fixquality=1
$GPRMC,194415.250,A,4305.3228,N,07740.4294,W,25.91,4.59,040924,,,A*4D
$GPGGA,194415.500,4305.3245,N,07740.4293,W,1,06,1.31,163.1,M,-34.4,M,,*53
lng=-77.673820, lat=43.088710, altitude=162.90, speed=25.91, satellites=6, angle=4.5900, fixquality=1
$GPRMC,194415.750,A,4305.3263,N,07740.4293,W,25.20,0.45,040924,,,A*43
$GPGGA,194416.000,4305.3280,N,07740.4294,W,1,06,1.31,163.4,M,-34.4,M,,*5E
lng=-77.673820, lat=43.088768, altitude=163.10, speed=25.20, satellites=6, angle=0.4500, fixquality=1
$GPRMC,194416.250,A,4305.3297,N,07740.4296,W,24.96,357.69,040924,,,A*48
$GPGGA,194416.500,4305.3314,N,07740.4298,W,1,06,1.31,163.8,M,-34.4,M,,*57
lng=-77.673828, lat=43.088825, altitude=163.40, speed=24.96, satellites=6, angle=357.6900, fixquality=1
$GPRMC,194416.750,A,4305.3331,N,07740.4300,W,25.04,355.91,040924,,,A*41
$GPGGA,194417.000,4305.3349,N,07740.4302,W,1,06,1.31,164.1,M,-34.4,M,,*57
lng=-77.673835, lat=43.088882, altitude=163.80, speed=25.04, satellites=6, angle=355.9100, fixquality=1
$GPRMC,194417.250,A,4305.3367,N,07740.4304,W,25.60,355.55,040924,,,A*48
$GPGGA,194417.500,4305.3385,N,07740.4306,W,1,06,1.31,164.5,M,-34.4,M,,*52
lng=-77.673835, lat=43.088947, altitude=164.10, speed=25.60, satellites=6, angle=355.5500, fixquality=1
$GPRMC,194417.750,A,4305.3403,N,07740.4307,W,26.10,356.59,040924,,,A*40
$GPGGA,194418.000,4305.3422,N,07740.4309,W,1,06,1.31,164.8,M,-34.4,M,,*50
lng=-77.673843, lat=43.089004, altitude=164.50, speed=26.10, satellites=6, angle=356.5900, fixquality=1
$GPRMC,194418.250,A,4305.3440,N,07740.4311,W,26.35,357.58,040924,,,A*4D
$GPGGA,194418.500,4305.3459,N,07740.4311,W,1,06,1.31,165.1,M,-34.4,M,,*58
lng=-77.673851, lat=43.089069, altitude=164.80, speed=26.35, satellites=6, angle=357.5800, fixquality=1
$GPRMC,194418.750,A,4305.3478,N,07740.4312,W,27.16,359.31,040924,,,A*41
$GPGGA,194419.000,4305.3497,N,07740.4312,W,1,06,1.31,165.3,M,-34.4,M,,*5F
lng=-77.673851, lat=43.089126, altitude=165.10, speed=27.16, satellites=6, angle=359.3100, fixquality=1
$GPRMC,194419.250,A,4305.3517,N,07740.4312,W,27.98,0.85,040924,,,A*4B
$GPGGA,194419.500,4305.3536,N,07740.4311,W,1,06,1.31,165.5,M,-34.4,M,,*55
lng=-77.673851, lat=43.089191, altitude=165.30, speed=27.98, satellites=6, angle=0.8500, fixquality=1
$GPRMC,194419.750,A,4305.3556,N,07740.4310,W,28.00,2.38,040924,,,A*43
$GPGGA,194420.000,4305.3576,N,07740.4309,W,1,06,1.30,165.7,M,-34.4,M,,*54
lng=-77.673851, lat=43.089256, altitude=165.50, speed=28.00, satellites=6, angle=2.3800, fixquality=1
$GPRMC,194420.250,A,4305.3595,N,07740.4307,W,27.95,3.54,040924,,,A*4D
$GPGGA,194420.500,4305.3615,N,07740.4306,W,1,06,1.31,165.8,M,-34.4,M,,*56
lng=-77.673843, lat=43.089321, altitude=165.70, speed=27.95, satellites=6, angle=3.5400, fixquality=1
$GPRMC,194420.750,A,4305.3635,N,07740.4304,W,28.36,4.06,040924,,,A*44
$GPGGA,194421.000,4305.3655,N,07740.4302,W,1,06,1.30,166.0,M,-34.4,M,,*58
lng=-77.673835, lat=43.089389, altitude=165.80, speed=28.36, satellites=6, angle=4.0600, fixquality=1
$GPRMC,194421.250,A,4305.3675,N,07740.4300,W,28.71,4.39,040924,,,A*4F
$GPGGA,194421.500,4305.3695,N,07740.4298,W,1,06,1.31,166.1,M,-34.4,M,,*53
lng=-77.673835, lat=43.089462, altitude=166.00, speed=28.71, satellites=6, angle=4.3900, fixquality=1
$GPRMC,194421.750,A,4305.3716,N,07740.4296,W,28.98,3.91,040924,,,A*42
$GPGGA,194422.000,4305.3736,N,07740.4294,W,1,06,1.31,166.3,M,-34.4,M,,*53
lng=-77.673828, lat=43.089527, altitude=166.10, speed=28.98, satellites=6, angle=3.9100, fixquality=1
$GPRMC,194422.250,A,4305.3757,N,07740.4293,W,29.03,3.24,040924,,,A*49
$GPGGA,194422.500,4305.3777,N,07740.4291,W,1,06,1.31,166.5,M,-34.4,M,,*50
lng=-77.673820, lat=43.089591, altitude=166.30, speed=29.03, satellites=6, angle=3.2400, fixquality=1
$GPRMC,194422.750,A,4305.3798,N,07740.4290,W,29.01,3.27,040924,,,A*4D
$GPGGA,194423.000,4305.3818,N,07740.4288,W,1,06,1.30,166.6,M,-34.4,M,,*58
lng=-77.673820, lat=43.089664, altitude=166.50, speed=29.01, satellites=6, angle=3.2700, fixquality=1
$GPRMC,194423.250,A,4305.3839,N,07740.4287,W,29.02,3.15,040924,,,A*49
$GPGGA,194423.500,4305.3859,N,07740.4285,W,1,06,1.32,166.8,M,-34.4,M,,*59
lng=-77.673812, lat=43.089729, altitude=166.60, speed=29.02, satellites=6, angle=3.1500, fixquality=1
$GPRMC,194423.750,A,4305.3879,N,07740.4284,W,28.81,2.78,040924,,,A*4B
$GPGGA,194424.000,4305.3899,N,07740.4283,W,1,06,1.30,167.0,M,-34.4,M,,*5A
lng=-77.673805, lat=43.089794, altitude=166.80, speed=28.81, satellites=6, angle=2.7800, fixquality=1
$GPRMC,194424.250,A,4305.3919,N,07740.4283,W,28.28,2.02,040924,,,A*47
$GPGGA,194424.500,4305.3939,N,07740.4282,W,1,06,1.32,167.2,M,-34.4,M,,*55
lng=-77.673805, lat=43.089866, altitude=167.00, speed=28.28, satellites=6, angle=2.0200, fixquality=1
$GPRMC,194424.750,A,4305.3958,N,07740.4281,W,28.01,1.47,040924,,,A*4C
$GPGGA,194425.000,4305.3978,N,07740.4281,W,1,06,1.31,167.5,M,-34.4,M,,*53
lng=-77.673805, lat=43.089931, altitude=167.20, speed=28.01, satellites=6, angle=1.4700, fixquality=1
$GPRMC,194425.250,A,4305.3997,N,07740.4280,W,27.81,1.49,040924,,,A*43
$GPGGA,194425.500,4305.4016,N,07740.4280,W,1,06,1.31,167.7,M,-34.4,M,,*53
lng=-77.673805, lat=43.090000, altitude=167.50, speed=27.81, satellites=6, angle=1.4900, fixquality=1
$GPRMC,194425.750,A,4305.4035,N,07740.4279,W,27.06,1.08,040924,,,A*4C
$GPGGA,194426.000,4305.4054,N,07740.4279,W,1,06,1.32,167.8,M,-34.4,M,,*59
lng=-77.673797, lat=43.090053, altitude=167.70, speed=27.06, satellites=6, angle=1.0800, fixquality=1
$GPRMC,194426.250,A,4305.4073,N,07740.4279,W,26.82,0.67,040924,,,A*4D
$GPGGA,194426.500,4305.4092,N,07740.4279,W,1,06,1.31,168.0,M,-34.4,M,,*52
lng=-77.673797, lat=43.090122, altitude=167.80, speed=26.82, satellites=6, angle=0.6700, fixquality=1
$GPRMC,194426.750,A,4305.4111,N,07740.4279,W,26.98,0.66,040924,,,A*47
$GPGGA,194427.000,4305.4129,N,07740.4278,W,1,06,1.31,168.2,M,-34.4,M,,*54
lng=-77.673797, lat=43.090187, altitude=168.00, speed=26.98, satellites=6, angle=0.6600, fixquality=1
$GPRMC,194427.250,A,4305.4148,N,07740.4279,W,26.90,359.52,040924,,,A*4F
$GPGGA,194427.500,4305.4167,N,07740.4280,W,1,06,1.31,168.1,M,-34.4,M,,*5F
lng=-77.673797, lat=43.090251, altitude=168.20, speed=26.90, satellites=6, angle=359.5200, fixquality=1
$GPRMC,194427.750,A,4305.4186,N,07740.4281,W,26.80,358.95,040924,,,A*44
$GPGGA,194428.000,4305.4205,N,07740.4283,W,1,06,1.32,168.0,M,-34.4,M,,*53
lng=-77.673805, lat=43.090309, altitude=168.10, speed=26.80, satellites=6, angle=358.9500, fixquality=1
$GPRMC,194428.250,A,4305.4223,N,07740.4286,W,26.72,356.22,040924,,,A*4A
$GPGGA,194428.500,4305.4241,N,07740.4289,W,1,06,1.31,167.9,M,-34.4,M,,*59
lng=-77.673812, lat=43.090373, altitude=168.00, speed=26.72, satellites=6, angle=356.2200, fixquality=1
$GPRMC,194428.750,A,4305.4260,N,07740.4293,W,26.51,352.63,040924,,,A*4C
$GPGGA,194429.000,4305.4278,N,07740.4298,W,1,06,1.30,167.7,M,-34.4,M,,*58
lng=-77.673820, lat=43.090431, altitude=167.90, speed=26.51, satellites=6, angle=352.6300, fixquality=1
$GPRMC,194429.250,A,4305.4296,N,07740.4304,W,26.72,349.19,040924,,,A*48
$GPGGA,194429.500,4305.4313,N,07740.4310,W,1,06,1.32,167.7,M,-34.4,M,,*52
lng=-77.673835, lat=43.090496, altitude=167.70, speed=26.72, satellites=6, angle=349.1900, fixquality=1
$GPRMC,194429.750,A,4305.4330,N,07740.4317,W,26.27,345.49,040924,,,A*4B
$GPGGA,194430.000,4305.4347,N,07740.4325,W,1,06,1.31,167.6,M,-34.4,M,,*5A
lng=-77.673858, lat=43.090553, altitude=167.70, speed=26.27, satellites=6, angle=345.4900, fixquality=1
$GPRMC,194430.250,A,4305.4362,N,07740.4335,W,25.46,340.14,040924,,,A*48
$GPGGA,194430.500,4305.4378,N,07740.4345,W,1,06,1.31,167.5,M,-34.4,M,,*56
lng=-77.673896, lat=43.090599, altitude=167.60, speed=25.46, satellites=6, angle=340.1400, fixquality=1
$GPRMC,194430.750,A,4305.4394,N,07740.4356,W,25.69,335.15,040924,,,A*4F
$GPGGA,194431.000,4305.4410,N,07740.4368,W,1,06,1.31,167.4,M,-34.4,M,,*55
lng=-77.673927, lat=43.090656, altitude=167.50, speed=25.69, satellites=6, angle=335.1500, fixquality=1
$GPRMC,194431.250,A,4305.4425,N,07740.4380,W,26.04,331.72,040924,,,A*40
$GPGGA,194431.500,4305.4440,N,07740.4393,W,1,06,1.31,167.5,M,-34.4,M,,*50
lng=-77.673965, lat=43.090705, altitude=167.40, speed=26.04, satellites=6, angle=331.7200, fixquality=1
$GPRMC,194431.750,A,4305.4454,N,07740.4407,W,25.33,327.17,040924,,,A*48
$GPGGA,194432.000,4305.4466,N,07740.4421,W,1,06,1.30,167.5,M,-34.4,M,,*5D
lng=-77.674018, lat=43.090755, altitude=167.50, speed=25.33, satellites=6, angle=327.1700, fixquality=1
$GPRMC,194432.250,A,4305.4477,N,07740.4436,W,23.89,321.87,040924,,,A*45
$GPGGA,194432.500,4305.4488,N,07740.4453,W,1,06,1.32,167.5,M,-34.4,M,,*5F
lng=-77.674057, lat=43.090797, altitude=167.50, speed=23.89, satellites=6, angle=321.8700, fixquality=1
$GPRMC,194432.750,A,4305.4499,N,07740.4469,W,23.06,316.94,040924,,,A*4B
$GPGGA,194433.000,4305.4510,N,07740.4485,W,1,06,1.31,167.5,M,-34.4,M,,*53
lng=-77.674110, lat=43.090827, altitude=167.50, speed=23.06, satellites=6, angle=316.9400, fixquality=1
$GPRMC,194433.250,A,4305.4521,N,07740.4501,W,22.44,315.16,040924,,,A*4C
$GPGGA,194433.500,4305.4532,N,07740.4516,W,1,06,1.32,167.6,M,-34.4,M,,*5D
lng=-77.674171, lat=43.090869, altitude=167.50, speed=22.44, satellites=6, angle=315.1600, fixquality=1
$GPRMC,194433.750,A,4305.4543,N,07740.4531,W,22.15,315.31,040924,,,A*4F
$GPGGA,194434.000,4305.4554,N,07740.4546,W,1,06,1.32,167.6,M,-34.4,M,,*5A
lng=-77.674217, lat=43.090900, altitude=167.60, speed=22.15, satellites=6, angle=315.3100, fixquality=1
$GPRMC,194434.250,A,4305.4565,N,07740.4560,W,21.83,316.33,040924,,,A*40
$GPGGA,194434.500,4305.4577,N,07740.4574,W,1,06,1.31,167.6,M,-34.4,M,,*5C
lng=-77.674270, lat=43.090942, altitude=167.60, speed=21.83, satellites=6, angle=316.3300, fixquality=1
$GPRMC,194434.750,A,4305.4588,N,07740.4587,W,21.40,318.77,040924,,,A*4E
$GPGGA,194435.000,4305.4600,N,07740.4598,W,1,06,1.32,167.4,M,-34.4,M,,*58
lng=-77.674308, lat=43.090984, altitude=167.60, speed=21.40, satellites=6, angle=318.7700, fixquality=1
$GPRMC,194435.250,A,4305.4612,N,07740.4609,W,20.02,323.44,040924,,,A*40
$GPGGA,194435.500,4305.4626,N,07740.4616,W,1,06,1.32,167.6,M,-34.4,M,,*5E
lng=-77.674346, lat=43.091022, altitude=167.40, speed=20.02, satellites=6, angle=323.4400, fixquality=1
$GPRMC,194435.750,A,4305.4638,N,07740.4624,W,19.32,331.66,040924,,,A*48
$GPGGA,194436.000,4305.4652,N,07740.4631,W,1,06,1.31,167.6,M,-34.4,M,,*5D
lng=-77.674369, lat=43.091064, altitude=167.60, speed=19.32, satellites=6, angle=331.6600, fixquality=1
$GPRMC,194436.250,A,4305.4666,N,07740.4636,W,19.00,340.55,040924,,,A*41
$GPGGA,194436.500,4305.4679,N,07740.4641,W,1,06,1.32,167.7,M,-34.4,M,,*54
lng=-77.674392, lat=43.091114, altitude=167.60, speed=19.00, satellites=6, angle=340.5500, fixquality=1
$GPRMC,194436.750,A,4305.4693,N,07740.4645,W,19.04,346.46,040924,,,A*4A
$GPGGA,194437.000,4305.4706,N,07740.4649,W,1,06,1.31,167.7,M,-34.4,M,,*52
lng=-77.674407, lat=43.091152, altitude=167.70, speed=19.04, satellites=6, angle=346.4600, fixquality=1
$GPRMC,194437.250,A,4305.4720,N,07740.4651,W,18.87,350.56,040924,,,A*4E
$GPGGA,194437.500,4305.4735,N,07740.4652,W,1,06,1.31,167.7,M,-34.4,M,,*5D
lng=-77.674423, lat=43.091201, altitude=167.70, speed=18.87, satellites=6, angle=350.5600, fixquality=1
$GPRMC,194437.750,A,4305.4749,N,07740.4653,W,19.20,355.45,040924,,,A*4D
$GPGGA,194438.000,4305.4762,N,07740.4653,W,1,06,1.31,167.6,M,-34.4,M,,*55
lng=-77.674423, lat=43.091251, altitude=167.70, speed=19.20, satellites=6, angle=355.4500, fixquality=1
$GPRMC,194438.250,A,4305.4776,N,07740.4654,W,19.52,358.17,040924,,,A*43
$GPGGA,194438.500,4305.4790,N,07740.4654,W,1,06,1.31,167.4,M,-34.4,M,,*58
lng=-77.674423, lat=43.091293, altitude=167.60, speed=19.52, satellites=6, angle=358.1700, fixquality=1
$GPRMC,194438.750,A,4305.4803,N,07740.4655,W,19.61,358.73,040924,,,A*48
$GPGGA,194439.000,4305.4817,N,07740.4655,W,1,06,1.31,167.3,M,-34.4,M,,*5A
lng=-77.674423, lat=43.091342, altitude=167.40, speed=19.61, satellites=6, angle=358.7300, fixquality=1
$GPRMC,194439.250,A,4305.4831,N,07740.4656,W,19.87,358.90,040924,,,A*4B
$GPGGA,194439.500,4305.4845,N,07740.4656,W,1,06,1.31,167.4,M,-34.4,M,,*5C
lng=-77.674430, lat=43.091381, altitude=167.30, speed=19.87, satellites=6, angle=358.9000, fixquality=1
$GPRMC,194439.750,A,4305.4859,N,07740.4657,W,19.91,358.56,040924,,,A*4C
$GPGGA,194440.000,4305.4872,N,07740.4657,W,1,06,1.31,167.4,M,-34.4,M,,*52
lng=-77.674430, lat=43.091430, altitude=167.40, speed=19.91, satellites=6, angle=358.5600, fixquality=1
$GPRMC,194440.250,A,4305.4886,N,07740.4658,W,19.96,358.19,040924,,,A*46
$GPGGA,194440.500,4305.4899,N,07740.4659,W,1,06,1.31,167.3,M,-34.4,M,,*5B
lng=-77.674430, lat=43.091480, altitude=167.40, speed=19.96, satellites=6, angle=358.1900, fixquality=1
$GPRMC,194440.750,A,4305.4913,N,07740.4659,W,19.99,358.07,040924,,,A*4F
$GPGGA,194441.000,4305.4927,N,07740.4660,W,1,06,1.32,167.2,M,-34.4,M,,*53
lng=-77.674430, lat=43.091518, altitude=167.30, speed=19.99, satellites=6, angle=358.0700, fixquality=1
$GPRMC,194441.250,A,4305.4939,N,07740.4662,W,19.52,356.80,040924,,,A*4D
$GPGGA,194441.500,4305.4953,N,07740.4663,W,1,06,1.32,167.1,M,-34.4,M,,*55
lng=-77.674438, lat=43.091567, altitude=167.20, speed=19.52, satellites=6, angle=356.8000, fixquality=1
$GPRMC,194441.750,A,4305.4966,N,07740.4664,W,19.49,356.51,040924,,,A*42
$GPGGA,194442.000,4305.4979,N,07740.4665,W,1,06,1.32,167.1,M,-34.4,M,,*5D
lng=-77.674438, lat=43.091609, altitude=167.10, speed=19.49, satellites=6, angle=356.5100, fixquality=1
$GPRMC,194442.250,A,4305.4992,N,07740.4666,W,19.24,356.67,040924,,,A*43
$GPGGA,194442.500,4305.5006,N,07740.4667,W,1,06,1.31,167.1,M,-34.4,M,,*59
lng=-77.674446, lat=43.091651, altitude=167.10, speed=19.24, satellites=6, angle=356.6700, fixquality=1
$GPRMC,194442.750,A,4305.5019,N,07740.4667,W,18.87,357.18,040924,,,A*4D
$GPGGA,194443.000,4305.5031,N,07740.4668,W,1,06,1.32,167.0,M,-34.4,M,,*54
lng=-77.674446, lat=43.091697, altitude=167.10, speed=18.87, satellites=6, angle=357.1800, fixquality=1
$GPRMC,194443.250,A,4305.5044,N,07740.4669,W,18.46,356.97,040924,,,A*44
$GPGGA,194443.500,4305.5057,N,07740.4670,W,1,06,1.31,166.7,M,-34.4,M,,*5D
lng=-77.674446, lat=43.091739, altitude=167.00, speed=18.46, satellites=6, angle=356.9700, fixquality=1
$GPRMC,194443.750,A,4305.5069,N,07740.4670,W,17.99,358.14,040924,,,A*4E
$GPGGA,194444.000,4305.5081,N,07740.4671,W,1,06,1.32,166.6,M,-34.4,M,,*57
lng=-77.674446, lat=43.091781, altitude=166.70, speed=17.99, satellites=6, angle=358.1400, fixquality=1
$GPRMC,194444.250,A,4305.5093,N,07740.4672,W,17.53,357.69,040924,,,A*48
$GPGGA,194444.500,4305.5105,N,07740.4672,W,1,06,1.32,166.5,M,-34.4,M,,*5F
lng=-77.674453, lat=43.091819, altitude=166.60, speed=17.53, satellites=6, angle=357.6900, fixquality=1
$GPRMC,194444.750,A,4305.5117,N,07740.4673,W,16.86,358.35,040924,,,A*4E
$GPGGA,194445.000,4305.5129,N,07740.4673,W,1,06,1.31,166.7,M,-34.4,M,,*55
lng=-77.674453, lat=43.091861, altitude=166.50, speed=16.86, satellites=6, angle=358.3500, fixquality=1
$GPRMC,194445.250,A,4305.5140,N,07740.4673,W,16.23,359.50,040924,,,A*45
$GPGGA,194445.500,4305.5151,N,07740.4673,W,1,06,1.32,166.5,M,-34.4,M,,*5E
lng=-77.674453, lat=43.091903, altitude=166.70, speed=16.23, satellites=6, angle=359.5000, fixquality=1
$GPRMC,194445.750,A,4305.5162,N,07740.4673,W,15.51,359.07,040924,,,A*44
$GPGGA,194446.000,4305.5173,N,07740.4674,W,1,06,1.31,166.7,M,-34.4,M,,*5E
lng=-77.674453, lat=43.091934, altitude=166.50, speed=15.51, satellites=6, angle=359.0700, fixquality=1
$GPRMC,194446.250,A,4305.5183,N,07740.4674,W,14.86,359.18,040924,,,A*4F
$GPGGA,194446.500,4305.5193,N,07740.4674,W,1,06,1.31,166.6,M,-34.4,M,,*54
lng=-77.674453, lat=43.091968, altitude=166.70, speed=14.86, satellites=6, angle=359.1800, fixquality=1
$GPRMC,194446.750,A,4305.5202,N,07740.4675,W,14.26,358.87,040924,,,A*4C
$GPGGA,194447.000,4305.5211,N,07740.4676,W,1,06,1.31,166.3,M,-34.4,M,,*5E
lng=-77.674453, lat=43.091999, altitude=166.60, speed=14.26, satellites=6, angle=358.8700, fixquality=1
$GPRMC,194447.250,A,4305.5219,N,07740.4677,W,12.42,358.21,040924,,,A*48
$GPGGA,194447.500,4305.5227,N,07740.4677,W,1,06,1.31,166.3,M,-34.4,M,,*5F
lng=-77.674461, lat=43.092033, altitude=166.30, speed=12.42, satellites=6, angle=358.2100, fixquality=1
$GPRMC,194447.750,A,4305.5235,N,07740.4677,W,10.65,2.45,040924,,,A*4A
$GPGGA,194448.000,4305.5242,N,07740.4677,W,1,06,1.31,166.2,M,-34.4,M,,*57
lng=-77.674461, lat=43.092056, altitude=166.30, speed=10.65, satellites=6, angle=2.4500, fixquality=1
$GPRMC,194448.250,A,4305.5247,N,07740.4677,W,8.29,9.62,040924,,,A*7A
$GPGGA,194448.500,4305.5251,N,07740.4676,W,1,06,1.31,166.3,M,-34.4,M,,*50
lng=-77.674461, lat=43.092082, altitude=166.20, speed=8.29, satellites=6, angle=9.6200, fixquality=1
$GPRMC,194448.750,A,4305.5256,N,07740.4675,W,6.77,10.93,040924,,,A*4E
$GPGGA,194449.000,4305.5260,N,07740.4674,W,1,06,1.31,166.4,M,-34.4,M,,*53
lng=-77.674453, lat=43.092090, altitude=166.30, speed=6.77, satellites=6, angle=10.9300, fixquality=1
$GPRMC,194449.250,A,4305.5264,N,07740.4673,W,5.79,11.94,040924,,,A*46
$GPGGA,194449.500,4305.5267,N,07740.4673,W,1,06,1.31,166.5,M,-34.4,M,,*57
lng=-77.674453, lat=43.092105, altitude=166.40, speed=5.79, satellites=6, angle=11.9400, fixquality=1
$GPRMC,194449.750,A,4305.5271,N,07740.4672,W,4.73,13.30,040924,,,A*41
$GPGGA,194450.000,4305.5273,N,07740.4671,W,1,06,1.31,166.6,M,-34.4,M,,*5E
lng=-77.674453, lat=43.092113, altitude=166.50, speed=4.73, satellites=6, angle=13.3000, fixquality=1
$GPRMC,194450.250,A,4305.5276,N,07740.4670,W,4.01,17.89,040924,,,A*4A
$GPGGA,194450.500,4305.5279,N,07740.4669,W,1,06,1.32,166.7,M,-34.4,M,,*5A
lng=-77.674446, lat=43.092128, altitude=166.60, speed=4.01, satellites=6, angle=17.8900, fixquality=1
$GPRMC,194450.750,A,4305.5281,N,07740.4667,W,4.23,26.17,040924,,,A*44
$GPGGA,194451.000,4305.5284,N,07740.4665,W,1,06,1.31,166.9,M,-34.4,M,,*5D
lng=-77.674446, lat=43.092140, altitude=166.70, speed=4.23, satellites=6, angle=26.1700, fixquality=1
$GPRMC,194451.250,A,4305.5286,N,07740.4663,W,4.74,30.35,040924,,,A*46
$GPGGA,194451.500,4305.5290,N,07740.4661,W,1,06,1.31,166.9,M,-34.4,M,,*59
lng=-77.674438, lat=43.092147, altitude=166.90, speed=4.74, satellites=6, angle=30.3500, fixquality=1
$GPRMC,194451.750,A,4305.5293,N,07740.4657,W,5.77,37.68,040924,,,A*4D
$GPGGA,194452.000,4305.5297,N,07740.4653,W,1,06,1.32,167.1,M,-34.4,M,,*53
lng=-77.674430, lat=43.092155, altitude=166.90, speed=5.77, satellites=6, angle=37.6800, fixquality=1
$GPRMC,194452.250,A,4305.5300,N,07740.4648,W,6.89,48.86,040924,,,A*44
$GPGGA,194452.500,4305.5304,N,07740.4641,W,1,06,1.32,167.1,M,-34.4,M,,*5E
lng=-77.674415, lat=43.092163, altitude=167.10, speed=6.89, satellites=6, angle=48.8600, fixquality=1
$GPRMC,194452.750,A,4305.5308,N,07740.4633,W,8.56,57.90,040924,,,A*40
$GPGGA,194453.000,4305.5312,N,07740.4625,W,1,06,1.32,167.2,M,-34.4,M,,*5C
lng=-77.674392, lat=43.092178, altitude=167.10, speed=8.56, satellites=6, angle=57.9000, fixquality=1
$GPRMC,194453.250,A,4305.5315,N,07740.4615,W,10.28,64.44,040924,,,A*75
$GPGGA,194453.500,4305.5319,N,07740.4604,W,1,06,1.31,167.2,M,-34.4,M,,*52
lng=-77.674354, lat=43.092197, altitude=167.20, speed=10.28, satellites=6, angle=64.4400, fixquality=1
$GPRMC,194453.750,A,4305.5322,N,07740.4593,W,12.18,69.66,040924,,,A*75
$GPGGA,194454.000,4305.5324,N,07740.4581,W,1,06,1.32,167.2,M,-34.4,M,,*53
lng=-77.674324, lat=43.092205, altitude=167.20, speed=12.18, satellites=6, angle=69.6600, fixquality=1
$GPRMC,194454.250,A,4305.5327,N,07740.4566,W,14.65,76.84,040924,,,A*76
$GPGGA,194454.500,4305.5329,N,07740.4551,W,1,06,1.31,167.1,M,-34.4,M,,*56
lng=-77.674278, lat=43.092212, altitude=167.20, speed=14.65, satellites=6, angle=76.8400, fixquality=1
$GPRMC,194454.750,A,4305.5330,N,07740.4535,W,16.95,82.61,040924,,,A*7E
$GPGGA,194455.000,4305.5331,N,07740.4517,W,1,06,1.31,166.9,M,-34.4,M,,*50
lng=-77.674224, lat=43.092220, altitude=167.10, speed=16.95, satellites=6, angle=82.6100, fixquality=1
$GPRMC,194455.250,A,4305.5332,N,07740.4497,W,20.77,87.91,040924,,,A*72
$GPGGA,194455.500,4305.5333,N,07740.4475,W,1,06,1.32,166.6,M,-34.4,M,,*5E
lng=-77.674163, lat=43.092220, altitude=166.90, speed=20.77, satellites=6, angle=87.9100, fixquality=1
$GPRMC,194455.750,A,4305.5334,N,07740.4452,W,24.04,87.84,040924,,,A*7C
$GPGGA,194456.000,4305.5334,N,07740.4427,W,1,06,1.31,166.4,M,-34.4,M,,*59
lng=-77.674087, lat=43.092220, altitude=166.60, speed=24.04, satellites=6, angle=87.8400, fixquality=1
$GPRMC,194456.250,A,4305.5335,N,07740.4401,W,27.50,87.07,040924,,,A*74
$GPGGA,194456.500,4305.5337,N,07740.4373,W,1,06,1.32,166.2,M,-34.4,M,,*5C
lng=-77.673995, lat=43.092227, altitude=166.40, speed=27.50, satellites=6, angle=87.0700, fixquality=1
$GPRMC,194456.750,A,4305.5338,N,07740.4345,W,30.15,86.64,040924,,,A*78
$GPGGA,194457.000,4305.5339,N,07740.4315,W,1,06,1.31,166.2,M,-34.4,M,,*55
lng=-77.673912, lat=43.092227, altitude=166.20, speed=30.15, satellites=6, angle=86.6400, fixquality=1
$GPRMC,194457.250,A,4305.5340,N,07740.4284,W,32.52,86.42,040924,,,A*7A
$GPGGA,194457.500,4305.5342,N,07740.4252,W,1,06,1.31,166.1,M,-34.4,M,,*5D
lng=-77.673805, lat=43.092235, altitude=166.20, speed=32.52, satellites=6, angle=86.4200, fixquality=1
$GPRMC,194457.750,A,4305.5343,N,07740.4219,W,35.07,86.55,040924,,,A*79
$GPGGA,194458.000,4305.5345,N,07740.4184,W,1,06,1.32,166.0,M,-34.4,M,,*5A
lng=-77.673698, lat=43.092235, altitude=166.10, speed=35.07, satellites=6, angle=86.5500, fixquality=1
$GPRMC,194458.250,A,4305.5346,N,07740.4149,W,37.02,86.41,040924,,,A*72
$GPGGA,194458.500,4305.5347,N,07740.4113,W,1,06,1.32,166.0,M,-34.4,M,,*53
lng=-77.673583, lat=43.092243, altitude=166.00, speed=37.02, satellites=6, angle=86.4100, fixquality=1
$GPRMC,194458.750,A,4305.5348,N,07740.4076,W,39.11,87.08,040924,,,A*74
$GPGGA,194459.000,4305.5349,N,07740.4038,W,1,06,1.32,166.0,M,-34.4,M,,*51
lng=-77.673461, lat=43.092243, altitude=166.00, speed=39.11, satellites=6, angle=87.0800, fixquality=1
$GPRMC,194459.250,A,4305.5350,N,07740.4000,W,40.98,87.46,040924,,,A*7D
$GPGGA,194459.500,4305.5351,N,07740.3960,W,1,06,1.31,165.9,M,-34.4,M,,*57
lng=-77.673332, lat=43.092250, altitude=166.00, speed=40.98, satellites=6, angle=87.4600, fixquality=1
$GPRMC,194459.750,A,4305.5353,N,07740.3920,W,42.84,87.72,040924,,,A*7F
$GPGGA,194500.000,4305.5354,N,07740.3878,W,1,06,1.32,165.8,M,-34.4,M,,*50
lng=-77.673202, lat=43.092250, altitude=165.90, speed=42.84, satellites=6, angle=87.7200, fixquality=1
$GPRMC,194500.250,A,4305.5355,N,07740.3837,W,44.45,87.96,040924,,,A*77
$GPGGA,194500.500,4305.5356,N,07740.3794,W,1,07,1.26,165.7,M,-34.4,M,,*51
lng=-77.673065, lat=43.092262, altitude=165.80, speed=44.45, satellites=6, angle=87.9600, fixquality=1
$GPRMC,194500.750,A,4305.5357,N,07740.3751,W,45.88,88.22,040924,,,A*7F
$GPGGA,194501.000,4305.5358,N,07740.3707,W,1,07,1.26,165.6,M,-34.4,M,,*50
lng=-77.672920, lat=43.092262, altitude=165.70, speed=45.88, satellites=7, angle=88.2200, fixquality=1
$GPRMC,194501.250,A,4305.5359,N,07740.3663,W,46.48,88.20,040924,,,A*78
$GPGGA,194501.500,4305.5360,N,07740.3619,W,1,07,1.26,165.5,M,-34.4,M,,*53
lng=-77.672767, lat=43.092269, altitude=165.60, speed=46.48, satellites=7, angle=88.2000, fixquality=1
$GPRMC,194501.750,A,4305.5361,N,07740.3576,W,46.84,88.12,040924,,,A*70
$GPGGA,194502.000,4305.5362,N,07740.3533,W,1,07,1.26,165.4,M,-34.4,M,,*5D
lng=-77.672622, lat=43.092269, altitude=165.50, speed=46.84, satellites=7, angle=88.1200, fixquality=1
$GPRMC,194502.250,A,4305.5363,N,07740.3490,W,46.80,87.93,040924,,,A*7F
$GPGGA,194502.500,4305.5365,N,07740.3447,W,1,07,1.26,165.4,M,-34.4,M,,*5D
lng=-77.672485, lat=43.092269, altitude=165.40, speed=46.80, satellites=7, angle=87.9300, fixquality=1
$GPRMC,194502.750,A,4305.5366,N,07740.3404,W,46.62,87.71,040924,,,A*72
$GPGGA,194503.000,4305.5367,N,07740.3362,W,1,07,1.26,165.3,M,-34.4,M,,*5C
lng=-77.672340, lat=43.092277, altitude=165.40, speed=46.62, satellites=7, angle=87.7100, fixquality=1
$GPRMC,194503.250,A,4305.5369,N,07740.3320,W,46.31,87.68,040924,,,A*76
$GPGGA,194503.500,4305.5370,N,07740.3278,W,1,07,1.26,165.2,M,-34.4,M,,*54
lng=-77.672203, lat=43.092285, altitude=165.30, speed=46.31, satellites=7, angle=87.6800, fixquality=1
$GPRMC,194503.750,A,4305.5371,N,07740.3236,W,44.13,87.14,040924,,,A*75
$GPGGA,194504.000,4305.5373,N,07740.3194,W,1,07,1.26,165.2,M,-34.4,M,,*54
lng=-77.672065, lat=43.092285, altitude=165.20, speed=44.13, satellites=7, angle=87.1400, fixquality=1
$GPRMC,194504.250,A,4305.5374,N,07740.3152,W,43.63,87.24,040924,,,A*70
$GPGGA,194504.500,4305.5376,N,07740.3111,W,1,07,1.26,165.2,M,-34.4,M,,*59
lng=-77.671920, lat=43.092292, altitude=165.20, speed=43.63, satellites=7, angle=87.2400, fixquality=1
$GPRMC,194504.750,A,4305.5377,N,07740.3069,W,43.38,87.07,040924,,,A*70
$GPGGA,194505.000,4305.5378,N,07740.3028,W,1,07,1.26,165.2,M,-34.4,M,,*58
lng=-77.671783, lat=43.092292, altitude=165.20, speed=43.38, satellites=7, angle=87.0700, fixquality=1
$GPRMC,194505.250,A,4305.5380,N,07740.2987,W,43.11,87.40,040924,,,A*7C
$GPGGA,194505.500,4305.5381,N,07740.2945,W,1,07,1.26,165.3,M,-34.4,M,,*59
lng=-77.671646, lat=43.092300, altitude=165.20, speed=43.11, satellites=7, angle=87.4000, fixquality=1
$GPRMC,194505.750,A,4305.5382,N,07740.2905,W,43.00,87.55,040924,,,A*75
$GPGGA,194506.000,4305.5383,N,07740.2864,W,1,07,1.26,165.3,M,-34.4,M,,*5F
lng=-77.671508, lat=43.092300, altitude=165.30, speed=43.00, satellites=7, angle=87.5500, fixquality=1
$GPRMC,194506.250,A,4305.5384,N,07740.2823,W,42.71,87.24,040924,,,A*71
$GPGGA,194506.500,4305.5385,N,07740.2782,W,1,07,1.26,165.3,M,-34.4,M,,*5B
lng=-77.671371, lat=43.092308, altitude=165.30, speed=42.71, satellites=7, angle=87.2400, fixquality=1
$GPRMC,194506.750,A,4305.5386,N,07740.2742,W,42.30,87.28,040924,,,A*77
$GPGGA,194507.000,4305.5387,N,07740.2702,W,1,07,1.26,165.3,M,-34.4,M,,*55
lng=-77.671241, lat=43.092308, altitude=165.30, speed=42.30, satellites=7, angle=87.2800, fixquality=1
$GPRMC,194507.250,A,4305.5388,N,07740.2662,W,41.84,87.45,040924,,,A*79
$GPGGA,194507.500,4305.5389,N,07740.2622,W,1,07,1.26,165.3,M,-34.4,M,,*5D
lng=-77.671104, lat=43.092308, altitude=165.30, speed=41.84, satellites=7, angle=87.4500, fixquality=1
$GPRMC,194507.750,A,4305.5391,N,07740.2583,W,41.40,87.60,040924,,,A*77
$GPGGA,194508.000,4305.5392,N,07740.2544,W,1,07,1.26,165.2,M,-34.4,M,,*5F
lng=-77.670974, lat=43.092319, altitude=165.30, speed=41.40, satellites=7, angle=87.6000, fixquality=1
$GPRMC,194508.250,A,4305.5393,N,07740.2505,W,41.20,87.68,040924,,,A*7F
$GPGGA,194508.500,4305.5393,N,07740.2465,W,1,07,1.26,165.3,M,-34.4,M,,*58
lng=-77.670845, lat=43.092319, altitude=165.20, speed=41.20, satellites=7, angle=87.6800, fixquality=1
$GPRMC,194508.750,A,4305.5394,N,07740.2427,W,40.70,87.94,040924,,,A*7B
$GPGGA,194509.000,4305.5395,N,07740.2388,W,1,07,1.26,165.4,M,-34.4,M,,*59
lng=-77.670707, lat=43.092327, altitude=165.30, speed=40.70, satellites=7, angle=87.9400, fixquality=1
$GPRMC,194509.250,A,4305.5397,N,07740.2350,W,40.51,87.75,040924,,,A*77
$GPGGA,194509.500,4305.5398,N,07740.2312,W,1,07,1.26,165.5,M,-34.4,M,,*53
lng=-77.670578, lat=43.092327, altitude=165.40, speed=40.51, satellites=7, angle=87.7500, fixquality=1
$GPRMC,194509.750,A,4305.5399,N,07740.2274,W,40.24,87.40,040924,,,A*7F
$GPGGA,194510.000,4305.5400,N,07740.2237,W,1,07,1.26,165.6,M,-34.4,M,,*5D
lng=-77.670455, lat=43.092334, altitude=165.50, speed=40.24, satellites=7, angle=87.4000, fixquality=1
$GPRMC,194510.250,A,4305.5401,N,07740.2199,W,40.09,87.55,040924,,,A*7F
