Vers 72
USE_SERIAL_FEEDBACK=true
DEVELOPMENT_MODE=false
USE_RMC_ONLY=false

$GPRMC,223620.000,A,4305.1514,N,07740.8382,W,0.35,188.92,040924,,,A*7A
$GPGGA,223620.250,4305.1514,N,07740.8382,W,1,04,1.60,183.7,M,-34.4,M,,*58
lng=-77.680641, lat=43.085857, altitude=182.30, speed=0.35, satellites=4, angle=188.9200, fixquality=1
$GPRMC,223620.500,A,4305.1514,N,07740.8381,W,0.43,170.79,040924,,,A*7F
$GPGGA,223620.750,4305.1514,N,07740.8381,W,1,04,1.60,183.8,M,-34.4,M,,*51
lng=-77.680633, lat=43.085857, altitude=183.70, speed=0.43, satellites=4, angle=170.7900, fixquality=1
$GPGGA,223625.250,4305.1501,N,07740.8386,W,1,05,1.57,185.1,M,-34.4,M,,*58
$GPRMC,223625.250,A,4305.1501,N,07740.8386,W,1.36,190.29,040924,,,A*73
lng=-77.680641, lat=43.085830, altitude=185.10, speed=1.29, satellites=5, angle=189.6300, fixquality=1
$GPGGA,223625.500,4305.1500,N,07740.8386,W,1,05,1.57,185.3,M,-34.4,M,,*59
$GPRMC,223625.500,A,4305.1500,N,07740.8386,W,1.42,189.79,040924,,,A*7E
lng=-77.680641, lat=43.085830, altitude=185.30, speed=1.36, satellites=5, angle=190.2900, fixquality=1
$GPRMC,223631.000,A,4305.1510,N,07740.8395,W,2.63,288.97,040924,,,A*7F
$GPGGA,223631.250,4305.1510,N,07740.8397,W,1,06,1.29,186.2,M,-34.4,M,,*57
lng=-77.680656, lat=43.085849, altitude=186.30, speed=2.63, satellites=6, angle=288.9700, fixquality=1
$GPRMC,223631.500,A,4305.1511,N,07740.8400,W,3.06,289.07,040924,,,A*7A
$GPGGA,223631.750,4305.1512,N,07740.8403,W,1,06,1.29,186.3,M,-34.4,M,,*5B
lng=-77.680664, lat=43.085849, altitude=186.20, speed=3.06, satellites=6, angle=289.0700, fixquality=1
$GPRMC,223632.000,A,4305.1514,N,07740.8406,W,3.49,289.55,040924,,,A*73
$GPGGA,223632.250,4305.1514,N,07740.8409,W,1,06,1.29,186.3,M,-34.4,M,,*51
lng=-77.680679, lat=43.085857, altitude=186.30, speed=3.49, satellites=6, angle=289.5500, fixquality=1
$GPRMC,223632.500,A,4305.1515,N,07740.8413,W,3.64,286.16,040924,,,A*74
$GPGGA,223632.750,4305.1516,N,07740.8416,W,1,06,1.29,186.3,M,-34.4,M,,*58
lng=-77.680686, lat=43.085857, altitude=186.30, speed=3.64, satellites=6, angle=286.1600, fixquality=1
$GPRMC,223633.000,A,4305.1516,N,07740.8419,W,3.53,277.99,040924,,,A*74
$GPGGA,223633.250,4305.1516,N,07740.8423,W,1,06,1.29,186.4,M,-34.4,M,,*5D
lng=-77.680694, lat=43.085857, altitude=186.30, speed=3.53, satellites=6, angle=277.9900, fixquality=1
$GPRMC,223633.500,A,4305.1516,N,07740.8426,W,3.69,275.50,040924,,,A*73
$GPGGA,223633.750,4305.1516,N,07740.8430,W,1,06,1.29,186.4,M,-34.4,M,,*5A
lng=-77.680709, lat=43.085857, altitude=186.40, speed=3.69, satellites=6, angle=275.5000, fixquality=1
$GPRMC,223634.000,A,4305.1517,N,07740.8433,W,3.70,276.22,040924,,,A*7A
$GPGGA,223634.250,4305.1517,N,07740.8437,W,1,06,1.29,186.4,M,-34.4,M,,*5E
lng=-77.680717, lat=43.085865, altitude=186.40, speed=3.70, satellites=6, angle=276.2200, fixquality=1
$GPRMC,223634.500,A,4305.1518,N,07740.8439,W,3.30,270.18,040924,,,A*71
$GPGGA,223634.750,4305.1518,N,07740.8442,W,1,06,1.29,186.4,M,-34.4,M,,*56
lng=-77.680732, lat=43.085865, altitude=186.40, speed=3.30, satellites=6, angle=270.1800, fixquality=1
$GPRMC,223635.000,A,4305.1518,N,07740.8445,W,2.92,266.86,040924,,,A*77
$GPGGA,223635.250,4305.1518,N,07740.8448,W,1,06,1.29,186.4,M,-34.4,M,,*58
lng=-77.680747, lat=43.085865, altitude=186.40, speed=2.92, satellites=6, angle=266.8600, fixquality=1
$GPRMC,223635.500,A,4305.1517,N,07740.8451,W,3.16,265.08,040924,,,A*70
$GPGGA,223635.750,4305.1517,N,07740.8455,W,1,06,1.29,186.6,M,-34.4,M,,*5C
lng=-77.680755, lat=43.085865, altitude=186.40, speed=3.16, satellites=6, angle=265.0800, fixquality=1
$GPRMC,223636.000,A,4305.1516,N,07740.8458,W,3.20,263.58,040924,,,A*78
$GPGGA,223636.250,4305.1516,N,07740.8461,W,1,06,1.29,186.5,M,-34.4,M,,*5F
lng=-77.680763, lat=43.085857, altitude=186.60, speed=3.20, satellites=6, angle=263.5800, fixquality=1
$GPRMC,223636.500,A,4305.1515,N,07740.8464,W,3.19,258.75,040924,,,A*7C
$GPGGA,223636.750,4305.1515,N,07740.8467,W,1,06,1.29,186.4,M,-34.4,M,,*5E
lng=-77.680770, lat=43.085857, altitude=186.50, speed=3.19, satellites=6, angle=258.7500, fixquality=1
$GPRMC,223637.000,A,4305.1515,N,07740.8470,W,3.21,261.92,040924,,,A*75
$GPGGA,223637.250,4305.1514,N,07740.8474,W,1,06,1.29,186.3,M,-34.4,M,,*5E
lng=-77.680786, lat=43.085857, altitude=186.40, speed=3.21, satellites=6, angle=261.9200, fixquality=1
$GPRMC,223637.500,A,4305.1513,N,07740.8477,W,3.19,255.80,040924,,,A*7E
$GPGGA,223637.750,4305.1513,N,07740.8479,W,1,06,1.29,186.2,M,-34.4,M,,*50
lng=-77.680793, lat=43.085857, altitude=186.30, speed=3.19, satellites=6, angle=255.8000, fixquality=1
$GPRMC,223638.000,A,4305.1512,N,07740.8481,W,2.64,248.79,040924,,,A*7D
$GPGGA,223638.250,4305.1512,N,07740.8483,W,1,06,1.29,186.2,M,-34.4,M,,*5E
lng=-77.680801, lat=43.085857, altitude=186.20, speed=2.64, satellites=6, angle=248.7900, fixquality=1
$GPRMC,223638.500,A,4305.1512,N,07740.8485,W,2.30,262.99,040924,,,A*7B
$GPGGA,223638.750,4305.1512,N,07740.8487,W,1,06,1.29,186.2,M,-34.4,M,,*5F
lng=-77.680809, lat=43.085857, altitude=186.20, speed=2.30, satellites=6, angle=262.9900, fixquality=1
$GPGGA,223640.250,4305.1513,N,07740.8499,W,1,06,1.29,186.4,M,-34.4,M,,*5D
$GPRMC,223640.250,A,4305.1513,N,07740.8499,W,2.08,273.69,040924,,,A*7E
lng=-77.680831, lat=43.085857, altitude=186.40, speed=1.71, satellites=6, angle=275.6600, fixquality=1
$GPGGA,223640.500,4305.1512,N,07740.8502,W,1,06,1.29,186.4,M,-34.4,M,,*5D
$GPRMC,223640.500,A,4305.1512,N,07740.8502,W,2.82,261.24,040924,,,A*76
lng=-77.680831, lat=43.085857, altitude=186.40, speed=2.08, satellites=6, angle=273.6900, fixquality=1
$GPGGA,223640.750,4305.1511,N,07740.8506,W,1,06,1.29,186.4,M,-34.4,M,,*5D
$GPRMC,223640.750,A,4305.1511,N,07740.8506,W,3.53,260.19,040924,,,A*74
lng=-77.680839, lat=43.085849, altitude=186.40, speed=2.82, satellites=6, angle=261.2400, fixquality=1
$GPGGA,223641.000,4305.1510,N,07740.8510,W,1,06,1.29,186.4,M,-34.4,M,,*58
$GPRMC,223641.000,A,4305.1510,N,07740.8510,W,4.01,262.71,040924,,,A*7D
lng=-77.680854, lat=43.085849, altitude=186.40, speed=3.53, satellites=6, angle=260.1900, fixquality=1
$GPGGA,223641.250,4305.1510,N,07740.8516,W,1,06,1.45,186.4,M,-34.4,M,,*53
$GPRMC,223641.250,A,4305.1510,N,07740.8516,W,5.16,269.17,040924,,,A*70
lng=-77.680862, lat=43.085849, altitude=186.40, speed=4.01, satellites=6, angle=262.7100, fixquality=1
$GPGGA,223641.500,4305.1509,N,07740.8522,W,1,06,1.45,186.3,M,-34.4,M,,*59
$GPRMC,223641.500,A,4305.1509,N,07740.8522,W,5.93,268.17,040924,,,A*71
lng=-77.680870, lat=43.085849, altitude=186.30, speed=5.16, satellites=6, angle=269.1700, fixquality=1
$GPGGA,223641.750,4305.1509,N,07740.8529,W,1,06,1.45,186.3,M,-34.4,M,,*55
$GPRMC,223641.750,A,4305.1509,N,07740.8529,W,6.52,268.40,040924,,,A*71
lng=-77.680885, lat=43.085849, altitude=186.30, speed=5.93, satellites=6, angle=268.1700, fixquality=1
$GPGGA,223642.000,4305.1508,N,07740.8536,W,1,06,1.45,186.3,M,-34.4,M,,*5B
$GPRMC,223642.000,A,4305.1508,N,07740.8536,W,7.01,266.59,040924,,,A*7E
lng=-77.680892, lat=43.085849, altitude=186.30, speed=6.52, satellites=6, angle=268.4000, fixquality=1
$GPGGA,223642.250,4305.1507,N,07740.8543,W,1,06,1.45,186.2,M,-34.4,M,,*50
$GPRMC,223642.250,A,4305.1507,N,07740.8543,W,7.66,265.67,040924,,,A*7B
lng=-77.680908, lat=43.085849, altitude=186.20, speed=7.01, satellites=6, angle=266.5900, fixquality=1
$GPGGA,223642.500,4305.1506,N,07740.8552,W,1,06,1.45,186.2,M,-34.4,M,,*53
$GPRMC,223642.500,A,4305.1506,N,07740.8552,W,8.45,266.95,040924,,,A*78
lng=-77.680915, lat=43.085838, altitude=186.20, speed=7.66, satellites=6, angle=265.6700, fixquality=1
$GPGGA,223642.750,4305.1506,N,07740.8561,W,1,06,1.45,186.3,M,-34.4,M,,*55
$GPRMC,223642.750,A,4305.1506,N,07740.8561,W,8.80,266.36,040924,,,A*7F
lng=-77.680931, lat=43.085838, altitude=186.30, speed=8.45, satellites=6, angle=266.9500, fixquality=1
$GPGGA,223643.000,4305.1505,N,07740.8569,W,1,06,1.45,186.2,M,-34.4,M,,*5C
$GPRMC,223643.000,A,4305.1505,N,07740.8569,W,8.87,266.46,040924,,,A*77
lng=-77.680946, lat=43.085838, altitude=186.20, speed=8.80, satellites=6, angle=266.3600, fixquality=1
$GPGGA,223643.250,4305.1504,N,07740.8578,W,1,06,1.45,186.2,M,-34.4,M,,*5A
$GPRMC,223643.250,A,4305.1504,N,07740.8578,W,9.13,266.00,040924,,,A*7F
lng=-77.680961, lat=43.085838, altitude=186.20, speed=8.87, satellites=6, angle=266.4600, fixquality=1
$GPGGA,223643.500,4305.1503,N,07740.8588,W,1,06,1.45,186.2,M,-34.4,M,,*50
$GPRMC,223643.500,A,4305.1503,N,07740.8588,W,9.75,265.75,040924,,,A*74
lng=-77.680984, lat=43.085838, altitude=186.20, speed=9.13, satellites=6, angle=266.0000, fixquality=1
$GPGGA,223643.750,4305.1502,N,07740.8598,W,1,06,1.45,186.2,M,-34.4,M,,*57
$GPRMC,223643.750,A,4305.1502,N,07740.8598,W,10.26,264.84,040924,,,A*42
lng=-77.680999, lat=43.085838, altitude=186.20, speed=9.75, satellites=6, angle=265.7500, fixquality=1
$GPGGA,223644.000,4305.1501,N,07740.8608,W,1,06,1.29,186.1,M,-34.4,M,,*52
$GPRMC,223644.000,A,4305.1501,N,07740.8608,W,10.57,264.82,040924,,,A*4E
lng=-77.681015, lat=43.085830, altitude=186.10, speed=10.26, satellites=6, angle=264.8400, fixquality=1
$GPGGA,223644.250,4305.1500,N,07740.8619,W,1,06,1.45,186.1,M,-34.4,M,,*5E
$GPRMC,223644.250,A,4305.1500,N,07740.8619,W,10.94,265.05,040924,,,A*49
lng=-77.681030, lat=43.085830, altitude=186.10, speed=10.57, satellites=6, angle=264.8200, fixquality=1
$GPGGA,223644.500,4305.1499,N,07740.8630,W,1,06,1.45,186.1,M,-34.4,M,,*56
$GPRMC,223644.500,A,4305.1499,N,07740.8630,W,11.14,265.83,040924,,,A*46
lng=-77.681045, lat=43.085830, altitude=186.10, speed=10.94, satellites=6, angle=265.0500, fixquality=1
$GPGGA,223644.750,4305.1498,N,07740.8641,W,1,06,1.45,186.0,M,-34.4,M,,*57
$GPRMC,223644.750,A,4305.1498,N,07740.8641,W,11.31,265.76,040924,,,A*4B
lng=-77.681068, lat=43.085830, altitude=186.00, speed=11.14, satellites=6, angle=265.8300, fixquality=1
$GPGGA,223645.000,4305.1497,N,07740.8652,W,1,06,1.29,186.0,M,-34.4,M,,*53
$GPRMC,223645.000,A,4305.1497,N,07740.8652,W,11.37,265.58,040924,,,A*4F
lng=-77.681083, lat=43.085830, altitude=186.00, speed=11.31, satellites=6, angle=265.7600, fixquality=1
$GPGGA,223645.250,4305.1497,N,07740.8663,W,1,06,1.45,186.0,M,-34.4,M,,*5C
$GPRMC,223645.250,A,4305.1497,N,07740.8663,W,11.40,265.76,040924,,,A*46
lng=-77.681106, lat=43.085830, altitude=186.00, speed=11.37, satellites=6, angle=265.5800, fixquality=1
$GPGGA,223645.500,4305.1496,N,07740.8673,W,1,06,1.45,185.9,M,-34.4,M,,*54
$GPRMC,223645.500,A,4305.1496,N,07740.8673,W,11.22,265.63,040924,,,A*44
lng=-77.681121, lat=43.085823, altitude=185.90, speed=11.40, satellites=6, angle=265.7600, fixquality=1
$GPGGA,223645.750,4305.1495,N,07740.8684,W,1,06,1.45,185.8,M,-34.4,M,,*59
$GPRMC,223645.750,A,4305.1495,N,07740.8684,W,11.19,264.98,040924,,,A*45
lng=-77.681137, lat=43.085823, altitude=185.80, speed=11.22, satellites=6, angle=265.6300, fixquality=1
$GPGGA,223646.000,4305.1495,N,07740.8694,W,1,06,1.29,185.8,M,-34.4,M,,*53
$GPRMC,223646.000,A,4305.1495,N,07740.8694,W,11.11,265.19,040924,,,A*45
lng=-77.681159, lat=43.085823, altitude=185.80, speed=11.19, satellites=6, angle=264.9800, fixquality=1
$GPGGA,223646.250,4305.1494,N,07740.8704,W,1,06,1.45,185.8,M,-34.4,M,,*57
$GPRMC,223646.250,A,4305.1494,N,07740.8704,W,10.85,265.50,040924,,,A*4A
lng=-77.681175, lat=43.085823, altitude=185.80, speed=11.11, satellites=6, angle=265.1900, fixquality=1
$GPGGA,223646.500,4305.1494,N,07740.8714,W,1,06,1.45,185.7,M,-34.4,M,,*5B
$GPRMC,223646.500,A,4305.1494,N,07740.8714,W,10.65,266.38,04092$GPGGA,223646.750,4305.1493,N,07740.8724,W,1,06,1.45,185.6,M,-34.4,M,,*59
lng=-77.681190, lat=43.085823, altitude=185.70, speed=10.85, satellites=6, angle=265.5000, fixquality=1
$GPRMC,223647.000,A,4305.1493,N,07740.8734,W,10.50,266.62,040924,,,A*42
$GPGGA,223647.250,4305.1492,N,07740.8743,W,1,06,1.45,185.6,M,-34.4,M,,*5D
lng=-77.681228, lat=43.085823, altitude=185.70, speed=10.50, satellites=6, angle=266.6200, fixquality=1
$GPRMC,223647.500,A,4305.1492,N,07740.8753,W,10.09,267.01,040924,,,A*4F
$GPGGA,223647.750,4305.1491,N,07740.8762,W,1,06,1.45,185.5,M,-34.4,M,,*5B
lng=-77.681259, lat=43.085823, altitude=185.60, speed=10.09, satellites=6, angle=267.0100, fixquality=1
$GPRMC,223648.000,A,4305.1491,N,07740.8771,W,9.98,265.65,040924,,,A*76
$GPGGA,223648.250,4305.1490,N,07740.8781,W,1,06,1.29,185.5,M,-34.4,M,,*57
lng=-77.681282, lat=43.085815, altitude=185.50, speed=9.98, satellites=6, angle=265.6500, fixquality=1
$GPRMC,223648.500,A,4305.1490,N,07740.8790,W,9.87,265.14,040924,,,A*75
$GPGGA,223648.750,4305.1490,N,07740.8798,W,1,06,1.29,185.5,M,-34.4,M,,*5A
lng=-77.681312, lat=43.085815, altitude=185.50, speed=9.87, satellites=6, angle=265.1400, fixquality=1
$GPRMC,223649.000,A,4305.1490,N,07740.8807,W,9.79,266.71,040924,,,A*71
$GPGGA,223649.250,4305.1490,N,07740.8816,W,1,06,1.29,185.5,M,-34.4,M,,*57
lng=-77.681350, lat=43.085815, altitude=185.50, speed=9.79, satellites=6, angle=266.7100, fixquality=1
$GPRMC,223649.500,A,4305.1491,N,07740.8825,W,9.72,268.79,040924,,,A*78
$GPGGA,223649.750,4305.1492,N,07740.8835,W,1,06,1.29,185.5,M,-34.4,M,,*51
lng=-77.681373, lat=43.085815, altitude=185.50, speed=9.72, satellites=6, angle=268.7900, fixquality=1
$GPRMC,223650.000,A,4305.1492,N,07740.8844,W,10.14,270.76,040924,,,A*4F
$GPGGA,223650.250,4305.1493,N,07740.8855,W,1,06,1.29,185.5,M,-34.4,M,,*5B
lng=-77.681404, lat=43.085823, altitude=185.50, speed=10.14, satellites=6, angle=270.7600, fixquality=1
$GPRMC,223650.500,A,4305.1494,N,07740.8865,W,10.92,273.22,040924,,,A*43
$GPGGA,223650.750,4305.1495,N,07740.8876,W,1,06,1.29,185.4,M,-34.4,M,,*58
lng=-77.681442, lat=43.085823, altitude=185.50, speed=10.92, satellites=6, angle=273.2200, fixquality=1
$GPRMC,223651.000,A,4305.1496,N,07740.8888,W,11.56,273.95,040924,,,A*43
$GPGGA,223651.250,4305.1497,N,07740.8900,W,1,06,1.29,185.3,M,-34.4,M,,*59
lng=-77.681480, lat=43.085823, altitude=185.40, speed=11.56, satellites=6, angle=273.9500, fixquality=1
$GPRMC,223651.500,A,4305.1498,N,07740.8912,W,12.42,274.98,040924,,,A*46
$GPGGA,223651.750,4305.1499,N,07740.8924,W,1,06,1.29,185.2,M,-34.4,M,,*55
lng=-77.681518, lat=43.085830, altitude=185.30, speed=12.42, satellites=6, angle=274.9800, fixquality=1
$GPRMC,223652.000,A,4305.1500,N,07740.8937,W,12.93,275.13,040924,,,A*49
$GPGGA,223652.250,4305.1501,N,07740.8950,W,1,06,1.29,185.1,M,-34.4,M,,*53
lng=-77.681556, lat=43.085830, altitude=185.20, speed=12.93, satellites=6, angle=275.1300, fixquality=1
$GPRMC,223652.500,A,4305.1502,N,07740.8965,W,13.93,275.38,040924,,,A*41
$GPGGA,223652.750,4305.1503,N,07740.8979,W,1,06,1.45,185.0,M,-34.4,M,,*54
lng=-77.681610, lat=43.085838, altitude=185.10, speed=13.93, satellites=6, angle=275.3800, fixquality=1
$GPRMC,223653.000,A,4305.1504,N,07740.8994,W,14.65,275.06,040924,,,A*4E
$GPGGA,223653.250,4305.1504,N,07740.9008,W,1,06,1.45,185.0,M,-34.4,M,,*59
lng=-77.681655, lat=43.085838, altitude=185.00, speed=14.65, satellites=6, angle=275.0600, fixquality=1
$GPRMC,223653.500,A,4305.1504,N,07740.9022,W,14.89,273.69,040924,,,A*43
$GPGGA,223653.750,4305.1505,N,07740.9036,W,1,06,1.45,184.9,M,-34.4,M,,*58
lng=-77.681709, lat=43.085838, altitude=185.00, speed=14.89, satellites=6, angle=273.6900, fixquality=1
$GPRMC,223654.000,A,4305.1505,N,07740.9050,W,14.92,273.39,040924,,,A*4A
$GPGGA,223654.250,4305.1506,N,07740.9065,W,1,06,1.29,184.8,M,-34.4,M,,*54
lng=-77.681747, lat=43.085838, altitude=184.90, speed=14.92, satellites=6, angle=273.3900, fixquality=1
$GPRMC,223654.500,A,4305.1506,N,07740.9079,W,14.83,273.09,040924,,,A*44
$GPGGA,223654.750,4305.1506,N,07740.9093,W,1,06,1.45,184.7,M,-34.4,M,,*5D
lng=-77.681793, lat=43.085838, altitude=184.80, speed=14.83, satellites=6, angle=273.0900, fixquality=1
$GPRMC,223655.000,A,4305.1507,N,07740.9107,W,14.61,274.20,040924,,,A*49
$GPGGA,223655.250,4305.1508,N,07740.9120,W,1,06,1.45,184.7,M,-34.4,M,,*5E
lng=-77.681846, lat=43.085849, altitude=184.70, speed=14.61, satellites=6, angle=274.2000, fixquality=1
$GPRMC,223655.500,A,4305.1509,N,07740.9134,W,14.53,274.79,040924,,,A*4F
$GPGGA,223655.750,4305.1511,N,07740.9147,W,1,06,1.45,184.7,M,-34.4,M,,*52
lng=-77.681892, lat=43.085849, altitude=184.70, speed=14.53, satellites=6, angle=274.7900, fixquality=1
$GPRMC,223656.000,A,4305.1512,N,07740.9161,W,14.50,275.66,040924,,,A*4F
$GPGGA,223656.250,4305.1513,N,07740.9174,W,1,06,1.29,184.7,M,-34.4,M,,*5C
lng=-77.681930, lat=43.085857, altitude=184.70, speed=14.50, satellites=6, angle=275.6600, fixquality=1
$GPRMC,223656.500,A,4305.1514,N,07740.9188,W,14.45,277.14,040924,,,A*48
$GPGGA,223656.750,4305.1515,N,07740.9202,W,1,06,1.45,184.7,M,-34.4,M,,*57
lng=-77.681983, lat=43.085857, altitude=184.70, speed=14.45, satellites=6, angle=277.1400, fixquality=1
$GPRMC,223657.000,A,4305.1516,N,07740.9216,W,14.36,278.06,040924,,,A*42
$GPGGA,223657.250,4305.1518,N,07740.9229,W,1,06,1.29,184.8,M,-34.4,M,,*52
lng=-77.682022, lat=43.085857, altitude=184.70, speed=14.36, satellites=6, angle=278.0600, fixquality=1
$GPRMC,223657.500,A,4305.1519,N,07740.9243,W,14.33,279.21,040924,,,A*49
$GPGGA,223657.750,4305.1521,N,07740.9256,W,1,06,1.45,184.8,M,-34.4,M,,*5F
lng=-77.682075, lat=43.085865, altitude=184.80, speed=14.33, satellites=6, angle=279.2100, fixquality=1
$GPRMC,223658.000,A,4305.1523,N,07740.9270,W,14.52,280.04,040924,,,A*4C
$GPGGA,223658.250,4305.1525,N,07740.9284,W,1,06,1.45,184.9,M,-34.4,M,,*5F
lng=-77.682113, lat=43.085872, altitude=184.80, speed=14.52, satellites=6, angle=280.0400, fixquality=1
$GPRMC,223658.500,A,4305.1526,N,07740.9299,W,14.73,280.19,040924,,,A*44
$GPGGA,223658.750,4305.1527,N,07740.9313,W,1,06,1.45,185.1,M,-34.4,M,,*5E
lng=-77.682159, lat=43.085880, altitude=184.90, speed=14.73, satellites=6, angle=280.1900, fixquality=1
$GPRMC,223659.000,A,4305.1528,N,07740.9328,W,14.73,279.88,040924,,,A*4B
$GPGGA,223659.250,4305.1529,N,07740.9343,W,1,06,1.45,185.3,M,-34.4,M,,*53
lng=-77.682212, lat=43.085880, altitude=185.10, speed=14.73, satellites=6, angle=279.8800, fixquality=1
$GPRMC,223659.500,A,4305.1530,N,07740.9357,W,14.86,279.45,040924,,,A*44
$GPGGA,223659.750,4305.1531,N,07740.9372,W,1,06,1.45,185.3,M,-34.4,M,,*5D
lng=-77.682258, lat=43.085880, altitude=185.30, speed=14.86, satellites=6, angle=279.4500, fixquality=1
$GPRMC,223700.000,A,4305.1532,N,07740.9386,W,15.16,278.69,040924,,,A*45
$GPGGA,223700.250,4305.1533,N,07740.9401,W,1,06,1.29,185.3,M,-34.4,M,,*5E
lng=-77.682304, lat=43.085887, altitude=185.30, speed=15.16, satellites=6, angle=278.6900, fixquality=1
$GPRMC,223700.500,A,4305.1535,N,07740.9415,W,15.17,277.39,040924,,,A*41
$GPGGA,223700.750,4305.1536,N,07740.9430,W,1,06,1.29,185.2,M,-34.4,M,,*5D
lng=-77.682357, lat=43.085887, altitude=185.30, speed=15.17, satellites=6, angle=277.3900, fixquality=1
$GPRMC,223701.000,A,4305.1537,N,07740.9444,W,15.12,275.96,040924,,,A*41
$GPGGA,223701.250,4305.1538,N,07740.9458,W,1,06,1.29,185.2,M,-34.4,M,,*59
lng=-77.682403, lat=43.085895, altitude=185.20, speed=15.12, satellites=6, angle=275.9600, fixquality=1
$GPRMC,223701.500,A,4305.1539,N,07740.9472,W,15.05,274.82,040924,,,A*4D
$GPGGA,223701.750,4305.1540,N,07740.9486,W,1,06,1.45,185.2,M,-34.4,M,,*5A
lng=-77.682456, lat=43.085895, altitude=185.20, speed=15.05, satellites=6, angle=274.8200, fixquality=1
$GPRMC,223702.000,A,4305.1542,N,07740.9501,W,15.01,274.08,040924,,,A*44
$GPGGA,223702.250,4305.1543,N,07740.9515,W,1,06,1.29,185.2,M,-34.4,M,,*5E
lng=-77.682502, lat=43.085903, altitude=185.20, speed=15.01, satellites=6, angle=274.0800, fixquality=1
$GPRMC,223702.500,A,4305.1545,N,07740.9529,W,15.00,273.71,040924,,,A*44
$GPGGA,223702.750,4305.1546,N,07740.9543,W,1,06,1.45,185.1,M,-34.4,M,,*54
lng=-77.682548, lat=43.085903, altitude=185.20, speed=15.00, satellites=6, angle=273.7100, fixquality=1
$GPRMC,223703.000,A,4305.1547,N,07740.9557,W,14.96,273.14,040924,,,A*46
$GPGGA,223703.250,4305.1549,N,07740.9571,W,1,06,1.45,185.0,M,-34.4,M,,*5F
lng=-77.682594, lat=43.085914, altitude=185.10, speed=14.96, satellites=6, angle=273.1400, fixquality=1
$GPRMC,223703.500,A,4305.1550,N,07740.9585,W,14.70,272.17,040924,,,A*40
$GPGGA,223703.750,4305.1551,N,07740.9599,W,1,06,1.45,185.0,M,-34.4,M,,*55
lng=-77.682640, lat=43.085914, altitude=185.00, speed=14.70, satellites=6, angle=272.1700, fixquality=1
$GPRMC,223704.000,A,4305.1552,N,07740.9613,W,14.47,271.48,040924,,,A*41
$GPGGA,223704.250,4305.1552,N,07740.9626,W,1,06,1.45,184.9,M,-34.4,M,,*5B
lng=-77.682693, lat=43.085922, altitude=185.00, speed=14.47, satellites=6, angle=271.4800, fixquality=1
$GPRMC,223704.500,A,4305.1553,N,07740.9640,W,14.21,271.08,040924,,,A*47
$GPGGA,223704.750,4305.1553,N,07740.9653,W,1,06,1.29,184.9,M,-34.4,M,,*57
lng=-77.682731, lat=43.085922, altitude=184.90, speed=14.21, satellites=6, angle=271.0800, fixquality=1
$GPRMC,223705.000,A,4305.1553,N,07740.9666,W,13.77,270.62,040924,,,A*4E
$GPGGA,223705.250,4305.1553,N,07740.9678,W,1,06,1.45,184.9,M,-34.4,M,,*50
lng=-77.682777, lat=43.085922, altitude=184.90, speed=13.77, satellites=6, angle=270.6200, fixquality=1
$GPRMC,223705.500,A,4305.1553,N,07740.9691,W,13.39,268.40,040924,,,A*40
$GPGGA,223705.750,4305.1552,N,07740.9704,W,1,06,1.45,184.9,M,-34.4,M,,*5E
lng=-77.682823, lat=43.085922, altitude=184.90, speed=13.39, satellites=6, angle=268.4000, fixquality=1
$GPRMC,223706.000,A,4305.1551,N,07740.9717,W,13.26,266.78,040924,,,A*40
$GPGGA,223706.250,4305.1550,N,07740.9729,W,1,06,1.45,185.0,M,-34.4,M,,*5D
lng=-77.682861, lat=43.085922, altitude=184.90, speed=13.26, satellites=6, angle=266.7800, fixquality=1
$GPRMC,223706.500,A,4305.1549,N,07740.9741,W,12.77,264.82,040924,,,A*4D
$GPGGA,223706.750,4305.1548,N,07740.9753,W,1,06,1.45,185.0,M,-34.4,M,,*5C
lng=-77.682899, lat=43.085914, altitude=185.00, speed=12.77, satellites=6, angle=264.8200, fixquality=1
$GPRMC,223707.000,A,4305.1547,N,07740.9764,W,12.52,262.66,040924,,,A*4B
$GPGGA,223707.250,4305.1545,N,07740.9776,W,1,06,1.45,185.1,M,-34.4,M,,*53
lng=-77.682945, lat=43.085914, altitude=185.00, speed=12.52, satellites=6, angle=262.6600, fixquality=1
$GPRMC,223707.500,A,4305.1542,N,07740.9787,W,12.13,257.59,040924,,,A*49
$GPGGA,223707.750,4305.1538,N,07740.9798,W,1,06,1.45,185.1,M,-34.4,M,,*5C
lng=-77.682975, lat=43.085903, altitude=185.10, speed=12.13, satellites=6, angle=257.5900, fixquality=1
$GPRMC,223708.000,A,4305.1533,N,07740.9809,W,11.89,248.53,040924,,,A*48
$GPGGA,223708.250,4305.1529,N,07740.9819,W,1,06,1.45,185.1,M,-34.4,M,,*50
lng=-77.683013, lat=43.085887, altitude=185.10, speed=11.89, satellites=6, angle=248.5300, fixquality=1
$GPRMC,223708.500,A,4305.1524,N,07740.9829,W,11.98,242.84,040924,,,A*49
$GPGGA,223708.750,4305.1519,N,07740.9840,W,1,06,1.45,184.9,M,-34.4,M,,*53
lng=-77.683052, lat=43.085872, altitude=185.10, speed=11.98, satellites=6, angle=242.8400, fixquality=1
$GPRMC,223709.000,A,4305.1514,N,07740.9849,W,12.08,237.31,040924,,,A*4E
$GPGGA,223709.250,4305.1508,N,07740.9857,W,1,06,1.45,184.8,M,-34.4,M,,*50
lng=-77.683082, lat=43.085857, altitude=184.90, speed=12.08, satellites=6, angle=237.3100, fixquality=1
$GPRMC,223709.500,A,4305.1502,N,07740.9864,W,11.62,226.68,040924,,,A*40
$GPGGA,223709.750,4305.1494,N,07740.9871,W,1,06,1.29,184.9,M,-34.4,M,,*5E
lng=-77.683105, lat=43.085838, altitude=184.80, speed=11.62, satellites=6, angle=226.6800, fixquality=1
$GPRMC,223710.000,A,4305.1486,N,07740.9878,W,12.22,216.65,040924,,,A*44
$GPGGA,223710.250,4305.1477,N,07740.9884,W,1,06,1.29,184.9,M,-34.4,M,,*54
lng=-77.683128, lat=43.085807, altitude=184.90, speed=12.22, satellites=6, angle=216.6500, fixquality=1
$GPRMC,223710.500,A,4305.1468,N,07740.9889,W,12.87,205.00,040924,,,A*41
$GPGGA,223710.750,4305.1458,N,07740.9893,W,1,06,1.45,185.0,M,-34.4,M,,*58
lng=-77.683143, lat=43.085781, altitude=184.90, speed=12.87, satellites=6, angle=205.0000, fixquality=1
$GPRMC,223711.000,A,4305.1449,N,07740.9897,W,13.48,198.13,040924,,,A*4E
$GPGGA,223711.250,4305.1439,N,07740.9899,W,1,06,1.45,185.0,M,-34.4,M,,*51
lng=-77.683158, lat=43.085750, altitude=185.00, speed=13.48, satellites=6, angle=198.1300, fixquality=1
$GPRMC,223711.500,A,4305.1430,N,07740.9902,W,13.70,192.87,040924,,,A*44
$GPGGA,223711.750,4305.1420,N,07740.9903,W,1,06,1.45,185.0,M,-34.4,M,,*5E
lng=-77.683174, lat=43.085716, altitude=185.00, speed=13.70, satellites=6, angle=192.8700, fixquality=1
$GPRMC,223712.000,A,4305.1410,N,07740.9904,W,13.61,188.27,040924,,,A*47
$GPGGA,223712.250,4305.1401,N,07740.9905,W,1,06,1.45,185.1,M,-34.4,M,,*5C
lng=-77.683174, lat=43.085685, altitude=185.00, speed=13.61, satellites=6, angle=188.2700, fixquality=1
$GPRMC,223712.500,A,4305.1391,N,07740.9907,W,13.27,187.77,040924,,,A*47
$GPGGA,223712.750,4305.1382,N,07740.9908,W,1,06,1.45,185.1,M,-34.4,M,,*58
lng=-77.683181, lat=43.085651, altitude=185.10, speed=13.27, satellites=6, angle=187.7700, fixquality=1
$GPRMC,223713.000,A,4305.1373,N,07740.9910,W,12.87,191.00,040924,,,A*45
$GPGGA,223713.250,4305.1364,N,07740.9913,W,1,06,1.29,185.1,M,-34.4,M,,*54
lng=-77.683189, lat=43.085620, altitude=185.10, speed=12.87, satellites=6, angle=191.0000, fixquality=1
$GPRMC,223713.500,A,4305.1355,N,07740.9917,W,12.73,198.45,040924,,,A*40
$GPGGA,223713.750,4305.1347,N,07740.9921,W,1,06,1.45,185.0,M,-34.4,M,,*5A
lng=-77.683197, lat=43.085586, altitude=185.10, speed=12.73, satellites=6, angle=198.4500, fixquality=1
$GPRMC,223714.000,A,4305.1339,N,07740.9925,W,12.27,203.50,040924,,,A*4D
$GPGGA,223714.250,4305.1331,N,07740.9930,W,1,06,1.45,185.0,M,-34.4,M,,*59
lng=-77.683212, lat=43.085563, altitude=185.00, speed=12.27, satellites=6, angle=203.5000, fixquality=1
$GPRMC,223714.500,A,4305.1324,N,07740.9936,W,12.27,212.11,040924,,,A*43
$GPGGA,223714.750,4305.1316,N,07740.9942,W,1,06,1.45,184.9,M,-34.4,M,,*54
lng=-77.683227, lat=43.085536, altitude=185.00, speed=12.27, satellites=6, angle=212.1100, fixquality=1
$GPRMC,223715.000,A,4305.1309,N,07740.9949,W,12.52,216.59,040924,,,A*4A
$GPGGA,223715.250,4305.1302,N,07740.9957,W,1,06,1.45,184.8,M,-34.4,M,,*50
lng=-77.683250, lat=43.085514, altitude=184.90, speed=12.52, satellites=6, angle=216.5900, fixquality=1
$GPRMC,223715.500,A,4305.1295,N,07740.9966,W,13.13,223.39,040924,,,A*42
$GPGGA,223715.750,4305.1289,N,07740.9975,W,1,06,1.45,184.7,M,-34.4,M,,*58
lng=-77.683273, lat=43.085491, altitude=184.80, speed=13.13, satellites=6, angle=223.3900, fixquality=1
$GPRMC,223716.000,A,4305.1282,N,07740.9985,W,13.64,227.14,040924,,,A*44
$GPGGA,223716.250,4305.1275,N,07740.9995,W,1,06,1.45,184.6,M,-34.4,M,,*52
lng=-77.683311, lat=43.085472, altitude=184.70, speed=13.64, satellites=6, angle=227.1400, fixquality=1
$GPRMC,223716.500,A,4305.1269,N,07741.0006,W,14.43,229.76,040924,,,A*46
$GPGGA,223716.750,4305.1262,N,07741.0017,W,1,06,1.45,184.5,M,-34.4,M,,*59
lng=-77.683341, lat=43.085449, altitude=184.60, speed=14.43, satellites=6, angle=229.7600, fixquality=1
$GPRMC,223717.000,A,4305.1256,N,07741.0028,W,14.86,231.50,040924,,,A*46
$GPGGA,223717.250,4305.1250,N,07741.0040,W,1,06,1.45,184.4,M,-34.4,M,,*5F
lng=-77.683380, lat=43.085426, altitude=184.50, speed=14.86, satellites=6, angle=231.5000, fixquality=1
$GPRMC,223717.500,A,4305.1243,N,07741.0052,W,15.36,232.77,040924,,,A*46
$GPGGA,223717.750,4305.1237,N,07741.0065,W,1,06,1.45,184.2,M,-34.4,M,,*5A
lng=-77.683425, lat=43.085407, altitude=184.40, speed=15.36, satellites=6, angle=232.7700, fixquality=1
$GPRMC,223718.000,A,4305.1231,N,07741.0077,W,15.84,234.24,040924,,,A*47
$GPGGA,223718.250,4305.1224,N,07741.0090,W,1,06,1.45,184.1,M,-34.4,M,,*5B
lng=-77.683464, lat=43.085384, altitude=184.20, speed=15.84, satellites=6, angle=234.2400, fixquality=1
$GPRMC,223718.500,A,4305.1217,N,07741.0103,W,16.33,234.59,040924,,,A*41
$GPGGA,223718.750,4305.1210,N,07741.0116,W,1,06,1.45,183.8,M,-34.4,M,,*58
lng=-77.683502, lat=43.085361, altitude=184.10, speed=16.33, satellites=6, angle=234.5900, fixquality=1
$GPRMC,223719.000,A,4305.1203,N,07741.0128,W,16.57,234.48,040924,,,A*4B
$GPGGA,223719.250,4305.1196,N,07741.0141,W,1,06,1.45,183.6,M,-34.4,M,,*5D
lng=-77.683547, lat=43.085334, altitude=183.80, speed=16.57, satellites=6, angle=234.4800, fixquality=1
$GPRMC,223719.500,A,4305.1189,N,07741.0154,W,16.76,234.95,040924,,,A*47
$GPGGA,223719.750,4305.1183,N,07741.0166,W,1,06,1.45,183.4,M,-34.4,M,,*5B
lng=-77.683593, lat=43.085319, altitude=183.60, speed=16.76, satellites=6, angle=234.9500, fixquality=1
$GPRMC,223720.000,A,4305.1176,N,07741.0179,W,16.79,235.46,040924,,,A*47
$GPGGA,223720.250,4305.1170,N,07741.0192,W,1,06,1.45,183.3,M,-34.4,M,,*54
lng=-77.683631, lat=43.085292, altitude=183.40, speed=16.79, satellites=6, angle=235.4600, fixquality=1
$GPRMC,223720.500,A,4305.1163,N,07741.0206,W,17.03,236.97,040924,,,A*4E
$GPGGA,223720.750,4305.1157,N,07741.0219,W,1,06,1.45,183.2,M,-34.4,M,,*55
lng=-77.683677, lat=43.085269, altitude=183.30, speed=17.03, satellites=6, angle=236.9700, fixquality=1
$GPRMC,223721.000,A,4305.1151,N,07741.0233,W,17.11,238.19,040924,,,A*46
$GPGGA,223721.250,4305.1145,N,07741.0247,W,1,06,1.45,183.0,M,-34.4,M,,*5B
lng=-77.683723, lat=43.085254, altitude=183.20, speed=17.11, satellites=6, angle=238.1900, fixquality=1
$GPRMC,223721.500,A,4305.1139,N,07741.0261,W,17.13,239.23,040924,,,A*40
$GPGGA,223721.750,4305.1134,N,07741.0275,W,1,06,1.45,182.9,M,-34.4,M,,*51
lng=-77.683761, lat=43.085227, altitude=183.00, speed=17.13, satellites=6, angle=239.2300, fixquality=1
$GPRMC,223722.000,A,4305.1128,N,07741.0289,W,17.16,241.24,040924,,,A*4D
$GPGGA,223722.250,4305.1124,N,07741.0303,W,1,06,1.45,182.8,M,-34.4,M,,*57
lng=-77.683815, lat=43.085212, altitude=182.90, speed=17.16, satellites=6, angle=241.2400, fixquality=1
$GPRMC,223722.500,A,4305.1121,N,07741.0317,W,17.13,245.44,040924,,,A*40
$GPGGA,223722.750,4305.1118,N,07741.0331,W,1,06,1.45,182.7,M,-34.4,M,,*53
lng=-77.683860, lat=43.085205, altitude=182.80, speed=17.13, satellites=6, angle=245.4400, fixquality=1
$GPRMC,223723.000,A,4305.1114,N,07741.0346,W,17.31,249.83,040924,,,A*41
$GPGGA,223723.250,4305.1111,N,07741.0362,W,1,06,1.45,182.5,M,-34.4,M,,*5A
lng=-77.683914, lat=43.085189, altitude=182.70, speed=17.31, satellites=6, angle=249.8300, fixquality=1
$GPRMC,223723.500,A,4305.1109,N,07741.0377,W,17.35,254.14,040924,,,A*4C
$GPGGA,223723.750,4305.1107,N,07741.0392,W,1,06,1.45,182.4,M,-34.4,M,,*56
lng=-77.683959, lat=43.085182, altitude=182.50, speed=17.35, satellites=6, angle=254.1400, fixquality=1
$GPRMC,223724.000,A,4305.1105,N,07741.0408,W,17.46,258.07,040924,,,A*47
$GPGGA,223724.250,4305.1105,N,07741.0424,W,1,06,1.45,182.3,M,-34.4,M,,*5B
lng=-77.684013, lat=43.085170, altitude=182.40, speed=17.46, satellites=6, angle=258.0700, fixquality=1
$GPRMC,223724.500,A,4305.1104,N,07741.0441,W,17.73,262.33,040924,,,A*46
$GPGGA,223724.750,4305.1104,N,07741.0458,W,1,06,1.45,182.2,M,-34.4,M,,*55
lng=-77.684066, lat=43.085170, altitude=182.30, speed=17.73, satellites=6, angle=262.3300, fixquality=1
$GPRMC,223725.000,A,4305.1104,N,07741.0475,W,18.02,266.72,040924,,,A*4D
$GPGGA,223725.250,4305.1107,N,07741.0492,W,1,06,1.45,182.1,M,-34.4,M,,*57
lng=-77.684120, lat=43.085170, altitude=182.20, speed=18.02, satellites=6, angle=266.7200, fixquality=1
$GPRMC,223725.500,A,4305.1110,N,07741.0508,W,18.12,274.88,040924,,,A*41
$GPGGA,223725.750,4305.1114,N,07741.0524,W,1,06,1.29,182.0,M,-34.4,M,,*57
lng=-77.684181, lat=43.085182, altitude=182.10, speed=18.12, satellites=6, angle=274.8800, fixquality=1
$GPRMC,223726.000,A,4305.1117,N,07741.0541,W,18.12,280.49,040924,,,A*4B
$GPGGA,223726.250,4305.1122,N,07741.0555,W,1,06,1.29,181.9,M,-34.4,M,,*58
lng=-77.684234, lat=43.085197, altitude=182.00, speed=18.12, satellites=6, angle=280.4900, fixquality=1
$GPRMC,223726.500,A,4305.1126,N,07741.0570,W,17.57,285.61,040924,,,A*4F
$GPGGA,223726.750,4305.1132,N,07741.0585,W,1,06,1.29,181.8,M,-34.4,M,,*50
lng=-77.684288, lat=43.085212, altitude=181.90, speed=17.57, satellites=6, angle=285.6100, fixquality=1
$GPRMC,223727.000,A,4305.1138,N,07741.0599,W,17.01,290.38,040924,,,A*48
$GPGGA,223727.250,4305.1143,N,07741.0613,W,1,06,1.29,181.7,M,-34.4,M,,*51
lng=-77.684333, lat=43.085227, altitude=181.80, speed=17.01, satellites=6, angle=290.3800, fixquality=1
$GPRMC,223727.500,A,4305.1149,N,07741.0626,W,16.03,294.41,040924,,,A*45
$GPGGA,223727.750,4305.1154,N,07741.0638,W,1,06,1.29,181.6,M,-34.4,M,,*5A
lng=-77.684371, lat=43.085247, altitude=181.70, speed=16.03, satellites=6, angle=294.4100, fixquality=1
$GPRMC,223728.000,A,4305.1159,N,07741.0651,W,14.95,296.23,040924,,,A*45
$GPGGA,223728.250,4305.1164,N,07741.0662,W,1,06,1.29,181.6,M,-34.4,M,,*5C
lng=-77.684417, lat=43.085262, altitude=181.60, speed=14.95, satellites=6, angle=296.2300, fixquality=1
$GPRMC,223728.500,A,4305.1169,N,07741.0672,W,13.04,299.21,040924,,,A*40
$GPGGA,223728.750,4305.1174,N,07741.0681,W,1,06,1.29,181.6,M,-34.4,M,,*55
lng=-77.684455, lat=43.085277, altitude=181.60, speed=13.04, satellites=6, angle=299.2100, fixquality=1
$GPRMC,223729.000,A,4305.1178,N,07741.0690,W,11.36,301.76,040924,,,A*49
$GPGGA,223729.250,4305.1182,N,07741.0697,W,1,06,1.29,181.5,M,-34.4,M,,*5C
lng=-77.684478, lat=43.085292, altitude=181.60, speed=11.36, satellites=6, angle=301.7600, fixquality=1
$GPRMC,223729.500,A,4305.1185,N,07741.0704,W,8.88,303.31,040924,,,A*7E
$GPGGA,223729.750,4305.1188,N,07741.0709,W,1,06,1.29,181.4,M,-34.4,M,,*54
lng=-77.684501, lat=43.085311, altitude=181.50, speed=8.88, satellites=6, angle=303.3100, fixquality=1
$GPRMC,223730.000,A,4305.1190,N,07741.0714,W,7.38,305.68,040924,,,A*78
$GPGGA,223730.250,4305.1193,N,07741.0718,W,1,06,1.29,181.3,M,-34.4,M,,*54
lng=-77.684524, lat=43.085319, altitude=181.40, speed=7.38, satellites=6, angle=305.6800, fixquality=1
$GPRMC,223730.500,A,4305.1195,N,07741.0721,W,5.36,308.30,040924,,,A*72
$GPGGA,223730.750,4305.1197,N,07741.0724,W,1,06,1.29,181.3,M,-34.4,M,,*5A
lng=-77.684539, lat=43.085327, altitude=181.30, speed=5.36, satellites=6, angle=308.3000, fixquality=1
$GPRMC,223731.000,A,4305.1200,N,07741.0726,W,4.51,310.90,040924,,,A*7D
$GPGGA,223731.250,4305.1202,N,07741.0728,W,1,06,1.29,181.2,M,-34.4,M,,*5C
lng=-77.684547, lat=43.085334, altitude=181.30, speed=4.51, satellites=6, angle=310.9000, fixquality=1
$GPRMC,223731.500,A,4305.1205,N,07741.0731,W,4.39,312.85,040924,,,A*73
$GPGGA,223731.750,4305.1207,N,07741.0733,W,1,06,1.29,181.2,M,-34.4,M,,*56
lng=-77.684555, lat=43.085342, altitude=181.20, speed=4.39, satellites=6, angle=312.8500, fixquality=1
$GPRMC,223732.000,A,4305.1208,N,07741.0736,W,4.61,312.55,040924,,,A*7F
$GPGGA,223732.250,4305.1210,N,07741.0738,W,1,06,1.29,181.1,M,-34.4,M,,*5E
lng=-77.684562, lat=43.085342, altitude=181.20, speed=4.61, satellites=6, angle=312.5500, fixquality=1
$GPRMC,223732.500,A,4305.1212,N,07741.0740,W,4.54,313.83,040924,,,A*7C
$GPGGA,223732.750,4305.1214,N,07741.0742,W,1,06,1.29,181.1,M,-34.4,M,,*52
lng=-77.684570, lat=43.085350, altitude=181.10, speed=4.54, satellites=6, angle=313.8300, fixquality=1
$GPRMC,223733.000,A,4305.1215,N,07741.0744,W,3.69,317.17,040924,,,A*7B
$GPGGA,223733.250,4305.1216,N,07741.0745,W,1,06,1.29,181.0,M,-34.4,M,,*52
lng=-77.684570, lat=43.085361, altitude=181.10, speed=3.69, satellites=6, angle=317.1700, fixquality=1
$GPRMC,223733.500,A,4305.1217,N,07741.0746,W,2.29,322.59,040924,,,A*77
$GPGGA,223733.750,4305.1218,N,07741.0746,W,1,06,1.29,181.0,M,-34.4,M,,*5A
lng=-77.684577, lat=43.085361, altitude=181.00, speed=2.29, satellites=6, angle=322.5900, fixquality=1
$GPRMC,223739.000,A,4305.1222,N,07741.0752,W,2.95,285.07,040924,,,A*7B
$GPGGA,223739.250,4305.1224,N,07741.0756,W,1,06,1.29,181.1,M,-34.4,M,,*5A
lng=-77.684585, lat=43.085369, altitude=181.10, speed=2.95, satellites=6, angle=285.0700, fixquality=1
$GPRMC,223739.500,A,4305.1226,N,07741.0762,W,4.43,285.26,040924,,,A*77
$GPGGA,223739.750,4305.1230,N,07741.0779,W,1,06,1.29,181.0,M,-34.4,M,,*56
lng=-77.684600, lat=43.085376, altitude=181.10, speed=4.43, satellites=6, angle=285.2600, fixquality=1
$GPRMC,223740.000,A,4305.1234,N,07741.0791,W,11.62,294.85,040924,,,A*4D
$GPGGA,223740.250,4305.1238,N,07741.0803,W,1,06,1.29,181.0,M,-34.4,M,,*57
lng=-77.684654, lat=43.085391, altitude=181.00, speed=11.62, satellites=6, angle=294.8500, fixquality=1
$GPRMC,223740.500,A,4305.1243,N,07741.0816,W,13.75,295.35,040924,,,A*46
$GPGGA,223740.750,4305.1248,N,07741.0829,W,1,06,1.45,181.0,M,-34.4,M,,*57
lng=-77.684692, lat=43.085407, altitude=181.00, speed=13.75, satellites=6, angle=295.3500, fixquality=1
$GPRMC,223741.000,A,4305.1253,N,07741.0842,W,14.48,295.92,040924,,,A*46
$GPGGA,223741.250,4305.1258,N,07741.0855,W,1,06,1.29,181.0,M,-34.4,M,,*53
lng=-77.684730, lat=43.085426, altitude=181.00, speed=14.48, satellites=6, angle=295.9200, fixquality=1
$GPRMC,223741.500,A,4305.1263,N,07741.0868,W,15.28,296.71,040924,,,A*41
$GPGGA,223741.750,4305.1269,N,07741.0882,W,1,06,1.45,181.0,M,-34.4,M,,*54
lng=-77.684783, lat=43.085441, altitude=181.00, speed=15.28, satellites=6, angle=296.7100, fixquality=1
$GPRMC,223742.000,A,4305.1274,N,07741.0896,W,15.59,296.59,040924,,,A*4C
$GPGGA,223742.250,4305.1279,N,07741.0909,W,1,06,1.29,180.9,M,-34.4,M,,*53
lng=-77.684822, lat=43.085456, altitude=181.00, speed=15.59, satellites=6, angle=296.5900, fixquality=1
$GPRMC,223742.500,A,4305.1284,N,07741.0923,W,15.56,295.24,040924,,,A*4F
$GPGGA,223742.750,4305.1289,N,07741.0937,W,1,06,1.29,180.9,M,-34.4,M,,*54
lng=-77.684867, lat=43.085472, altitude=180.90, speed=15.56, satellites=6, angle=295.2400, fixquality=1
$GPRMC,223743.000,A,4305.1294,N,07741.0951,W,15.41,294.55,040924,,,A*4E
$GPGGA,223743.250,4305.1299,N,07741.0964,W,1,06,1.29,180.9,M,-34.4,M,,*57
lng=-77.684921, lat=43.085491, altitude=180.90, speed=15.41, satellites=6, angle=294.5500, fixquality=1
$GPRMC,223743.500,A,4305.1303,N,07741.0978,W,14.85,294.54,040924,,,A*47
$GPGGA,223743.750,4305.1308,N,07741.0991,W,1,06,1.29,180.8,M,-34.4,M,,*50
lng=-77.684959, lat=43.085506, altitude=180.90, speed=14.85, satellites=6, angle=294.5400, fixquality=1
$GPRMC,223744.000,A,4305.1312,N,07741.1004,W,14.63,294.02,040924,,,A*4D
$GPGGA,223744.250,4305.1317,N,07741.1017,W,1,06,1.29,180.7,M,-34.4,M,,*55
lng=-77.685012, lat=43.085521, altitude=180.80, speed=14.63, satellites=6, angle=294.0200, fixquality=1
$GPRMC,223744.500,A,4305.1322,N,07741.1029,W,13.93,294.21,040924,,,A*4D
$GPGGA,223744.750,4305.1326,N,07741.1042,W,1,06,1.29,180.7,M,-34.4,M,,*52
lng=-77.685050, lat=43.085536, altitude=180.70, speed=13.93, satellites=6, angle=294.2100, fixquality=1
$GPRMC,223745.000,A,4305.1330,N,07741.1054,W,13.29,294.00,040924,,,A*42
$GPGGA,223745.250,4305.1334,N,07741.1065,W,1,06,1.29,180.6,M,-34.4,M,,*51
lng=-77.685089, lat=43.085548, altitude=180.70, speed=13.29, satellites=6, angle=294.0000, fixquality=1
$GPRMC,223745.500,A,4305.1337,N,07741.1075,W,11.57,294.03,040924,,,A*4B
$GPGGA,223745.750,4305.1340,N,07741.1084,W,1,06,1.29,180.6,M,-34.4,M,,*58
lng=-77.685127, lat=43.085563, altitude=180.60, speed=11.57, satellites=6, angle=294.0300, fixquality=1
$GPRMC,223746.000,A,4305.1343,N,07741.1093,W,10.18,293.74,040924,,,A*4B
$GPGGA,223746.250,4305.1346,N,07741.1102,W,1,06,1.29,180.5,M,-34.4,M,,*54
lng=-77.685157, lat=43.085571, altitude=180.60, speed=10.18, satellites=6, angle=293.7400, fixquality=1
$GPRMC,223746.500,A,4305.1349,N,07741.1110,W,8.89,293.94,040924,,,A*71
$GPGGA,223746.750,4305.1352,N,07741.1117,W,1,06,1.29,180.5,M,-34.4,M,,*50
lng=-77.685180, lat=43.085578, altitude=180.50, speed=8.89, satellites=6, angle=293.9400, fixquality=1
$GPRMC,223747.000,A,4305.1355,N,07741.1125,W,8.37,294.63,040924,,,A*74
$GPGGA,223747.250,4305.1357,N,07741.1132,W,1,06,1.29,180.5,M,-34.4,M,,*56
lng=-77.685203, lat=43.085586, altitude=180.50, speed=8.37, satellites=6, angle=294.6300, fixquality=1
$GPRMC,223747.500,A,4305.1360,N,07741.1139,W,8.12,295.30,040924,,,A*7A
$GPGGA,223747.750,4305.1363,N,07741.1146,W,1,06,1.29,180.5,M,-34.4,M,,*57
lng=-77.685226, lat=43.085605, altitude=180.50, speed=8.12, satellites=6, angle=295.3000, fixquality=1
$GPRMC,223748.000,A,4305.1366,N,07741.1153,W,8.06,295.83,040924,,,A*77
$GPGGA,223748.250,4305.1369,N,07741.1159,W,1,06,1.29,180.4,M,-34.4,M,,*58
lng=-77.685256, lat=43.085613, altitude=180.50, speed=8.06, satellites=6, angle=295.8300, fixquality=1
$GPRMC,223748.500,A,4305.1371,N,07741.1165,W,7.46,297.35,040924,,,A*75
$GPGGA,223748.750,4305.1374,N,07741.1171,W,1,06,1.29,180.4,M,-34.4,M,,*5B
lng=-77.685279, lat=43.085620, altitude=180.40, speed=7.46, satellites=6, angle=297.3500, fixquality=1
$GPRMC,223749.000,A,4305.1377,N,07741.1176,W,6.49,300.03,040924,,,A*71
$GPGGA,223749.250,4305.1379,N,07741.1180,W,1,06,1.29,180.4,M,-34.4,M,,*5C
lng=-77.685295, lat=43.085628, altitude=180.40, speed=6.49, satellites=6, angle=300.0300, fixquality=1
$GPRMC,223749.500,A,4305.1381,N,07741.1184,W,4.84,304.40,040924,,,A*70
$GPGGA,223749.750,4305.1381,N,07741.1187,W,1,06,1.45,180.4,M,-34.4,M,,*53
lng=-77.685302, lat=43.085636, altitude=180.40, speed=4.84, satellites=6, angle=304.4000, fixquality=1
$GPRMC,223750.000,A,4305.1383,N,07741.1190,W,3.47,307.52,040924,,,A*72
$GPGGA,223750.250,4305.1384,N,07741.1192,W,1,06,1.29,180.4,M,-34.4,M,,*55
lng=-77.685317, lat=43.085636, altitude=180.40, speed=3.47, satellites=6, angle=307.5200, fixquality=1
$GPRMC,223750.500,A,4305.1385,N,07741.1193,W,1.95,307.52,040924,,,A*7F
$GPGGA,223750.750,4305.1385,N,07741.1194,W,1,06,1.29,180.4,M,-34.4,M,,*57
lng=-77.685317, lat=43.085643, altitude=180.40, speed=1.95, satellites=6, angle=307.5200, fixquality=1
$GPGGA,223752.750,4305.1393,N,07741.1204,W,1,06,1.29,180.3,M,-34.4,M,,*5F
$GPRMC,223752.750,A,4305.1393,N,07741.1204,W,1.71,307.52,040924,,,A*7A
lng=-77.685340, lat=43.085651, altitude=180.30, speed=1.31, satellites=6, angle=307.5200, fixquality=1
$GPGGA,223753.000,4305.1394,N,07741.1206,W,1,06,1.29,180.3,M,-34.4,M,,*59
$GPRMC,223753.000,A,4305.1394,N,07741.1206,W,1.78,307.52,040924,,,A*75
lng=-77.685340, lat=43.085651, altitude=180.30, speed=1.71, satellites=6, angle=307.5200, fixquality=1
$GPRMC,223753.750,A,4305.1401,N,07741.1215,W,3.49,315.07,040924,,,A*7D
$GPGGA,223754.000,4305.1403,N,07741.1218,W,1,06,1.29,180.2,M,-34.4,M,,*59
lng=-77.685356, lat=43.085670, altitude=180.20, speed=3.49, satellites=6, angle=315.0700, fixquality=1
$GPRMC,223754.250,A,4305.1406,N,07741.1221,W,4.71,317.51,040924,,,A*72
$GPGGA,223754.500,4305.1409,N,07741.1225,W,1,06,1.45,180.2,M,-34.4,M,,*52
lng=-77.685371, lat=43.085678, altitude=180.20, speed=4.71, satellites=6, angle=317.5100, fixquality=1
$GPRMC,223754.750,A,4305.1411,N,07741.1228,W,4.91,322.17,040924,,,A*72
$GPGGA,223755.000,4305.1414,N,07741.1231,W,1,06,1.29,180.2,M,-34.4,M,,*55
lng=-77.685386, lat=43.085685, altitude=180.20, speed=4.91, satellites=6, angle=322.1700, fixquality=1
$GPRMC,223755.250,A,4305.1415,N,07741.1233,W,3.72,326.36,040924,,,A*75
$GPGGA,223755.500,4305.1417,N,07741.1235,W,1,06,1.29,180.2,M,-34.4,M,,*57
lng=-77.685394, lat=43.085693, altitude=180.20, speed=3.72, satellites=6, angle=326.3600, fixquality=1
$GPRMC,223755.750,A,4305.1417,N,07741.1235,W,1.88,326.36,040924,,,A*73
$GPGGA,223756.000,4305.1417,N,07741.1236,W,1,06,1.29,180.2,M,-34.4,M,,*52
lng=-77.685394, lat=43.085693, altitude=180.20, speed=1.88, satellites=6, angle=326.3600, fixquality=1
$GPRMC,223800.250,A,4305.1426,N,07741.1235,W,4.05,348.17,040924,,,A*70
$GPGGA,223800.500,4305.1431,N,07741.1237,W,1,06,1.45,180.3,M,-34.4,M,,*55
lng=-77.685394, lat=43.085708, altitude=180.30, speed=4.05, satellites=6, angle=348.1700, fixquality=1
$GPRMC,223800.750,A,4305.1439,N,07741.1238,W,7.73,352.15,040924,,,A*7D
$GPGGA,223801.000,4305.1446,N,07741.1239,W,1,06,1.45,180.3,M,-34.4,M,,*5F
lng=-77.685401, lat=43.085735, altitude=180.30, speed=7.73, satellites=6, angle=352.1500, fixquality=1
$GPRMC,223801.250,A,4305.1453,N,07741.1240,W,9.08,356.87,040924,,,A*77
$GPGGA,223801.500,4305.1463,N,07741.1238,W,1,06,1.45,180.5,M,-34.4,M,,*5A
lng=-77.685401, lat=43.085758, altitude=180.30, speed=9.08, satellites=6, angle=356.8700, fixquality=1
$GPRMC,223801.750,A,4305.1473,N,07741.1236,W,12.09,8.90,040924,,,A*44
$GPGGA,223802.000,4305.1483,N,07741.1233,W,1,06,1.45,180.6,M,-34.4,M,,*5A
lng=-77.685394, lat=43.085792, altitude=180.50, speed=12.09, satellites=6, angle=8.9000, fixquality=1
$GPRMC,223802.250,A,4305.1493,N,07741.1229,W,13.83,15.91,040924,,,A*7C
$GPGGA,223802.500,4305.1503,N,07741.1223,W,1,06,1.45,180.8,M,-34.4,M,,*59
lng=-77.685386, lat=43.085823, altitude=180.60, speed=13.83, satellites=6, angle=15.9100, fixquality=1
$GPRMC,223802.750,A,4305.1513,N,07741.1217,W,15.49,23.71,040924,,,A*76
$GPGGA,223803.000,4305.1523,N,07741.1210,W,1,06,1.29,180.9,M,-34.4,M,,*54
lng=-77.685356, lat=43.085857, altitude=180.80, speed=15.49, satellites=6, angle=23.7100, fixquality=1
$GPRMC,223803.250,A,4305.1534,N,07741.1202,W,16.66,27.45,040924,,,A*7E
$GPGGA,223803.500,4305.1545,N,07741.1194,W,1,06,1.45,181.1,M,-34.4,M,,*5D
lng=-77.685333, lat=43.085887, altitude=180.90, speed=16.66, satellites=6, angle=27.4500, fixquality=1
$GPRMC,223803.750,A,4305.1556,N,07741.1185,W,18.17,29.98,040924,,,A*75
$GPGGA,223804.000,4305.1567,N,07741.1176,W,1,06,1.29,181.2,M,-34.4,M,,*5A
lng=-77.685310, lat=43.085929, altitude=181.10, speed=18.17, satellites=6, angle=29.9800, fixquality=1
$GPRMC,223804.250,A,4305.1579,N,07741.1166,W,19.40,31.80,040924,,,A*74
$GPGGA,223804.500,4305.1591,N,07741.1155,W,1,06,1.45,181.4,M,-34.4,M,,*5B
lng=-77.685279, lat=43.085960, altitude=181.20, speed=19.40, satellites=6, angle=31.8000, fixquality=1
$GPRMC,223804.750,A,4305.1604,N,07741.1144,W,20.74,32.78,040924,,,A*71
$GPGGA,223805.000,4305.1616,N,07741.1133,W,1,06,1.45,181.6,M,-34.4,M,,*51
lng=-77.685234, lat=43.086002, altitude=181.40, speed=20.74, satellites=6, angle=32.7800, fixquality=1
$GPRMC,223805.250,A,4305.1629,N,07741.1122,W,21.76,33.25,040924,,,A*70
$GPGGA,223805.500,4305.1642,N,07741.1110,W,1,06,1.45,181.8,M,-34.4,M,,*5A
lng=-77.685203, lat=43.086051, altitude=181.60, speed=21.76, satellites=6, angle=33.2500, fixquality=1
$GPRMC,223805.750,A,4305.1656,N,07741.1098,W,23.02,33.25,040924,,,A*7C
$GPGGA,223806.000,4305.1670,N,07741.1085,W,1,06,1.45,182.0,M,-34.4,M,,*5B
lng=-77.685165, lat=43.086093, altitude=181.80, speed=23.02, satellites=6, angle=33.2500, fixquality=1
$GPRMC,223806.250,A,4305.1684,N,07741.1073,W,23.70,33.16,040924,,,A*75
$GPGGA,223806.500,4305.1698,N,07741.1060,W,1,06,1.45,182.2,M,-34.4,M,,*51
lng=-77.685127, lat=43.086139, altitude=182.00, speed=23.70, satellites=6, angle=33.1600, fixquality=1
$GPRMC,223806.750,A,4305.1713,N,07741.1047,W,24.55,33.72,040924,,,A*7A
$GPGGA,223807.000,4305.1727,N,07741.1033,W,1,06,1.29,182.4,M,-34.4,M,,*5A
lng=-77.685073, lat=43.086189, altitude=182.20, speed=24.55, satellites=6, angle=33.7200, fixquality=1
$GPRMC,223807.250,A,4305.1742,N,07741.1019,W,25.57,34.51,040924,,,A*74
$GPGGA,223807.500,4305.1758,N,07741.1005,W,1,06,1.45,182.6,M,-34.4,M,,*5A
lng=-77.685035, lat=43.086238, altitude=182.40, speed=25.57, satellites=6, angle=34.5100, fixquality=1
$GPRMC,223807.750,A,4305.1773,N,07741.0990,W,26.95,34.87,040924,,,A*7C
$GPGGA,223808.000,4305.1789,N,07741.0974,W,1,06,1.29,182.8,M,-34.4,M,,*56
lng=-77.684982, lat=43.086288, altitude=182.60, speed=26.95, satellites=6, angle=34.8700, fixquality=1
$GPRMC,223808.250,A,4305.1806,N,07741.0959,W,27.77,35.07,040924,,,A*7A
$GPGGA,223808.500,4305.1822,N,07741.0943,W,1,06,1.45,182.9,M,-34.4,M,,*52
lng=-77.684928, lat=43.086345, altitude=182.80, speed=27.77, satellites=6, angle=35.0700, fixquality=1
$GPRMC,223808.750,A,4305.1839,N,07741.0927,W,28.57,35.23,040924,,,A*71
$GPGGA,223809.000,4305.1856,N,07741.0911,W,1,06,1.29,183.1,M,-34.4,M,,*51
lng=-77.684883, lat=43.086402, altitude=182.90, speed=28.57, satellites=6, angle=35.2300, fixquality=1
$GPRMC,223809.250,A,4305.1873,N,07741.0894,W,29.05,35.77,040924,,,A*75
$GPGGA,223809.500,4305.1890,N,07741.0877,W,1,06,1.45,183.1,M,-34.4,M,,*55
lng=-77.684822, lat=43.086460, altitude=183.10, speed=29.05, satellites=6, angle=35.7700, fixquality=1
$GPRMC,223809.750,A,4305.1906,N,07741.0860,W,29.28,36.88,040924,,,A*74
$GPGGA,223810.000,4305.1923,N,07741.0842,W,1,06,1.29,183.2,M,-34.4,M,,*5E
lng=-77.684768, lat=43.086505, altitude=183.10, speed=29.28, satellites=6, angle=36.8800, fixquality=1
$GPRMC,223810.250,A,4305.1940,N,07741.0825,W,29.77,37.23,040924,,,A*70
$GPGGA,223810.500,4305.1957,N,07741.0808,W,1,06,1.45,183.2,M,-34.4,M,,*5C
lng=-77.684707, lat=43.086563, altitude=183.20, speed=29.77, satellites=6, angle=37.2300, fixquality=1
$GPRMC,223810.750,A,4305.1974,N,07741.0790,W,30.00,37.13,040924,,,A*78
$GPGGA,223811.000,4305.1991,N,07741.0772,W,1,06,1.29,183.3,M,-34.4,M,,*5B
lng=-77.684654, lat=43.086620, altitude=183.20, speed=30.00, satellites=6, angle=37.1300, fixquality=1
$GPRMC,223811.250,A,4305.2008,N,07741.0754,W,30.58,38.03,040924,,,A*76
$GPGGA,223811.500,4305.2025,N,07741.0735,W,1,06,1.45,183.3,M,-34.4,M,,*52
lng=-77.684585, lat=43.086677, altitude=183.30, speed=30.58, satellites=6, angle=38.0300, fixquality=1
$GPRMC,223811.750,A,4305.2042,N,07741.0718,W,30.79,38.25,040924,,,A*72
$GPGGA,223812.000,4305.2059,N,07741.0700,W,1,06,1.29,183.1,M,-34.4,M,,*51
lng=-77.684532, lat=43.086734, altitude=183.30, speed=30.79, satellites=6, angle=38.2500, fixquality=1
$GPRMC,223812.250,A,4305.2076,N,07741.0681,W,31.01,38.50,040924,,,A*7E
$GPGGA,223812.500,4305.2094,N,07741.0662,W,1,06,1.45,183.1,M,-34.4,M,,*5A
lng=-77.684463, lat=43.086791, altitude=183.10, speed=31.01, satellites=6, angle=38.5000, fixquality=1
$GPRMC,223812.750,A,4305.2111,N,07741.0644,W,31.15,38.43,040924,,,A*75
$GPGGA,223813.000,4305.2129,N,07741.0625,W,1,06,1.45,183.1,M,-34.4,M,,*5A
lng=-77.684410, lat=43.086849, altitude=183.10, speed=31.15, satellites=6, angle=38.4300, fixquality=1
$GPRMC,223813.250,A,4305.2146,N,07741.0605,W,31.31,38.96,040924,,,A*78
$GPGGA,223813.500,4305.2164,N,07741.0587,W,1,06,1.45,183.0,M,-34.4,M,,*5C
lng=-77.684341, lat=43.086914, altitude=183.10, speed=31.31, satellites=6, angle=38.9600, fixquality=1
$GPRMC,223813.750,A,4305.2181,N,07741.0568,W,32.25,38.45,040924,,,A*76
$GPGGA,223814.000,4305.2199,N,07741.0548,W,1,06,1.45,183.0,M,-34.4,M,,*5F
lng=-77.684280, lat=43.086971, altitude=183.00, speed=32.25, satellites=6, angle=38.4500, fixquality=1
$GPRMC,223814.250,A,4305.2217,N,07741.0529,W,32.42,38.37,040924,,,A*79
$GPGGA,223814.500,4305.2235,N,07741.0510,W,1,06,1.45,182.9,M,-34.4,M,,*5A
lng=-77.684211, lat=43.087028, altitude=183.00, speed=32.42, satellites=6, angle=38.3700, fixquality=1
$GPRMC,223814.750,A,4305.2253,N,07741.0490,W,32.84,38.25,040924,,,A*76
$GPGGA,223815.000,4305.2271,N,07741.0471,W,1,06,1.45,182.9,M,-34.4,M,,*58
lng=-77.684150, lat=43.087085, altitude=182.90, speed=32.84, satellites=6, angle=38.2500, fixquality=1
$GPRMC,223815.250,A,4305.2289,N,07741.0451,W,32.99,38.55,040924,,,A*73
$GPGGA,223815.500,4305.2308,N,07741.0432,W,1,06,1.45,182.8,M,-34.4,M,,*54
lng=-77.684082, lat=43.087150, altitude=182.90, speed=32.99, satellites=6, angle=38.5500, fixquality=1
$GPRMC,223815.750,A,4305.2326,N,07741.0412,W,33.27,38.74,040924,,,A*72
$GPGGA,223816.000,4305.2344,N,07741.0392,W,1,06,1.45,182.7,M,-34.4,M,,*58
lng=-77.684013, lat=43.087207, altitude=182.80, speed=33.27, satellites=6, angle=38.7400, fixquality=1
$GPRMC,223816.250,A,4305.2363,N,07741.0372,W,33.41,38.74,040924,,,A*74
$GPGGA,223816.500,4305.2381,N,07741.0352,W,1,06,1.45,182.8,M,-34.4,M,,*57
lng=-77.683952, lat=43.087272, altitude=182.70, speed=33.41, satellites=6, angle=38.7400, fixquality=1
$GPRMC,223816.750,A,4305.2399,N,07741.0331,W,33.87,38.84,040924,,,A*76
$GPGGA,223817.000,4305.2418,N,07741.0311,W,1,06,1.45,182.7,M,-34.4,M,,*5C
lng=-77.683883, lat=43.087329, altitude=182.80, speed=33.87, satellites=6, angle=38.8400, fixquality=1
$GPRMC,223817.250,A,4305.2436,N,07741.0291,W,34.14,39.31,040924,,,A*79
$GPGGA,223817.500,4305.2455,N,07741.0270,W,1,06,1.45,182.7,M,-34.4,M,,*56
lng=-77.683822, lat=43.087394, altitude=182.70, speed=34.14, satellites=6, angle=39.3100, fixquality=1
$GPRMC,223817.750,A,4305.2473,N,07741.0249,W,34.33,39.31,040924,,,A*7D
$GPGGA,223818.000,4305.2492,N,07741.0228,W,1,06,1.45,182.6,M,-34.4,M,,*5B
lng=-77.683746, lat=43.087451, altitude=182.70, speed=34.33, satellites=6, angle=39.3100, fixquality=1
$GPRMC,223818.250,A,4305.2511,N,07741.0208,W,34.47,38.77,040924,,,A*77
$GPGGA,223818.500,4305.2530,N,07741.0187,W,1,06,1.45,182.6,M,-34.4,M,,*51
lng=-77.683685, lat=43.087516, altitude=182.60, speed=34.47, satellites=6, angle=38.7700, fixquality=1
$GPRMC,223818.750,A,4305.2549,N,07741.0167,W,34.57,38.14,040924,,,A*71
$GPGGA,223819.000,4305.2568,N,07741.0147,W,1,06,1.45,182.6,M,-34.4,M,,*54
lng=-77.683609, lat=43.087581, altitude=182.60, speed=34.57, satellites=6, angle=38.1400, fixquality=1
$GPRMC,223819.250,A,4305.2587,N,07741.0126,W,34.63,37.76,040924,,,A*7E
$GPGGA,223819.500,4305.2606,N,07741.0106,W,1,06,1.45,182.6,M,-34.4,M,,*5F
lng=-77.683547, lat=43.087646, altitude=182.60, speed=34.63, satellites=6, angle=37.7600, fixquality=1
$GPRMC,223819.750,A,4305.2626,N,07741.0087,W,34.89,36.42,040924,,,A*7B
$GPGGA,223820.000,4305.2646,N,07741.0067,W,1,06,1.29,182.7,M,-34.4,M,,*59
lng=-77.683479, lat=43.087711, altitude=182.60, speed=34.89, satellites=6, angle=36.4200, fixquality=1
$GPRMC,223820.250,A,4305.2665,N,07741.0046,W,34.98,37.44,040924,,,A*79
$GPGGA,223820.500,4305.2685,N,07741.0026,W,1,06,1.29,182.8,M,-34.4,M,,*59
lng=-77.683403, lat=43.087776, altitude=182.70, speed=34.98, satellites=6, angle=37.4400, fixquality=1
$GPRMC,223820.750,A,4305.2704,N,07741.0005,W,35.05,38.37,040924,,,A*73
$GPGGA,223821.000,4305.2723,N,07740.9984,W,1,06,1.29,182.8,M,-34.4,M,,*59
lng=-77.683341, lat=43.087841, altitude=182.80, speed=35.05, satellites=6, angle=38.3700, fixquality=1
$GPRMC,223821.250,A,4305.2743,N,07740.9964,W,35.28,38.44,040924,,,A*79
$GPGGA,223821.500,4305.2762,N,07740.9943,W,1,06,1.45,182.9,M,-34.4,M,,*59
lng=-77.683273, lat=43.087905, altitude=182.80, speed=35.28, satellites=6, angle=38.4400, fixquality=1
$GPRMC,223821.750,A,4305.2782,N,07740.9922,W,35.34,38.57,040924,,,A*7C
$GPGGA,223822.000,4305.2801,N,07740.9901,W,1,06,1.29,182.9,M,-34.4,M,,*59
lng=-77.683204, lat=43.087970, altitude=182.90, speed=35.34, satellites=6, angle=38.5700, fixquality=1
$GPRMC,223822.250,A,4305.2820,N,07740.9880,W,35.25,38.63,040924,,,A*73
$GPGGA,223822.500,4305.2840,N,07740.9859,W,1,06,1.45,183.0,M,-34.4,M,,*57
lng=-77.683128, lat=43.088035, altitude=182.90, speed=35.25, satellites=6, angle=38.6300, fixquality=1
$GPRMC,223822.750,A,4305.2859,N,07740.9838,W,35.25,39.04,040924,,,A*7B
$GPGGA,223823.000,4305.2878,N,07740.9817,W,1,06,1.29,183.0,M,-34.4,M,,*58
lng=-77.683067, lat=43.088100, altitude=183.00, speed=35.25, satellites=6, angle=39.0400, fixquality=1
$GPRMC,223823.250,A,4305.2897,N,07740.9795,W,35.29,39.72,040924,,,A*78
$GPGGA,223823.500,4305.2916,N,07740.9774,W,1,06,1.45,183.0,M,-34.4,M,,*54
lng=-77.682991, lat=43.088157, altitude=183.00, speed=35.29, satellites=6, angle=39.7200, fixquality=1
$GPRMC,223823.750,A,4305.2935,N,07740.9752,W,35.51,39.55,040924,,,A*75
$GPGGA,223824.000,4305.2954,N,07740.9731,W,1,06,1.29,183.1,M,-34.4,M,,*5A
lng=-77.682914, lat=43.088222, altitude=183.00, speed=35.51, satellites=6, angle=39.5500, fixquality=1
$GPRMC,223824.250,A,4305.2974,N,07740.9710,W,35.49,39.16,040924,,,A*7A
$GPGGA,223824.500,4305.2993,N,07740.9688,W,1,06,1.45,183.2,M,-34.4,M,,*5E
lng=-77.682853, lat=43.088291, altitude=183.10, speed=35.49, satellites=6, angle=39.1600, fixquality=1
$GPRMC,223824.750,A,4305.3012,N,07740.9667,W,35.76,38.89,040924,,,A*7D
$GPGGA,223825.000,4305.3032,N,07740.9645,W,1,06,1.29,183.3,M,-34.4,M,,*53
lng=-77.682777, lat=43.088356, altitude=183.20, speed=35.76, satellites=6, angle=38.8900, fixquality=1
$GPRMC,223825.250,A,4305.3051,N,07740.9624,W,35.99,38.97,040924,,,A*77
$GPGGA,223825.500,4305.3071,N,07740.9602,W,1,06,1.45,183.4,M,-34.4,M,,*5F
lng=-77.682708, lat=43.088420, altitude=183.30, speed=35.99, satellites=6, angle=38.9700, fixquality=1
$GPRMC,223825.750,A,4305.3091,N,07740.9580,W,36.26,38.78,040924,,,A*75
$GPGGA,223826.000,4305.3110,N,07740.9558,W,1,06,1.29,183.5,M,-34.4,M,,*58
lng=-77.682632, lat=43.088485, altitude=183.40, speed=36.26, satellites=6, angle=38.7800, fixquality=1
$GPRMC,223826.250,A,4305.3130,N,07740.9537,W,36.37,38.84,040924,,,A*76
$GPGGA,223826.500,4305.3150,N,07740.9515,W,1,06,1.45,183.6,M,-34.4,M,,*59
lng=-77.682563, lat=43.088550, altitude=183.50, speed=36.37, satellites=6, angle=38.8400, fixquality=1
$GPRMC,223826.750,A,4305.3170,N,07740.9493,W,36.43,38.17,040924,,,A*71
$GPGGA,223827.000,4305.3190,N,07740.9472,W,1,06,1.29,183.7,M,-34.4,M,,*5A
lng=-77.682487, lat=43.088615, altitude=183.60, speed=36.43, satellites=6, angle=38.1700, fixquality=1
$GPRMC,223827.250,A,4305.3210,N,07740.9450,W,36.42,38.90,040924,,,A*71
$GPGGA,223827.500,4305.3230,N,07740.9429,W,1,06,1.45,183.7,M,-34.4,M,,*52
lng=-77.682411, lat=43.088680, altitude=183.70, speed=36.42, satellites=6, angle=38.9000, fixquality=1
$GPRMC,223827.750,A,4305.3250,N,07740.9408,W,36.39,38.26,040924,,,A*7C
$GPGGA,223828.000,4305.3269,N,07740.9386,W,1,06,1.29,183.8,M,-34.4,M,,*53
lng=-77.682350, lat=43.088752, altitude=183.70, speed=36.39, satellites=6, angle=38.2600, fixquality=1
$GPRMC,223828.250,A,4305.3289,N,07740.9365,W,36.33,38.57,040924,,,A*72
$GPGGA,223828.500,4305.3309,N,07740.9343,W,1,06,1.45,183.9,M,-34.4,M,,*53
lng=-77.682273, lat=43.088817, altitude=183.80, speed=36.33, satellites=6, angle=38.5700, fixquality=1
$GPRMC,223828.750,A,4305.3329,N,07740.9322,W,36.32,38.87,040924,,,A*73
$GPGGA,223829.000,4305.3348,N,07740.9300,W,1,06,1.29,184.0,M,-34.4,M,,*51
lng=-77.682205, lat=43.088882, altitude=183.90, speed=36.32, satellites=6, angle=38.8700, fixquality=1
$GPRMC,223829.250,A,4305.3368,N,07740.9279,W,36.38,39.09,040924,,,A*70
$GPGGA,223829.500,4305.3388,N,07740.9257,W,1,06,1.45,184.1,M,-34.4,M,,*50
lng=-77.682128, lat=43.088947, altitude=184.00, speed=36.38, satellites=6, angle=39.0900, fixquality=1
$GPRMC,223829.750,A,4305.3407,N,07740.9235,W,36.36,39.13,040924,,,A*76
$GPGGA,223830.000,4305.3427,N,07740.9214,W,1,06,1.29,184.1,M,-34.4,M,,*52
lng=-77.682052, lat=43.089012, altitude=184.10, speed=36.36, satellites=6, angle=39.1300, fixquality=1
$GPRMC,223830.250,A,4305.3446,N,07740.9192,W,36.30,39.25,040924,,,A*73
$GPGGA,223830.500,4305.3466,N,07740.9170,W,1,06,1.45,184.1,M,-34.4,M,,*59
lng=-77.681991, lat=43.089076, altitude=184.10, speed=36.30, satellites=6, angle=39.2500, fixquality=1
$GPRMC,223830.750,A,4305.3486,N,07740.9148,W,36.57,39.34,040924,,,A*7C
$GPGGA,223831.000,4305.3505,N,07740.9126,W,1,06,1.29,184.2,M,-34.4,M,,*53
lng=-77.681915, lat=43.089145, altitude=184.10, speed=36.57, satellites=6, angle=39.3400, fixquality=1
$GPRMC,223831.250,A,4305.3525,N,07740.9103,W,36.84,39.33,040924,,,A*76
$GPGGA,223831.500,4305.3545,N,07740.9081,W,1,06,1.45,184.3,M,-34.4,M,,*55
lng=-77.681838, lat=43.089210, altitude=184.20, speed=36.84, satellites=6, angle=39.3300, fixquality=1
$GPRMC,223831.750,A,4305.3566,N,07740.9059,W,36.96,39.09,040924,,,A*70
$GPGGA,223832.000,4305.3586,N,07740.9036,W,1,06,1.29,184.3,M,-34.4,M,,*5A
lng=-77.681762, lat=43.089275, altitude=184.30, speed=36.96, satellites=6, angle=39.0900, fixquality=1
$GPRMC,223832.250,A,4305.3606,N,07740.9014,W,37.32,39.14,040924,,,A*79
$GPGGA,223832.500,4305.3626,N,07740.8991,W,1,06,1.45,184.4,M,-34.4,M,,*5E
lng=-77.681686, lat=43.089347, altitude=184.30, speed=37.32, satellites=6, angle=39.1400, fixquality=1
$GPRMC,223832.750,A,4305.3646,N,07740.8968,W,37.58,39.04,040924,,,A*76
$GPGGA,223833.000,4305.3667,N,07740.8946,W,1,06,1.29,184.5,M,-34.4,M,,*5E
lng=-77.681617, lat=43.089412, altitude=184.40, speed=37.58, satellites=6, angle=39.0400, fixquality=1
$GPRMC,223833.250,A,4305.3687,N,07740.8923,W,37.70,38.91,040924,,,A*77
$GPGGA,223833.500,4305.3708,N,07740.8900,W,1,06,1.45,184.4,M,-34.4,M,,*5A
lng=-77.681533, lat=43.089477, altitude=184.50, speed=37.70, satellites=6, angle=38.9100, fixquality=1
$GPRMC,223833.750,A,4305.3729,N,07740.8877,W,38.03,38.58,040924,,,A*79
$GPGGA,223834.000,4305.3749,N,07740.8855,W,1,06,1.29,184.5,M,-34.4,M,,*57
lng=-77.681465, lat=43.089550, altitude=184.40, speed=38.03, satellites=6, angle=38.5800, fixquality=1
$GPRMC,223834.250,A,4305.3770,N,07740.8832,W,38.03,38.18,040924,,,A*72
$GPGGA,223834.500,4305.3791,N,07740.8810,W,1,06,1.45,184.5,M,-34.4,M,,*5C
lng=-77.681388, lat=43.089614, altitude=184.50, speed=38.03, satellites=6, angle=38.1800, fixquality=1
$GPRMC,223834.750,A,4305.3812,N,07740.8788,W,38.05,37.71,040924,,,A*74
