Vers 72
USE_SERIAL_FEEDBACK=true
DEVELOPMENT_MODE=false
USE_RMC_ONLY=false

$GPRMC,160523.750,A,4308.3040,N,07726.2693,W,0.21,216.58,080924,,,A*73
$GPGGA,160524.000,4308.3040,N,07726.2693,W,1,04,1.97,171.9,M,-34.4,M,,*53
lng=-77.437828, lat=43.138404, altitude=167.80, speed=0.21, satellites=4, angle=216.5800, fixquality=1
$GPRMC,160524.250,A,4308.3040,N,07726.2694,W,0.23,232.29,080924,,,A*74
$GPGGA,160524.500,4308.3039,N,07726.2694,W,1,04,1.97,172.2,M,-34.4,M,,*57
lng=-77.437828, lat=43.138404, altitude=171.90, speed=0.23, satellites=4, angle=232.2900, fixquality=1
$GPGGA,160531.750,4308.3029,N,07726.2704,W,1,04,1.97,173.7,M,-34.4,M,,*59
$GPRMC,160531.750,A,4308.3029,N,07726.2704,W,0.05,348.27,080924,,,A*74
lng=-77.437843, lat=43.138378, altitude=173.70, speed=0.03, satellites=4, angle=55.2200, fixquality=1
$GPGGA,160532.000,4308.3028,N,07726.2705,W,1,04,3.59,173.8,M,-34.4,M,,*57
$GPRMC,160532.000,A,4308.3028,N,07726.2705,W,0.06,334.72,080924,,,A*7D
lng=-77.437843, lat=43.138378, altitude=173.80, speed=0.05, satellites=4, angle=348.2700, fixquality=1
$GPGGA,160535.250,4308.3016,N,07726.2718,W,1,04,1.97,177.3,M,-34.4,M,,*59
$GPRMC,160535.250,A,4308.3016,N,07726.2718,W,0.07,318.99,080924,,,A*76
lng=-77.437866, lat=43.138362, altitude=177.30, speed=0.13, satellites=4, angle=325.6100, fixquality=1
$GPGGA,160535.500,4308.3015,N,07726.2718,W,1,04,1.97,177.6,M,-34.4,M,,*5D
$GPRMC,160535.500,A,4308.3015,N,07726.2718,W,0.04,311.38,080924,,,A*76
lng=-77.437866, lat=43.138355, altitude=177.60, speed=0.07, satellites=4, angle=318.9900, fixquality=1
$GPGGA,160539.750,4308.3002,N,07726.2732,W,1,04,1.96,180.8,M,-34.4,M,,*5F
$GPRMC,160539.750,A,4308.3002,N,07726.2732,W,0.11,293.13,080924,,,A*75
lng=-77.437889, lat=43.138339, altitude=180.80, speed=0.15, satellites=4, angle=317.0200, fixquality=1
$GPGGA,160540.000,4308.3001,N,07726.2732,W,1,04,1.96,181.0,M,-34.4,M,,*59
$GPRMC,160540.000,A,4308.3001,N,07726.2732,W,0.04,225.41,080924,,,A*74
lng=-77.437889, lat=43.138339, altitude=181.00, speed=0.11, satellites=4, angle=293.1300, fixquality=1
$GPGGA,160544.250,4308.2990,N,07726.2743,W,1,04,1.96,182.8,M,-34.4,M,,*57
$GPRMC,160544.250,A,4308.2990,N,07726.2743,W,0.34,223.70,080924,,,A*76
lng=-77.437904, lat=43.138313, altitude=182.80, speed=0.33, satellites=4, angle=219.3900, fixquality=1
$GPGGA,160544.500,4308.2990,N,07726.2743,W,1,04,1.96,182.8,M,-34.4,M,,*55
$GPRMC,160544.500,A,4308.2990,N,07726.2743,W,0.30,221.30,080924,,,A*76
lng=-77.437904, lat=43.138313, altitude=182.80, speed=0.34, satellites=4, angle=223.7000, fixquality=1
$GPGGA,160737.750,4308.3001,N,07726.2741,W,1,05,2.26,183.9,M,-34.4,M,,*5F
$GPRMC,160737.750,A,4308.3001,N,07726.2741,W,1.18,6.80,080924,,$GPGGA,160738.000,4308.3002,N,07726.2741,W,1,05,2.26,183.8,M,-34.4,M,,*50
lng=-77.437896, lat=43.138339, altitude=183.90, speed=1.02, satellites=5, angle=9.0500, fixquality=1
$GPRMC,160738.250,A,4308.3002,N,07726.2741,W,1.27,6.63,080924,,,A*7A
$GPGGA,160738.500,4308.3003,N,07726.2741,W,1,05,2.25,183.8,M,-34.4,M,,*57
lng=-77.437896, lat=43.138339, altitude=183.90, speed=1.27, satellites=5, angle=6.6300, fixquality=1
$GPGGA,160741.250,4308.3016,N,07726.2739,W,1,05,2.25,183.8,M,-34.4,M,,*50
$GPRMC,160741.250,A,4308.3016,N,07726.2739,W,1.94,4.73,080924,,,A*75
lng=-77.437896, lat=43.138362, altitude=183.80, speed=1.89, satellites=5, angle=4.9500, fixquality=1
$GPGGA,160741.500,4308.3017,N,07726.2739,W,1,05,2.25,183.8,M,-34.4,M,,*53
$GPRMC,160741.500,A,4308.3017,N,07726.2739,W,2.05,4.12,080924,,,A*7A
lng=-77.437896, lat=43.138362, altitude=183.80, speed=1.94, satellites=5, angle=4.7300, fixquality=1
$GPGGA,160742.500,4308.3030,N,07726.2733,W,1,05,2.25,183.8,M,-34.4,M,,*5F
$GPRMC,160742.500,A,4308.3030,N,07726.2733,W,2.67,17.70,080924,,,A*44
lng=-77.437889, lat=43.138385, altitude=183.80, speed=2.48, satellites=5, angle=11.1200, fixquality=1
$GPGGA,160742.750,4308.3034,N,07726.2731,W,1,05,1.90,183.8,M,-34.4,M,,*53
$GPRMC,160742.750,A,4308.3034,N,07726.2731,W,3.01,19.38,080924,,,A*46
lng=-77.437881, lat=43.138385, altitude=183.80, speed=2.67, satellites=5, angle=17.7000, fixquality=1
$GPGGA,160743.000,4308.3039,N,07726.2730,W,1,05,1.90,183.8,M,-34.4,M,,*5C
$GPRMC,160743.000,A,4308.3039,N,07726.2730,W,3.38,13.78,080924,$GPGGA,160743.250,4308.3043,N,07726.2729,W,1,05,2.25,183.8,M,-34.4,M,,*53
lng=-77.437881, lat=43.138393, altitude=183.80, speed=3.01, satellites=5, angle=19.3800, fixquality=1
$GPRMC,160743.500,A,4308.3046,N,07726.2728,W,3.62,12.25,080924,,,A*4F
$GPGGA,160743.750,4308.3050,N,07726.2726,W,1,05,2.25,183.8,M,-34.4,M,,*5B
lng=-77.437881, lat=43.138412, altitude=183.80, speed=3.62, satellites=5, angle=12.2500, fixquality=1
$GPRMC,160744.000,A,4308.3054,N,07726.2725,W,3.54,16.35,080924,,,A*43
$GPGGA,160744.250,4308.3057,N,07726.2724,W,1,05,1.90,183.8,M,-34.4,M,,*51
lng=-77.437873, lat=43.138420, altitude=183.80, speed=3.54, satellites=5, angle=16.3500, fixquality=1
$GPRMC,160744.500,A,4308.3061,N,07726.2722,W,3.36,18.11,080924,,,A*4B
$GPGGA,160744.750,4308.3065,N,07726.2721,W,1,05,1.90,183.7,M,-34.4,M,,*5F
lng=-77.437866, lat=43.138435, altitude=183.80, speed=3.36, satellites=5, angle=18.1100, fixquality=1
$GPRMC,160745.000,A,4308.3069,N,07726.2719,W,4.15,16.62,080924,,,A*43
$GPGGA,160745.250,4308.3073,N,07726.2717,W,1,05,2.25,183.6,M,-34.4,M,,*55
lng=-77.437866, lat=43.138450, altitude=183.70, speed=4.15, satellites=5, angle=16.6200, fixquality=1
$GPRMC,160745.500,A,4308.3078,N,07726.2715,W,4.34,22.63,080924,,,A*4F
$GPGGA,160745.750,4308.3081,N,07726.2714,W,1,05,2.25,183.5,M,-34.4,M,,*5D
lng=-77.437858, lat=43.138462, altitude=183.60, speed=4.34, satellites=5, angle=22.6300, fixquality=1
$GPRMC,160746.000,A,4308.3085,N,07726.2711,W,4.52,24.41,080924,,,A*49
$GPGGA,160746.250,4308.3089,N,07726.2709,W,1,05,2.25,183.5,M,-34.4,M,,*5F
lng=-77.437850, lat=43.138477, altitude=183.50, speed=4.52, satellites=5, angle=24.4100, fixquality=1
$GPRMC,160746.500,A,4308.3093,N,07726.2705,W,4.90,32.76,080924,,,A*43
$GPGGA,160746.750,4308.3097,N,07726.2702,W,1,05,2.25,183.4,M,-34.4,M,,*5F
lng=-77.437843, lat=43.138484, altitude=183.50, speed=4.90, satellites=5, angle=32.7600, fixquality=1
$GPRMC,160747.000,A,4308.3099,N,07726.2699,W,4.68,35.00,080924,,,A*48
$GPGGA,160747.250,4308.3102,N,07726.2697,W,1,05,1.89,183.3,M,-34.4,M,,*59
lng=-77.437835, lat=43.138500, altitude=183.40, speed=4.68, satellites=5, angle=35.0000, fixquality=1
$GPRMC,160747.500,A,4308.3103,N,07726.2696,W,3.96,38.91,080924,,,A*43
$GPGGA,160747.750,4308.3104,N,07726.2695,W,1,05,2.25,183.2,M,-34.4,M,,*5C
lng=-77.437828, lat=43.138500, altitude=183.30, speed=3.96, satellites=5, angle=38.9100, fixquality=1
$GPRMC,160748.000,A,4308.3105,N,07726.2694,W,2.94,41.92,080924,,,A*43
$GPGGA,160748.250,4308.3106,N,07726.2692,W,1,05,1.89,183.1,M,-34.4,M,,*55
lng=-77.437828, lat=43.138507, altitude=183.20, speed=2.94, satellites=5, angle=41.9200, fixquality=1
$GPRMC,160748.500,A,4308.3106,N,07726.2691,W,2.08,56.81,080924,,,A*41
$GPGGA,160748.750,4308.3106,N,07726.2692,W,1,05,1.89,183.0,M,-34.4,M,,*51
lng=-77.437820, lat=43.138507, altitude=183.10, speed=2.08, satellites=5, angle=56.8100, fixquality=1
$GPGGA,160750.500,4308.3115,N,07726.2705,W,1,05,1.89,182.9,M,-34.4,M,,*5A
$GPRMC,160750.500,A,4308.3115,N,07726.2705,W,1.80,311.38,080924$GPGGA,160750.750,4308.3119,N,07726.2708,W,1,05,1.89,182.8,M,-34.4,M,,*5D
lng=-77.437843, lat=43.138526, altitude=182.90, speed=1.46, satellites=5, angle=308.3400, fixquality=1
$GPRMC,160751.000,A,4308.3121,N,07726.2712,W,3.61,311.62,080924,,,A*70
$GPGGA,160751.250,4308.3123,N,07726.2717,W,1,05,1.89,182.8,M,-34.4,M,,*5E
lng=-77.437850, lat=43.138534, altitude=182.90, speed=3.61, satellites=5, angle=311.6200, fixquality=1
$GPRMC,160751.500,A,4308.3121,N,07726.2726,W,5.25,289.17,080924,,,A*76
$GPGGA,160751.750,4308.3122,N,07726.2734,W,1,05,2.25,182.8,M,-34.4,M,,*5E
lng=-77.437873, lat=43.138534, altitude=182.80, speed=5.25, satellites=5, angle=289.1700, fixquality=1
$GPRMC,160752.000,A,4308.3123,N,07726.2742,W,6.93,280.01,080924,,,A*70
$GPGGA,160752.250,4308.3124,N,07726.2750,W,1,05,2.25,182.8,M,-34.4,M,,*5C
lng=-77.437904, lat=43.138542, altitude=182.80, speed=6.93, satellites=5, angle=280.0100, fixquality=1
$GPRMC,160752.500,A,4308.3126,N,07726.2758,W,8.36,280.01,080924,,,A*7A
$GPGGA,160752.750,4308.3127,N,07726.2766,W,1,05,2.25,182.7,M,-34.4,M,,*50
lng=-77.437934, lat=43.138542, altitude=182.80, speed=8.36, satellites=5, angle=280.0100, fixquality=1
$GPRMC,160753.000,A,4308.3129,N,07726.2775,W,8.80,279.22,080924,,,A*74
$GPGGA,160753.250,4308.3130,N,07726.2783,W,1,05,2.24,182.7,M,-34.4,M,,*58
lng=-77.437957, lat=43.138549, altitude=182.70, speed=8.80, satellites=5, angle=279.2200, fixquality=1
$GPRMC,160753.500,A,4308.3132,N,07726.2792,W,9.53,281.93,080924,,,A*70
$GPGGA,160753.750,4308.3134,N,07726.2802,W,1,05,2.25,182.7,M,-34.4,M,,*5E
lng=-77.437988, lat=43.138549, altitude=182.70, speed=9.53, satellites=5, angle=281.9300, fixquality=1
$GPRMC,160754.000,A,4308.3135,N,07726.2813,W,10.37,281.09,080924,,,A*4A
$GPGGA,160754.250,4308.3137,N,07726.2823,W,1,05,1.89,182.7,M,-34.4,M,,*59
lng=-77.438018, lat=43.138557, altitude=182.70, speed=10.37, satellites=5, angle=281.0900, fixquality=1
$GPRMC,160754.500,A,4308.3138,N,07726.2833,W,10.96,281.43,080924,,,A*45
$GPGGA,160754.750,4308.3141,N,07726.2843,W,1,05,2.24,182.7,M,-34.4,M,,*5F
lng=-77.438056, lat=43.138565, altitude=182.70, speed=10.96, satellites=5, angle=281.4300, fixquality=1
$GPRMC,160755.000,A,4308.3143,N,07726.2852,W,10.85,283.59,080924,,,A*41
$GPGGA,160755.250,4308.3146,N,07726.2862,W,1,05,2.24,182.7,M,-34.4,M,,*5F
lng=-77.438087, lat=43.138572, altitude=182.70, speed=10.85, satellites=5, angle=283.5900, fixquality=1
$GPRMC,160755.500,A,4308.3150,N,07726.2871,W,11.06,288.34,080924,,,A*4D
$GPGGA,160755.750,4308.3154,N,07726.2881,W,1,05,1.89,182.8,M,-34.4,M,,*5F
lng=-77.438117, lat=43.138584, altitude=182.70, speed=11.06, satellites=5, angle=288.3400, fixquality=1
$GPRMC,160756.000,A,4308.3157,N,07726.2893,W,12.13,290.50,080924,,,A*4C
$GPGGA,160756.250,4308.3160,N,07726.2904,W,1,05,1.89,182.8,M,-34.4,M,,*52
lng=-77.438148, lat=43.138599, altitude=182.80, speed=12.13, satellites=5, angle=290.5000, fixquality=1
$GPRMC,160756.500,A,4308.3164,N,07726.2917,W,13.24,291.40,080924,,,A*41
$GPGGA,160756.750,4308.3167,N,07726.2929,W,1,05,2.24,182.8,M,-34.4,M,,*5B
lng=-77.438194, lat=43.138607, altitude=182.80, speed=13.24, satellites=5, angle=291.4000, fixquality=1
$GPRMC,160757.000,A,4308.3171,N,07726.2942,W,13.99,290.77,080924,,,A*42
$GPGGA,160757.250,4308.3174,N,07726.2956,W,1,05,1.89,182.8,M,-34.4,M,,*51
lng=-77.438240, lat=43.138614, altitude=182.80, speed=13.99, satellites=5, angle=290.7700, fixquality=1
$GPRMC,160757.500,A,4308.3178,N,07726.2969,W,15.01,290.86,080924,,,A*4E
$GPGGA,160757.750,4308.3183,N,07726.2984,W,1,05,2.24,182.8,M,-34.4,M,,*57
lng=-77.438278, lat=43.138629, altitude=182.80, speed=15.01, satellites=5, angle=290.8600, fixquality=1
$GPRMC,160758.000,A,4308.3189,N,07726.2998,W,16.35,293.46,080924,,,A*4F
$GPGGA,160758.250,4308.3195,N,07726.3012,W,1,05,1.89,182.9,M,-34.4,M,,*58
lng=-77.438331, lat=43.138648, altitude=182.80, speed=16.35, satellites=5, angle=293.4600, fixquality=1
$GPRMC,160758.500,A,4308.3202,N,07726.3028,W,17.83,295.60,080924,,,A*47
$GPGGA,160758.750,4308.3209,N,07726.3043,W,1,05,2.24,182.9,M,-34.4,M,,*5B
lng=-77.438377, lat=43.138671, altitude=182.90, speed=17.83, satellites=5, angle=295.6000, fixquality=1
$GPRMC,160759.000,A,4308.3217,N,07726.3058,W,18.81,298.28,080924,,,A*4C
$GPGGA,160759.250,4308.3226,N,07726.3073,W,1,05,1.89,183.0,M,-34.4,M,,*5D
lng=-77.438430, lat=43.138694, altitude=182.90, speed=18.81, satellites=5, angle=298.2800, fixquality=1
$GPRMC,160759.500,A,4308.3236,N,07726.3088,W,19.44,301.81,080924,,,A*4D
$GPGGA,160759.750,4308.3246,N,07726.3102,W,1,05,2.24,183.2,M,-34.4,M,,*5F
lng=-77.438476, lat=43.138729, altitude=183.00, speed=19.44, satellites=5, angle=301.8100, fixquality=1
$GPRMC,160800.000,A,4308.3256,N,07726.3117,W,20.11,304.42,080924,,,A*4A
$GPGGA,160800.250,4308.3265,N,07726.3133,W,1,05,1.89,183.2,M,-34.4,M,,*5E
lng=-77.438522, lat=43.138759, altitude=183.20, speed=20.11, satellites=5, angle=304.4200, fixquality=1
$GPRMC,160800.500,A,4308.3274,N,07726.3149,W,20.80,304.97,080924,,,A*44
$GPGGA,160800.750,4308.3284,N,07726.3165,W,1,05,2.24,183.3,M,-34.4,M,,*52
lng=-77.438583, lat=43.138793, altitude=183.20, speed=20.80, satellites=5, angle=304.9700, fixquality=1
$GPRMC,160801.000,A,4308.3294,N,07726.3181,W,21.74,305.06,080924,,,A*49
$GPGGA,160801.250,4308.3304,N,07726.3198,W,1,05,1.89,183.4,M,-34.4,M,,*5E
lng=-77.438629, lat=43.138828, altitude=183.30, speed=21.74, satellites=5, angle=305.0600, fixquality=1
$GPRMC,160801.500,A,4308.3314,N,07726.3215,W,22.31,305.22,080924,,,A*4F
$GPGGA,160801.750,4308.3325,N,07726.3232,W,1,05,1.89,183.5,M,-34.4,M,,*5A
lng=-77.438690, lat=43.138858, altitude=183.40, speed=22.31, satellites=5, angle=305.2200, fixquality=1
$GPRMC,160802.000,A,4308.3335,N,07726.3250,W,23.28,304.99,080924,,,A*43
$GPGGA,160802.250,4308.3345,N,07726.3268,W,1,05,1.89,183.6,M,-34.4,M,,*56
lng=-77.438751, lat=43.138893, altitude=183.50, speed=23.28, satellites=5, angle=304.9900, fixquality=1
$GPRMC,160802.500,A,4308.3355,N,07726.3286,W,23.81,304.35,080924,,,A*4E
$GPGGA,160802.750,4308.3366,N,07726.3305,W,1,05,1.89,183.7,M,-34.4,M,,*59
lng=-77.438812, lat=43.138923, altitude=183.60, speed=23.81, satellites=5, angle=304.3500, fixquality=1
$GPRMC,160803.000,A,4308.3376,N,07726.3323,W,24.10,303.95,080924,,,A*47
$GPGGA,160803.250,4308.3386,N,07726.3342,W,1,05,1.89,183.8,M,-34.4,M,,*5F
lng=-77.438873, lat=43.138957, altitude=183.70, speed=24.10, satellites=5, angle=303.9500, fixquality=1
$GPRMC,160803.500,A,4308.3397,N,07726.3362,W,24.67,304.12,080924,,,A*40
$GPGGA,160803.750,4308.3408,N,07726.3381,W,1,05,1.89,183.9,M,-34.4,M,,*55
lng=-77.438941, lat=43.138996, altitude=183.80, speed=24.67, satellites=5, angle=304.1200, fixquality=1
$GPRMC,160804.000,A,4308.3420,N,07726.3399,W,25.02,304.07,080924,,,A*4B
$GPGGA,160804.250,4308.3430,N,07726.3419,W,1,05,1.89,184.0,M,-34.4,M,,*54
lng=-77.438995, lat=43.139030, altitude=183.90, speed=25.02, satellites=5, angle=304.0700, fixquality=1
$GPRMC,160804.500,A,4308.3441,N,07726.3438,W,25.20,304.32,080924,,,A*43
$GPGGA,160804.750,4308.3452,N,07726.3457,W,1,05,2.24,184.2,M,-34.4,M,,*59
lng=-77.439064, lat=43.139072, altitude=184.00, speed=25.20, satellites=5, angle=304.3200, fixquality=1
$GPRMC,160805.000,A,4308.3464,N,07726.3475,W,25.14,305.17,080924,,,A*48
$GPGGA,160805.250,4308.3476,N,07726.3492,W,1,05,1.89,184.3,M,-34.4,M,,*57
lng=-77.439125, lat=43.139102, altitude=184.20, speed=25.14, satellites=5, angle=305.1700, fixquality=1
$GPRMC,160805.500,A,4308.3488,N,07726.3510,W,24.89,306.28,080924,,,A*47
$GPGGA,160805.750,4308.3499,N,07726.3527,W,1,05,2.24,184.4,M,-34.4,M,,*5F
lng=-77.439186, lat=43.139144, altitude=184.30, speed=24.89, satellites=5, angle=306.2800, fixquality=1
$GPRMC,160806.000,A,4308.3510,N,07726.3545,W,24.16,306.70,080924,,,A*4A
$GPGGA,160806.250,4308.3519,N,07726.3564,W,1,05,1.89,184.5,M,-34.4,M,,*52
lng=-77.439239, lat=43.139183, altitude=184.40, speed=24.16, satellites=5, angle=306.7000, fixquality=1
$GPRMC,160806.500,A,4308.3530,N,07726.3581,W,23.57,306.42,080924,,,A*46
$GPGGA,160806.750,4308.3541,N,07726.3597,W,1,05,2.24,184.6,M,-34.4,M,,*51
lng=-77.439300, lat=43.139217, altitude=184.50, speed=23.57, satellites=5, angle=306.4200, fixquality=1
$GPRMC,160807.000,A,4308.3553,N,07726.3613,W,22.77,308.93,080924,,,A*4E
$GPGGA,160807.250,4308.3564,N,07726.3628,W,1,05,2.24,184.8,M,-34.4,M,,*5B
lng=-77.439353, lat=43.139259, altitude=184.60, speed=22.77, satellites=5, angle=308.9300, fixquality=1
$GPRMC,160807.500,A,4308.3575,N,07726.3644,W,22.34,310.66,080924,,,A*49
$GPGGA,160807.750,4308.3587,N,07726.3658,W,1,05,2.24,184.9,M,-34.4,M,,*55
lng=-77.439407, lat=43.139289, altitude=184.80, speed=22.34, satellites=5, angle=310.6600, fixquality=1
$GPRMC,160808.000,A,4308.3600,N,07726.3670,W,21.86,316.13,080924,,,A*4B
$GPGGA,160808.250,4308.3613,N,07726.3683,W,1,05,1.89,185.0,M,-34.4,M,,*5B
lng=-77.439453, lat=43.139331, altitude=184.90, speed=21.86, satellites=5, angle=316.1300, fixquality=1
$GPRMC,160808.500,A,4308.3625,N,07726.3694,W,21.28,320.84,080924,,,A*4C
$GPGGA,160808.750,4308.3638,N,07726.3705,W,1,05,2.24,185.0,M,-34.4,M,,*5C
lng=-77.439491, lat=43.139369, altitude=185.00, speed=21.28, satellites=5, angle=320.8400, fixquality=1
$GPRMC,160809.000,A,4308.3652,N,07726.3715,W,21.04,326.10,080924,,,A*45
$GPGGA,160809.250,4308.3665,N,07726.3725,W,1,05,1.89,185.0,M,-34.4,M,,*56
lng=-77.439529, lat=43.139419, altitude=185.00, speed=21.04, satellites=5, angle=326.1000, fixquality=1
$GPRMC,160809.500,A,4308.3679,N,07726.3733,W,20.99,331.88,080924,,,A*4F
$GPGGA,160809.750,4308.3694,N,07726.3740,W,1,05,2.23,185.1,M,-34.4,M,,*5C
lng=-77.439559, lat=43.139461, altitude=185.00, speed=20.99, satellites=5, angle=331.8800, fixquality=1
$GPRMC,160810.000,A,4308.3707,N,07726.3747,W,20.97,337.47,080924,,,A*42
$GPGGA,160810.250,4308.3721,N,07726.3754,W,1,05,1.89,185.3,M,-34.4,M,,*5A
lng=-77.439575, lat=43.139511, altitude=185.10, speed=20.97, satellites=5, angle=337.4700, fixquality=1
$GPRMC,160810.500,A,4308.3736,N,07726.3760,W,21.11,341.29,080924,,,A*46
$GPGGA,160810.750,4308.3751,N,07726.3765,W,1,05,2.23,185.4,M,-34.4,M,,*5E
lng=-77.439598, lat=43.139560, altitude=185.30, speed=21.11, satellites=5, angle=341.2900, fixquality=1
$GPRMC,160811.000,A,4308.3766,N,07726.3771,W,21.65,343.91,080924,,,A*45
$GPGGA,160811.250,4308.3780,N,07726.3776,W,1,05,1.89,185.6,M,-34.4,M,,*55
lng=-77.439613, lat=43.139606, altitude=185.40, speed=21.65, satellites=5, angle=343.9100, fixquality=1
$GPRMC,160811.500,A,4308.3794,N,07726.3781,W,21.38,344.68,080924,,,A*4B
$GPGGA,160811.750,4308.3808,N,07726.3785,W,1,05,2.23,185.8,M,-34.4,M,,*5E
lng=-77.439628, lat=43.139656, altitude=185.60, speed=21.38, satellites=5, angle=344.6800, fixquality=1
$GPRMC,160812.000,A,4308.3822,N,07726.3788,W,20.57,346.93,080924,,,A*48
$GPGGA,160812.250,4308.3836,N,07726.3791,W,1,05,2.23,185.9,M,-34.4,M,,*51
lng=-77.439651, lat=43.139705, altitude=185.80, speed=20.57, satellites=5, angle=346.9300, fixquality=1
$GPRMC,160812.500,A,4308.3851,N,07726.3791,W,20.15,352.05,080924,,,A*4D
$GPGGA,160812.750,4308.3866,N,07726.3790,W,1,05,2.23,186.1,M,-34.4,M,,*5B
lng=-77.439651, lat=43.139755, altitude=185.90, speed=20.15, satellites=5, angle=352.0500, fixquality=1
$GPRMC,160813.000,A,4308.3880,N,07726.3791,W,20.08,356.56,080924,,,A*4B
$GPGGA,160813.250,4308.3894,N,07726.3791,W,1,05,2.23,186.2,M,-34.4,M,,*50
lng=-77.439651, lat=43.139804, altitude=186.10, speed=20.08, satellites=5, angle=356.5600, fixquality=1
$GPRMC,160813.500,A,4308.3908,N,07726.3790,W,19.76,359.71,080924,,,A*47
$GPGGA,160813.750,4308.3921,N,07726.3789,W,1,05,2.23,186.2,M,-34.4,M,,*53
lng=-77.439651, lat=43.139842, altitude=186.20, speed=19.76, satellites=5, angle=359.7100, fixquality=1
$GPRMC,160814.000,A,4308.3935,N,07726.3788,W,19.38,1.70,080924,,,A*47
$GPGGA,160814.250,4308.3948,N,07726.3787,W,1,05,2.23,186.4,M,-34.4,M,,*56
lng=-77.439651, lat=43.139892, altitude=186.20, speed=19.38, satellites=5, angle=1.7000, fixquality=1
$GPRMC,160814.500,A,4308.3961,N,07726.3786,W,18.97,2.51,080924,,,A*49
$GPGGA,160814.750,4308.3975,N,07726.3785,W,1,05,2.23,186.5,M,-34.4,M,,*5E
lng=-77.439643, lat=43.139934, altitude=186.40, speed=18.97, satellites=5, angle=2.5100, fixquality=1
$GPRMC,160815.000,A,4308.3988,N,07726.3783,W,18.86,3.70,080924,,,A*4D
$GPGGA,160815.250,4308.4001,N,07726.3781,W,1,05,2.23,186.7,M,-34.4,M,,*51
lng=-77.439643, lat=43.139980, altitude=186.50, speed=18.86, satellites=5, angle=3.7000, fixquality=1
$GPRMC,160815.500,A,4308.4015,N,07726.3779,W,18.80,4.88,080924,,,A*41
$GPGGA,160815.750,4308.4028,N,07726.3776,W,1,05,2.23,186.8,M,-34.4,M,,*58
lng=-77.439628, lat=43.140022, altitude=186.70, speed=18.80, satellites=5, angle=4.8800, fixquality=1
$GPRMC,160816.000,A,4308.4041,N,07726.3774,W,18.52,6.00,080924,,,A*46
$GPGGA,160816.250,4308.4054,N,07726.3771,W,1,05,2.23,187.0,M,-34.4,M,,*5B
lng=-77.439620, lat=43.140071, altitude=186.80, speed=18.52, satellites=5, angle=6.0000, fixquality=1
$GPRMC,160816.500,A,4308.4067,N,07726.3769,W,18.45,6.71,080924,,,A*4B
$GPGGA,160816.750,4308.4080,N,07726.3766,W,1,05,2.23,187.2,M,-34.4,M,,*53
lng=-77.439613, lat=43.140113, altitude=187.00, speed=18.45, satellites=5, angle=6.7100, fixquality=1
$GPRMC,160817.000,A,4308.4092,N,07726.3764,W,18.13,6.28,080924,,,A*47
$GPGGA,160817.250,4308.4105,N,07726.3762,W,1,05,2.23,187.3,M,-34.4,M,,*5E
lng=-77.439605, lat=43.140151, altitude=187.20, speed=18.13, satellites=5, angle=6.2800, fixquality=1
$GPRMC,160817.500,A,4308.4117,N,07726.3760,W,18.06,5.61,080924,,,A*40
$GPGGA,160817.750,4308.4131,N,07726.3756,W,1,05,2.23,187.5,M,-34.4,M,,*5D
lng=-77.439598, lat=43.140193, altitude=187.30, speed=18.06, satellites=5, angle=5.6100, fixquality=1
$GPRMC,160818.000,A,4308.4144,N,07726.3753,W,18.13,5.48,080924,,,A*43
$GPGGA,160818.250,4308.4157,N,07726.3751,W,1,05,2.23,187.6,M,-34.4,M,,*53
lng=-77.439590, lat=43.140243, altitude=187.50, speed=18.13, satellites=5, angle=5.4800, fixquality=1
$GPRMC,160818.500,A,4308.4170,N,07726.3748,W,18.37,5.39,080924,,,A*4B
$GPGGA,160818.750,4308.4184,N,07726.3744,W,1,05,2.23,187.7,M,-34.4,M,,*5D
lng=-77.439582, lat=43.140281, altitude=187.60, speed=18.37, satellites=5, angle=5.3900, fixquality=1
$GPRMC,160819.000,A,4308.4197,N,07726.3741,W,18.65,5.41,080924,,,A*47
$GPGGA,160819.250,4308.4211,N,07726.3738,W,1,05,2.23,187.8,M,-34.4,M,,*52
lng=-77.439567, lat=43.140331, altitude=187.70, speed=18.65, satellites=5, angle=5.4100, fixquality=1
$GPRMC,160819.500,A,4308.4224,N,07726.3735,W,18.91,5.73,080924,,,A*40
$GPGGA,160819.750,4308.4239,N,07726.3731,W,1,05,2.23,187.9,M,-34.4,M,,*55
lng=-77.439559, lat=43.140373, altitude=187.80, speed=18.91, satellites=5, angle=5.7300, fixquality=1
$GPRMC,160820.000,A,4308.4253,N,07726.3727,W,19.23,6.08,080924,,,A*4B
$GPGGA,160820.250,4308.4266,N,07726.3724,W,1,05,2.23,188.0,M,-34.4,M,,*52
lng=-77.439544, lat=43.140422, altitude=187.90, speed=19.23, satellites=5, angle=6.0800, fixquality=1
$GPRMC,160820.500,A,4308.4280,N,07726.3722,W,19.06,6.20,080924,,,A*48
$GPGGA,160820.750,4308.4293,N,07726.3718,W,1,05,2.23,188.1,M,-34.4,M,,*53
lng=-77.439537, lat=43.140468, altitude=188.00, speed=19.06, satellites=5, angle=6.2000, fixquality=1
$GPRMC,160821.000,A,4308.4307,N,07726.3715,W,18.93,6.71,080924,,,A*4F
$GPGGA,160821.250,4308.4320,N,07726.3712,W,1,05,2.23,188.1,M,-34.4,M,,*54
lng=-77.439529, lat=43.140510, altitude=188.10, speed=18.93, satellites=5, angle=6.7100, fixquality=1
$GPRMC,160821.500,A,4308.4332,N,07726.3710,W,18.52,6.45,080924,,,A*43
$GPGGA,160821.750,4308.4345,N,07726.3707,W,1,05,2.23,188.3,M,-34.4,M,,*54
lng=-77.439521, lat=43.140552, altitude=188.10, speed=18.52, satellites=5, angle=6.4500, fixquality=1
$GPRMC,160822.000,A,4308.4357,N,07726.3705,W,18.27,6.29,080924,,,A*4A
$GPGGA,160822.250,4308.4369,N,07726.3703,W,1,05,2.23,188.4,M,-34.4,M,,*5F
lng=-77.439506, lat=43.140590, altitude=188.30, speed=18.27, satellites=5, angle=6.2900, fixquality=1
$GPRMC,160822.500,A,4308.4381,N,07726.3701,W,18.16,6.15,080924,,,A*4D
$GPGGA,160822.750,4308.4394,N,07726.3699,W,1,05,2.23,188.4,M,-34.4,M,,*5A
lng=-77.439498, lat=43.140632, altitude=188.40, speed=18.16, satellites=5, angle=6.1500, fixquality=1
$GPRMC,160823.000,A,4308.4407,N,07726.3696,W,17.79,6.55,080924,,,A*4D
$GPGGA,160823.250,4308.4419,N,07726.3693,W,1,05,2.23,188.3,M,-34.4,M,,*51
lng=-77.439491, lat=43.140682, altitude=188.40, speed=17.79, satellites=5, angle=6.5500, fixquality=1
$GPRMC,160823.500,A,4308.4432,N,07726.3689,W,17.48,7.78,080924,,,A*4C
$GPGGA,160823.750,4308.4444,N,07726.3685,W,1,05,2.23,188.3,M,-34.4,M,,*5B
lng=-77.439483, lat=43.140724, altitude=188.30, speed=17.48, satellites=5, angle=7.7800, fixquality=1
$GPRMC,160824.000,A,4308.4456,N,07726.3682,W,17.02,8.42,080924,,,A*4F
$GPGGA,160824.250,4308.4467,N,07726.3679,W,1,06,1.82,188.4,M,-34.4,M,,*57
lng=-77.439468, lat=43.140762, altitude=188.30, speed=17.02, satellites=5, angle=8.4200, fixquality=1
$GPRMC,160824.500,A,4308.4478,N,07726.3677,W,16.16,8.56,080924,,,A*4D
$GPGGA,160824.750,4308.4488,N,07726.3674,W,1,06,1.82,188.1,M,-34.4,M,,*5B
lng=-77.439460, lat=43.140796, altitude=188.40, speed=16.16, satellites=6, angle=8.5600, fixquality=1
$GPRMC,160825.000,A,4308.4498,N,07726.3672,W,15.12,9.41,080924,,,A*42
$GPGGA,160825.250,4308.4509,N,07726.3668,W,1,06,1.82,187.8,M,-34.4,M,,*5C
lng=-77.439453, lat=43.140827, altitude=188.10, speed=15.12, satellites=6, angle=9.4100, fixquality=1
$GPRMC,160825.500,A,4308.4518,N,07726.3665,W,14.29,10.90,080924,,,A*75
$GPGGA,160825.750,4308.4527,N,07726.3662,W,1,06,1.82,187.5,M,-34.4,M,,*52
lng=-77.439445, lat=43.140861, altitude=187.80, speed=14.29, satellites=6, angle=10.9000, fixquality=1
$GPRMC,160826.000,A,4308.4535,N,07726.3658,W,12.46,12.96,080924,,,A*79
$GPGGA,160826.250,4308.4542,N,07726.3656,W,1,06,1.82,187.0,M,-34.4,M,,*55
lng=-77.439430, lat=43.140892, altitude=187.50, speed=12.46, satellites=6, angle=12.9600, fixquality=1
$GPRMC,160826.500,A,4308.4546,N,07726.3655,W,10.29,14.15,080924,,,A*73
$GPGGA,160826.750,4308.4551,N,07726.3654,W,1,06,1.82,186.5,M,-34.4,M,,*54
lng=-77.439430, lat=43.140911, altitude=187.00, speed=10.29, satellites=6, angle=14.1500, fixquality=1
$GPRMC,160827.000,A,4308.4554,N,07726.3654,W,7.81,13.78,080924,,,A*4D
$GPGGA,160827.250,4308.4558,N,07726.3652,W,1,06,1.82,186.1,M,-34.4,M,,*5B
lng=-77.439422, lat=43.140926, altitude=186.50, speed=7.81, satellites=6, angle=13.7800, fixquality=1
$GPRMC,160827.500,A,4308.4560,N,07726.3652,W,6.00,15.62,080924,,,A*4C
$GPGGA,160827.750,4308.4563,N,07726.3650,W,1,06,1.82,185.9,M,-34.4,M,,*5F
lng=-77.439422, lat=43.140933, altitude=186.10, speed=6.00, satellites=6, angle=15.6200, fixquality=1
$GPRMC,160828.000,A,4308.4566,N,07726.3649,W,4.72,16.26,080924,,,A*4E
$GPGGA,160828.250,4308.4568,N,07726.3648,W,1,06,1.82,185.8,M,-34.4,M,,*56
lng=-77.439414, lat=43.140941, altitude=185.90, speed=4.72, satellites=6, angle=16.2600, fixquality=1
$GPRMC,160828.500,A,4308.4570,N,07726.3647,W,3.74,16.25,080924,,,A*40
$GPGGA,160828.750,4308.4571,N,07726.3646,W,1,06,1.70,185.6,M,-34.4,M,,*56
lng=-77.439414, lat=43.140949, altitude=185.80, speed=3.74, satellites=6, angle=16.2500, fixquality=1
$GPRMC,160829.000,A,4308.4572,N,07726.3645,W,2.72,19.31,080924,,,A*49
$GPGGA,160829.250,4308.4573,N,07726.3643,W,1,06,1.70,185.4,M,-34.4,M,,*57
lng=-77.439407, lat=43.140949, altitude=185.60, speed=2.72, satellites=6, angle=19.3100, fixquality=1
$GPRMC,160829.500,A,4308.4574,N,07726.3642,W,2.19,19.31,080924,,,A*40
$GPGGA,160829.750,4308.4575,N,07726.3641,W,1,06,1.70,185.2,M,-34.4,M,,*50
lng=-77.439407, lat=43.140956, altitude=185.40, speed=2.19, satellites=6, angle=19.3100, fixquality=1
$GPRMC,160836.250,A,4308.4568,N,07726.3642,W,2.73,19.31,080924,,,A*4D
$GPGGA,160836.500,4308.4579,N,07726.3637,W,1,06,1.70,184.1,M,-34.4,M,,*56
lng=-77.439407, lat=43.140949, altitude=184.40, speed=2.73, satellites=6, angle=19.3100, fixquality=1
$GPRMC,160836.750,A,4308.4589,N,07726.3635,W,6.49,319.79,080924,,,A*75
$GPGGA,160837.000,4308.4592,N,07726.3641,W,1,06,1.82,184.0,M,-34.4,M,,*5A
lng=-77.439384, lat=43.140983, altitude=184.10, speed=6.49, satellites=6, angle=319.7900, fixquality=1
$GPRMC,160837.250,A,4308.4597,N,07726.3646,W,8.38,316.55,080924,,,A*73
$GPGGA,160837.500,4308.4602,N,07726.3652,W,1,06,1.82,184.1,M,-34.4,M,,*56
lng=-77.439414, lat=43.140991, altitude=184.00, speed=8.38, satellites=6, angle=316.5500, fixquality=1
$GPRMC,160837.750,A,4308.4605,N,07726.3665,W,10.95,306.94,080924,,,A*4D
$GPGGA,160838.000,4308.4609,N,07726.3676,W,1,06,1.82,184.0,M,-34.4,M,,*50
lng=-77.439445, lat=43.141006, altitude=184.10, speed=10.95, satellites=6, angle=306.9400, fixquality=1
$GPRMC,160838.250,A,4308.4614,N,07726.3686,W,12.04,303.22,080924,,,A*48
$GPGGA,160838.500,4308.4618,N,07726.3696,W,1,06,1.82,184.1,M,-34.4,M,,*5A
lng=-77.439476, lat=43.141025, altitude=184.00, speed=12.04, satellites=6, angle=303.2200, fixquality=1
$GPRMC,160838.750,A,4308.4621,N,07726.3706,W,12.13,299.83,080924,,,A*4D
$GPGGA,160839.000,4308.4624,N,07726.3720,W,1,06,1.82,184.2,M,-34.4,M,,*5E
lng=-77.439506, lat=43.141033, altitude=184.10, speed=12.13, satellites=6, angle=299.8300, fixquality=1
$GPRMC,160839.250,A,4308.4628,N,07726.3734,W,13.78,294.71,080924,,,A*4D
$GPGGA,160839.500,4308.4631,N,07726.3748,W,1,06,1.82,184.3,M,-34.4,M,,*50
lng=-77.439559, lat=43.141048, altitude=184.20, speed=13.78, satellites=6, angle=294.7100, fixquality=1
$GPRMC,160839.750,A,4308.4632,N,07726.3764,W,14.86,289.90,080924,,,A*43
$GPGGA,160840.000,4308.4634,N,07726.3779,W,1,06,1.82,184.4,M,-34.4,M,,*5B
lng=-77.439605, lat=43.141056, altitude=184.30, speed=14.86, satellites=6, angle=289.9000, fixquality=1
$GPRMC,160840.250,A,4308.4637,N,07726.3793,W,15.22,286.41,080924,,,A*49
$GPGGA,160840.500,4308.4638,N,07726.3810,W,1,06,1.82,184.4,M,-34.4,M,,*52
lng=-77.439659, lat=43.141063, altitude=184.40, speed=15.22, satellites=6, angle=286.4100, fixquality=1
$GPRMC,160840.750,A,4308.4639,N,07726.3827,W,16.37,283.38,080924,,,A*4E
$GPGGA,160841.000,4308.4642,N,07726.3843,W,1,06,1.82,184.5,M,-34.4,M,,*5C
lng=-77.439712, lat=43.141063, altitude=184.40, speed=16.37, satellites=6, angle=283.3800, fixquality=1
$GPRMC,160841.250,A,4308.4644,N,07726.3859,W,16.77,283.04,080924,,,A*42
$GPGGA,160841.500,4308.4646,N,07726.3876,W,1,06,1.82,184.5,M,-34.4,M,,*5B
lng=-77.439765, lat=43.141071, altitude=184.50, speed=16.77, satellites=6, angle=283.0400, fixquality=1
$GPRMC,160841.750,A,4308.4647,N,07726.3893,W,17.59,281.51,080924,,,A*4D
$GPGGA,160842.000,4308.4649,N,07726.3910,W,1,06,1.81,184.6,M,-34.4,M,,*53
lng=-77.439819, lat=43.141078, altitude=184.50, speed=17.59, satellites=6, angle=281.5100, fixquality=1
$GPRMC,160842.250,A,4308.4651,N,07726.3927,W,17.84,281.09,080924,,,A*4F
$GPGGA,160842.500,4308.4653,N,07726.3945,W,1,06,1.70,184.7,M,-34.4,M,,*52
lng=-77.439872, lat=43.141090, altitude=184.60, speed=17.84, satellites=6, angle=281.0900, fixquality=1
$GPRMC,160842.750,A,4308.4654,N,07726.3963,W,18.26,280.26,080924,,,A*44
$GPGGA,160843.000,4308.4655,N,07726.3980,W,1,06,1.82,184.7,M,-34.4,M,,*54
lng=-77.439941, lat=43.141090, altitude=184.70, speed=18.26, satellites=6, angle=280.2600, fixquality=1
$GPRMC,160843.250,A,4308.4657,N,07726.3998,W,18.53,279.33,080924,,,A*47
$GPGGA,160843.500,4308.4659,N,07726.4016,W,1,06,1.82,184.8,M,-34.4,M,,*53
lng=-77.439994, lat=43.141098, altitude=184.70, speed=18.53, satellites=6, angle=279.3300, fixquality=1
$GPRMC,160843.750,A,4308.4660,N,07726.4034,W,18.74,278.86,080924,,,A*44
$GPGGA,160844.000,4308.4662,N,07726.4050,W,1,06,1.82,184.9,M,-34.4,M,,*5A
lng=-77.440055, lat=43.141098, altitude=184.80, speed=18.74, satellites=6, angle=278.8600, fixquality=1
$GPRMC,160844.250,A,4308.4665,N,07726.4067,W,18.68,279.26,080924,,,A*43
$GPGGA,160844.500,4308.4668,N,07726.4083,W,1,06,1.82,185.1,M,-34.4,M,,*52
lng=-77.440109, lat=43.141105, altitude=184.90, speed=18.68, satellites=6, angle=279.2600, fixquality=1
$GPRMC,160844.750,A,4308.4671,N,07726.4099,W,18.13,279.99,080924,,,A*4A
$GPGGA,160845.000,4308.4673,N,07726.4115,W,1,06,1.82,185.1,M,-34.4,M,,*52
lng=-77.440162, lat=43.141120, altitude=185.10, speed=18.13, satellites=6, angle=279.9900, fixquality=1
$GPRMC,160845.250,A,4308.4675,N,07726.4130,W,17.26,279.84,080924,,,A*4D
$GPGGA,160845.500,4308.4678,N,07726.4145,W,1,06,1.82,185.2,M,-34.4,M,,*5A
lng=-77.440216, lat=43.141120, altitude=185.10, speed=17.26, satellites=6, angle=279.8400, fixquality=1
$GPRMC,160845.750,A,4308.4681,N,07726.4160,W,16.36,279.22,080924,,,A*4A
$GPGGA,160846.000,4308.4684,N,07726.4173,W,1,06,1.82,185.2,M,-34.4,M,,*5A
lng=-77.440269, lat=43.141136, altitude=185.20, speed=16.36, satellites=6, angle=279.2200, fixquality=1
$GPRMC,160846.250,A,4308.4686,N,07726.4187,W,15.44,279.67,080924,,,A*45
$GPGGA,160846.500,4308.4689,N,07726.4201,W,1,06,1.82,185.2,M,-34.4,M,,*54
lng=-77.440307, lat=43.141147, altitude=185.20, speed=15.44, satellites=6, angle=279.6700, fixquality=1
$GPRMC,160846.750,A,4308.4691,N,07726.4214,W,14.14,279.19,080924,,,A*42
$GPGGA,160847.000,4308.4693,N,07726.4226,W,1,06,1.81,185.2,M,-34.4,M,,*5D
lng=-77.440353, lat=43.141155, altitude=185.20, speed=14.14, satellites=6, angle=279.1900, fixquality=1
$GPRMC,160847.250,A,4308.4695,N,07726.4238,W,12.89,279.31,080924,,,A*44
$GPGGA,160847.500,4308.4697,N,07726.4249,W,1,06,1.82,185.2,M,-34.4,M,,*56
lng=-77.440399, lat=43.141162, altitude=185.20, speed=12.89, satellites=6, angle=279.3100, fixquality=1
$GPRMC,160847.750,A,4308.4699,N,07726.4258,W,11.05,279.34,080924,,,A*49
$GPGGA,160848.000,4308.4701,N,07726.4267,W,1,06,1.82,185.1,M,-34.4,M,,*5D
lng=-77.440429, lat=43.141162, altitude=185.20, speed=11.05, satellites=6, angle=279.3400, fixquality=1
$GPRMC,160848.250,A,4308.4702,N,07726.4276,W,9.80,280.52,080924,,,A*7E
$GPGGA,160848.500,4308.4704,N,07726.4284,W,1,06,1.82,185.0,M,-34.4,M,,*51
lng=-77.440460, lat=43.141170, altitude=185.10, speed=9.80, satellites=6, angle=280.5200, fixquality=1
$GPRMC,160848.750,A,4308.4706,N,07726.4291,W,8.12,284.44,080924,,,A*7F
$GPGGA,160849.000,4308.4708,N,07726.4296,W,1,06,1.81,184.9,M,-34.4,M,,*51
lng=-77.440483, lat=43.141178, altitude=185.00, speed=8.12, satellites=6, angle=284.4400, fixquality=1
$GPRMC,160849.250,A,4308.4709,N,07726.4302,W,6.56,289.27,080924,,,A*79
$GPGGA,160849.500,4308.4711,N,07726.4306,W,1,06,1.82,184.8,M,-34.4,M,,*56
lng=-77.440505, lat=43.141178, altitude=184.90, speed=6.56, satellites=6, angle=289.2700, fixquality=1
$GPRMC,160849.750,A,4308.4713,N,07726.4309,W,4.85,295.95,080924,,,A*74
$GPGGA,160850.000,4308.4714,N,07726.4312,W,1,06,1.82,184.6,M,-34.4,M,,*55
lng=-77.440513, lat=43.141185, altitude=184.80, speed=4.85, satellites=6, angle=295.9500, fixquality=1
$GPRMC,160850.250,A,4308.4715,N,07726.4316,W,3.77,299.62,080924,,,A*7F
$GPGGA,160850.500,4308.4716,N,07726.4318,W,1,06,1.70,184.6,M,-34.4,M,,*55
lng=-77.440528, lat=43.141193, altitude=184.60, speed=3.77, satellites=6, angle=299.6200, fixquality=1
$GPRMC,160850.750,A,4308.4717,N,07726.4319,W,2.75,308.78,080924,,,A*76
$GPGGA,160851.000,4308.4718,N,07726.4320,W,1,06,1.70,184.5,M,-34.4,M,,*57
lng=-77.440536, lat=43.141193, altitude=184.60, speed=2.75, satellites=6, angle=308.7800, fixquality=1
$GPRMC,160851.250,A,4308.4719,N,07726.4320,W,2.09,308.78,080924,,,A*7D
$GPGGA,160851.500,4308.4719,N,07726.4320,W,1,06,1.70,184.4,M,-34.4,M,,*52
lng=-77.440536, lat=43.141193, altitude=184.50, speed=2.09, satellites=6, angle=308.7800, fixquality=1
$GPRMC,160856.000,A,4308.4727,N,07726.4323,W,2.84,308.78,080924,,,A*76
$GPGGA,160856.250,4308.4727,N,07726.4328,W,1,06,1.70,184.0,M,-34.4,M,,*56
lng=-77.440536, lat=43.141212, altitude=184.00, speed=2.84, satellites=6, angle=308.7800, fixquality=1
$GPRMC,160856.500,A,4308.4727,N,07726.4335,W,5.00,281.90,080924,,,A*79
$GPGGA,160856.750,4308.4727,N,07726.4344,W,1,06,1.81,184.0,M,-34.4,M,,*57
lng=-77.440559, lat=43.141212, altitude=184.00, speed=5.00, satellites=6, angle=281.9000, fixquality=1
$GPRMC,160857.000,A,4308.4728,N,07726.4352,W,6.90,282.19,080924,,,A*7B
$GPGGA,160857.250,4308.4728,N,07726.4360,W,1,06,1.82,184.1,M,-34.4,M,,*58
lng=-77.440582, lat=43.141212, altitude=184.00, speed=6.90, satellites=6, angle=282.1900, fixquality=1
$GPRMC,160857.500,A,4308.4729,N,07726.4367,W,7.09,283.16,080924,,,A*76
$GPGGA,160857.750,4308.4730,N,07726.4374,W,1,06,1.81,184.2,M,-34.4,M,,*51
lng=-77.440605, lat=43.141212, altitude=184.10, speed=7.09, satellites=6, angle=283.1600, fixquality=1
$GPRMC,160858.000,A,4308.4730,N,07726.4379,W,6.10,284.86,080924,,,A*7C
$GPGGA,160858.250,4308.4731,N,07726.4385,W,1,06,1.82,184.3,M,-34.4,M,,*56
lng=-77.440635, lat=43.141220, altitude=184.20, speed=6.10, satellites=6, angle=284.8600, fixquality=1
$GPRMC,160858.500,A,4308.4731,N,07726.4388,W,4.68,283.70,080924,,,A*75
$GPGGA,160858.750,4308.4732,N,07726.4391,W,1,06,1.81,184.3,M,-34.4,M,,*56
lng=-77.440650, lat=43.141220, altitude=184.30, speed=4.68, satellites=6, angle=283.7000, fixquality=1
$GPRMC,160859.000,A,4308.4732,N,07726.4394,W,2.88,288.01,080924,,,A*7A
$GPGGA,160859.250,4308.4733,N,07726.4396,W,1,06,1.70,184.4,M,-34.4,M,,*5D
lng=-77.440658, lat=43.141220, altitude=184.30, speed=2.88, satellites=6, angle=288.0100, fixquality=1
$GPRMC,160859.500,A,4308.4733,N,07726.4398,W,1.87,291.23,080924,,,A*76
$GPGGA,160859.750,4308.4733,N,07726.4399,W,1,06,1.70,184.4,M,-34.4,M,,*57
lng=-77.440666, lat=43.141220, altitude=184.40, speed=1.87, satellites=6, angle=291.2300, fixquality=1
$GPGGA,160904.000,4308.4737,N,07726.4412,W,1,06,1.70,184.3,M,-34.4,M,,*5B
$GPRMC,160904.000,A,4308.4737,N,07726.4412,W,1.68,310.20,080924,,,A*71
lng=-77.440689, lat=43.141227, altitude=184.30, speed=1.46, satellites=6, angle=312.1900, fixquality=1
$GPGGA,160904.250,4308.4739,N,07726.4414,W,1,06,1.70,184.3,M,-34.4,M,,*54
$GPRMC,160904.250,A,4308.4739,N,07726.4414,W,1.94,311.34,080924,,,A*79
lng=-77.440689, lat=43.141235, altitude=184.30, speed=1.68, satellites=6, angle=310.2000, fixquality=1
$GPRMC,160904.500,A,4308.4740,N,07726.4417,W,2.58,308.39,080924,,,A*70
$GPGGA,160904.750,4308.4741,N,07726.4423,W,1,06,1.70,184.3,M,-34.4,M,,*5A
lng=-77.440696, lat=43.141235, altitude=184.30, speed=2.58, satellites=6, angle=308.3900, fixquality=1
$GPRMC,160905.000,A,4308.4738,N,07726.4430,W,6.00,297.88,080924,,,A*7A
$GPGGA,160905.250,4308.4735,N,07726.4438,W,1,06,1.70,184.3,M,-34.4,M,,*57
lng=-77.440711, lat=43.141227, altitude=184.30, speed=6.00, satellites=6, angle=297.8800, fixquality=1
$GPRMC,160905.500,A,4308.4733,N,07726.4448,W,8.73,290.48,080924,,,A*7A
$GPGGA,160905.750,4308.4732,N,07726.4459,W,1,06,1.81,184.5,M,-34.4,M,,*5A
lng=-77.440750, lat=43.141220, altitude=184.30, speed=8.73, satellites=6, angle=290.4800, fixquality=1
$GPRMC,160906.000,A,4308.4732,N,07726.4471,W,11.18,286.69,080924,,,A*46
$GPGGA,160906.250,4308.4734,N,07726.4483,W,1,06,1.70,184.7,M,-34.4,M,,*51
lng=-77.440788, lat=43.141220, altitude=184.50, speed=11.18, satellites=6, angle=286.6900, fixquality=1
$GPRMC,160906.500,A,4308.4736,N,07726.4496,W,12.28,284.87,080924,,,A*4C
$GPGGA,160906.750,4308.4736,N,07726.4512,W,1,06,1.81,184.9,M,-34.4,M,,*5F
lng=-77.440826, lat=43.141227, altitude=184.70, speed=12.28, satellites=6, angle=284.8700, fixquality=1
$GPRMC,160907.000,A,4308.4738,N,07726.4527,W,14.40,283.43,080924,,,A*4A
$GPGGA,160907.250,4308.4740,N,07726.4542,W,1,06,1.81,185.0,M,-34.4,M,,*57
lng=-77.440879, lat=43.141227, altitude=184.90, speed=14.40, satellites=6, angle=283.4300, fixquality=1
$GPRMC,160907.500,A,4308.4741,N,07726.4559,W,15.62,282.19,080924,,,A*47
$GPGGA,160907.750,4308.4742,N,07726.4578,W,1,06,1.81,185.2,M,-34.4,M,,*5B
lng=-77.440933, lat=43.141235, altitude=185.00, speed=15.62, satellites=6, angle=282.1900, fixquality=1
$GPRMC,160908.000,A,4308.4743,N,07726.4598,W,17.89,280.17,080924,,,A*49
$GPGGA,160908.250,4308.4743,N,07726.4618,W,1,06,1.70,185.4,M,-34.4,M,,*5D
lng=-77.441001, lat=43.141235, altitude=185.20, speed=17.89, satellites=6, angle=280.1700, fixquality=1
$GPRMC,160908.500,A,4308.4742,N,07726.4641,W,19.56,275.87,080924,,,A*45
$GPGGA,160908.750,4308.4743,N,07726.4662,W,1,06,1.82,185.5,M,-34.4,M,,*59
lng=-77.441062, lat=43.141235, altitude=185.40, speed=19.56, satellites=6, angle=275.8700, fixquality=1
$GPRMC,160909.000,A,4308.4743,N,07726.4684,W,21.24,274.40,080924,,,A*4D
$GPGGA,160909.250,4308.4745,N,07726.4706,W,1,06,1.70,185.6,M,-34.4,M,,*56
lng=-77.441139, lat=43.141235, altitude=185.50, speed=21.24, satellites=6, angle=274.4000, fixquality=1
$GPRMC,160909.500,A,4308.4748,N,07726.4729,W,23.12,275.72,080924,,,A*42
$GPGGA,160909.750,4308.4750,N,07726.4753,W,1,06,1.81,185.8,M,-34.4,M,,*57
lng=-77.441207, lat=43.141242, altitude=185.60, speed=23.12, satellites=6, angle=275.7200, fixquality=1
$GPRMC,160910.000,A,4308.4752,N,07726.4777,W,24.34,276.81,080924,,,A*43
$GPGGA,160910.250,4308.4754,N,07726.4801,W,1,06,1.81,186.0,M,-34.4,M,,*5D
lng=-77.441291, lat=43.141250, altitude=185.80, speed=24.34, satellites=6, angle=276.8100, fixquality=1
$GPRMC,160910.500,A,4308.4756,N,07726.4825,W,25.23,277.03,080924,,,A*46
$GPGGA,160910.750,4308.4758,N,07726.4850,W,1,06,1.81,186.2,M,-34.4,M,,*52
lng=-77.441375, lat=43.141258, altitude=186.00, speed=25.23, satellites=6, angle=277.0300, fixquality=1
$GPRMC,160911.000,A,4308.4759,N,07726.4875,W,25.70,276.28,080924,,,A*46
$GPGGA,160911.250,4308.4761,N,07726.4900,W,1,06,1.70,186.4,M,-34.4,M,,*50
lng=-77.441452, lat=43.141269, altitude=186.20, speed=25.70, satellites=6, angle=276.2800, fixquality=1
$GPRMC,160911.500,A,4308.4762,N,07726.4926,W,26.69,276.31,080924,,,A*4F
$GPGGA,160911.750,4308.4764,N,07726.4953,W,1,06,1.70,186.7,M,-34.4,M,,*55
lng=-77.441543, lat=43.141269, altitude=186.40, speed=26.69, satellites=6, angle=276.3100, fixquality=1
$GPRMC,160912.000,A,4308.4766,N,07726.4980,W,27.40,276.25,080924,,,A*4E
$GPGGA,160912.250,4308.4768,N,07726.5006,W,1,06,1.70,186.9,M,-34.4,M,,*59
lng=-77.441635, lat=43.141277, altitude=186.70, speed=27.40, satellites=6, angle=276.2500, fixquality=1
$GPRMC,160912.500,A,4308.4769,N,07726.5034,W,27.74,275.16,080924,,,A*47
$GPGGA,160912.750,4308.4772,N,07726.5062,W,1,06,1.81,187.2,M,-34.4,M,,*51
lng=-77.441726, lat=43.141284, altitude=186.90, speed=27.74, satellites=6, angle=275.1600, fixquality=1
$GPRMC,160913.000,A,4308.4774,N,07726.5090,W,29.10,274.52,080924,,,A*4C
$GPGGA,160913.250,4308.4776,N,07726.5119,W,1,06,1.70,187.3,M,-34.4,M,,*53
lng=-77.441810, lat=43.141292, altitude=187.20, speed=29.10, satellites=6, angle=274.5200, fixquality=1
$GPRMC,160913.500,A,4308.4778,N,07726.5148,W,29.72,274.33,080924,,,A*42
$GPGGA,160913.750,4308.4780,N,07726.5177,W,1,06,1.81,187.6,M,-34.4,M,,*5C
lng=-77.441909, lat=43.141300, altitude=187.30, speed=29.72, satellites=6, angle=274.3300, fixquality=1
$GPRMC,160914.000,A,4308.4782,N,07726.5206,W,30.48,274.00,080924,,,A*4D
$GPGGA,160914.250,4308.4784,N,07726.5236,W,1,06,1.70,187.7,M,-34.4,M,,*53
lng=-77.442008, lat=43.141300, altitude=187.60, speed=30.48, satellites=6, angle=274.0000, fixquality=1
$GPRMC,160914.500,A,4308.4786,N,07726.5266,W,30.99,274.43,080924,,,A*41
$GPGGA,160914.750,4308.4788,N,07726.5296,W,1,06,1.81,187.9,M,-34.4,M,,*50
lng=-77.442108, lat=43.141307, altitude=187.70, speed=30.99, satellites=6, angle=274.4300, fixquality=1
$GPRMC,160915.000,A,4308.4789,N,07726.5327,W,31.64,274.55,080924,,,A*4A
$GPGGA,160915.250,4308.4791,N,07726.5358,W,1,06,1.70,188.1,M,-34.4,M,,*56
lng=-77.442214, lat=43.141315, altitude=187.90, speed=31.64, satellites=6, angle=274.5500, fixquality=1
$GPRMC,160915.500,A,4308.4792,N,07726.5389,W,32.08,273.97,080924,,,A*41
$GPGGA,160915.750,4308.4793,N,07726.5421,W,1,06,1.81,188.2,M,-34.4,M,,*55
lng=-77.442314, lat=43.141315, altitude=188.10, speed=32.08, satellites=6, angle=273.9700, fixquality=1
$GPRMC,160916.000,A,4308.4795,N,07726.5453,W,32.94,273.81,080924,,,A*42
$GPGGA,160916.250,4308.4797,N,07726.5485,W,1,06,1.81,188.4,M,-34.4,M,,*5F
lng=-77.442420, lat=43.141323, altitude=188.20, speed=32.94, satellites=6, angle=273.8100, fixquality=1
$GPRMC,160916.500,A,4308.4799,N,07726.5517,W,33.28,274.04,080924,,,A*46
$GPGGA,160916.750,4308.4801,N,07726.5549,W,1,06,1.81,188.7,M,-34.4,M,,*58
lng=-77.442527, lat=43.141334, altitude=188.40, speed=33.28, satellites=6, angle=274.0400, fixquality=1
$GPRMC,160917.000,A,4308.4802,N,07726.5581,W,33.75,273.83,080924,,,A*40
$GPGGA,160917.250,4308.4804,N,07726.5614,W,1,06,1.81,188.9,M,-34.4,M,,*5C
lng=-77.442634, lat=43.141334, altitude=188.70, speed=33.75, satellites=6, angle=273.8300, fixquality=1
$GPRMC,160917.500,A,4308.4807,N,07726.5647,W,34.24,273.79,080924,,,A*4F
$GPGGA,160917.750,4308.4809,N,07726.5680,W,1,06,1.81,189.2,M,-34.4,M,,*53
lng=-77.442749, lat=43.141342, altitude=188.90, speed=34.24, satellites=6, angle=273.7900, fixquality=1
$GPRMC,160918.000,A,4308.4811,N,07726.5714,W,34.67,273.97,080924,,,A*42
$GPGGA,160918.250,4308.4813,N,07726.5748,W,1,06,1.81,189.3,M,-34.4,M,,*56
lng=-77.442855, lat=43.141349, altitude=189.20, speed=34.67, satellites=6, angle=273.9700, fixquality=1
$GPRMC,160918.500,A,4308.4815,N,07726.5783,W,34.95,274.14,080924,,,A*4C
$GPGGA,160918.750,4308.4816,N,07726.5818,W,1,06,1.81,189.4,M,-34.4,M,,*5B
lng=-77.442970, lat=43.141357, altitude=189.30, speed=34.95, satellites=6, angle=274.1400, fixquality=1
$GPRMC,160919.000,A,4308.4818,N,07726.5853,W,35.84,273.87,080924,,,A*4B
$GPGGA,160919.250,4308.4820,N,07726.5888,W,1,06,1.81,189.7,M,-34.4,M,,*50
lng=-77.443092, lat=43.141365, altitude=189.40, speed=35.84, satellites=6, angle=273.8700, fixquality=1
$GPRMC,160919.500,A,4308.4821,N,07726.5923,W,36.15,273.34,080924,,,A*41
$GPGGA,160919.750,4308.4822,N,07726.5959,W,1,06,1.81,190.0,M,-34.4,M,,*55
lng=-77.443206, lat=43.141365, altitude=189.70, speed=36.15, satellites=6, angle=273.3400, fixquality=1
$GPRMC,160920.000,A,4308.4824,N,07726.5994,W,36.14,272.54,080924,,,A*41
$GPGGA,160920.250,4308.4825,N,07726.6028,W,1,06,1.70,190.4,M,-34.4,M,,*5B
lng=-77.443328, lat=43.141372, altitude=190.00, speed=36.14, satellites=6, angle=272.5400, fixquality=1
$GPRMC,160920.500,A,4308.4826,N,07726.6062,W,35.87,272.21,080924,,,A*4E
$GPGGA,160920.750,4308.4828,N,07726.6096,W,1,06,1.70,190.8,M,-34.4,M,,*5A
lng=-77.443435, lat=43.141372, altitude=190.40, speed=35.87, satellites=6, angle=272.2100, fixquality=1
$GPRMC,160921.000,A,4308.4829,N,07726.6130,W,35.76,271.58,080924,,,A*40
$GPGGA,160921.250,4308.4830,N,07726.6165,W,1,06,1.70,191.1,M,-34.4,M,,*52
lng=-77.443550, lat=43.141380, altitude=190.80, speed=35.76, satellites=6, angle=271.5800, fixquality=1
$GPRMC,160921.500,A,4308.4831,N,07726.6201,W,36.46,271.72,080924,,,A*45
$GPGGA,160921.750,4308.4831,N,07726.6236,W,1,06,1.81,191.5,M,-34.4,M,,*59
lng=-77.443672, lat=43.141380, altitude=191.10, speed=36.46, satellites=6, angle=271.7200, fixquality=1
$GPRMC,160922.000,A,4308.4832,N,07726.6272,W,36.46,270.16,080924,,,A*47
$GPGGA,160922.250,4308.4832,N,07726.6306,W,1,06,1.70,191.9,M,-34.4,M,,*5C
lng=-77.443778, lat=43.141391, altitude=191.50, speed=36.46, satellites=6, angle=270.1600, fixquality=1
$GPRMC,160922.500,A,4308.4832,N,07726.6341,W,36.44,269.25,080924,,,A*49
$GPGGA,160922.750,4308.4831,N,07726.6375,W,1,06,1.81,192.2,M,-34.4,M,,*58
lng=-77.443901, lat=43.141391, altitude=191.90, speed=36.44, satellites=6, angle=269.2500, fixquality=1
$GPRMC,160923.000,A,4308.4830,N,07726.6409,W,36.24,267.97,080924,,,A*45
$GPGGA,160923.250,4308.4829,N,07726.6444,W,1,06,1.70,192.6,M,-34.4,M,,*5A
lng=-77.444015, lat=43.141380, altitude=192.20, speed=36.24, satellites=6, angle=267.9700, fixquality=1
$GPRMC,160923.500,A,4308.4827,N,07726.6477,W,36.09,266.36,080924,,,A*4A
$GPGGA,160923.750,4308.4826,N,07726.6511,W,1,06,1.81,192.6,M,-34.4,M,,*5F
lng=-77.444122, lat=43.141380, altitude=192.60, speed=36.09, satellites=6, angle=266.3600, fixquality=1
$GPRMC,160924.000,A,4308.4826,N,07726.6544,W,35.89,266.04,080924,,,A*42
$GPGGA,160924.250,4308.4824,N,07726.6578,W,1,06,1.81,192.5,M,-34.4,M,,*53
lng=-77.444236, lat=43.141372, altitude=192.60, speed=35.89, satellites=6, angle=266.0400, fixquality=1
$GPRMC,160924.500,A,4308.4822,N,07726.6611,W,35.72,265.53,080924,,,A*45
$GPGGA,160924.750,4308.4820,N,07726.6645,W,1,06,1.81,192.5,M,-34.4,M,,*5F
lng=-77.444351, lat=43.141372, altitude=192.50, speed=35.72, satellites=6, angle=265.5300, fixquality=1
$GPRMC,160925.000,A,4308.4819,N,07726.6679,W,35.32,265.95,080924,,,A*49
$GPGGA,160925.250,4308.4818,N,07726.6713,W,1,06,1.81,192.2,M,-34.4,M,,*55
lng=-77.444465, lat=43.141365, altitude=192.50, speed=35.32, satellites=6, angle=265.9500, fixquality=1
$GPRMC,160925.500,A,4308.4816,N,07726.6747,W,35.38,265.54,080924,,,A*48
$GPGGA,160925.750,4308.4814,N,07726.6782,W,1,06,1.81,192.1,M,-34.4,M,,*57
lng=-77.444580, lat=43.141357, altitude=192.20, speed=35.38, satellites=6, angle=265.5400, fixquality=1
$GPRMC,160926.000,A,4308.4812,N,07726.6816,W,35.45,265.61,080924,,,A*4D
$GPGGA,160926.250,4308.4811,N,07726.6851,W,1,06,1.81,192.0,M,-34.4,M,,*54
lng=-77.444694, lat=43.141349, altitude=192.10, speed=35.45, satellites=6, angle=265.6100, fixquality=1
$GPRMC,160926.500,A,4308.4809,N,07726.6885,W,35.25,265.84,080924,,,A*45
$GPGGA,160926.750,4308.4807,N,07726.6919,W,1,06,1.81,191.9,M,-34.4,M,,*51
lng=-77.444808, lat=43.141349, altitude=192.00, speed=35.25, satellites=6, angle=265.8400, fixquality=1
$GPRMC,160927.000,A,4308.4805,N,07726.6953,W,34.96,265.76,080924,,,A*43
$GPGGA,160927.250,4308.4802,N,07726.6987,W,1,06,1.70,192.1,M,-34.4,M,,*52
lng=-77.444923, lat=43.141342, altitude=191.90, speed=34.96, satellites=6, angle=265.7600, fixquality=1
$GPRMC,160927.500,A,4308.4799,N,07726.7021,W,34.70,265.42,080924,,,A*4E
$GPGGA,160927.750,4308.4796,N,07726.7055,W,1,06,1.81,192.3,M,-34.4,M,,*5E
lng=-77.445037, lat=43.141334, altitude=192.10, speed=34.70, satellites=6, angle=265.4200, fixquality=1
$GPRMC,160928.000,A,4308.4793,N,07726.7089,W,34.49,265.20,080924,,,A*42
$GPGGA,160928.250,4308.4791,N,07726.7122,W,1,06,1.70,192.5,M,-34.4,M,,*5A
lng=-77.445152, lat=43.141323, altitude=192.30, speed=34.49, satellites=6, angle=265.2000, fixquality=1
$GPRMC,160928.500,A,4308.4788,N,07726.7156,W,34.46,264.82,080924,,,A*48
$GPGGA,160928.750,4308.4785,N,07726.7189,W,1,06,1.81,192.8,M,-34.4,M,,*58
lng=-77.445266, lat=43.141315, altitude=192.50, speed=34.46, satellites=6, angle=264.8200, fixquality=1
$GPRMC,160929.000,A,4308.4782,N,07726.7222,W,34.26,265.35,080924,,,A*4D
$GPGGA,160929.250,4308.4780,N,07726.7255,W,1,06,1.70,193.1,M,-34.4,M,,*5D
lng=-77.445365, lat=43.141300, altitude=192.80, speed=34.26, satellites=6, angle=265.3500, fixquality=1
$GPRMC,160929.500,A,4308.4778,N,07726.7288,W,33.96,265.85,080924,,,A*4A
$GPGGA,160929.750,4308.4776,N,07726.7321,W,1,06,1.81,193.4,M,-34.4,M,,*58
lng=-77.445480, lat=43.141300, altitude=193.10, speed=33.96, satellites=6, angle=265.8500, fixquality=1
$GPRMC,160930.000,A,4308.4773,N,07726.7353,W,33.71,265.38,080924,,,A*44
$GPGGA,160930.250,4308.4771,N,07726.7385,W,1,06,1.81,193.8,M,-34.4,M,,*50
lng=-77.445587, lat=43.141292, altitude=193.40, speed=33.71, satellites=6, angle=265.3800, fixquality=1
$GPRMC,160930.500,A,4308.4768,N,07726.7417,W,33.60,264.79,080924,,,A*48
$GPGGA,160930.750,4308.4766,N,07726.7449,W,1,06,1.81,194.2,M,-34.4,M,,*59
lng=-77.445693, lat=43.141277, altitude=193.80, speed=33.60, satellites=6, angle=264.7900, fixquality=1
$GPRMC,160931.000,A,4308.4763,N,07726.7481,W,33.47,264.67,080924,,,A*42
$GPGGA,160931.250,4308.4761,N,07726.7512,W,1,06,1.81,194.6,M,-34.4,M,,*51
lng=-77.445800, lat=43.141269, altitude=194.20, speed=33.47, satellites=6, angle=264.6700, fixquality=1
$GPRMC,160931.500,A,4308.4758,N,07726.7544,W,32.99,264.60,080924,,,A*42
$GPGGA,160931.750,4308.4756,N,07726.7575,W,1,06,1.81,195.1,M,-34.4,M,,*57
lng=-77.445907, lat=43.141258, altitude=194.60, speed=32.99, satellites=6, angle=264.6000, fixquality=1
$GPRMC,160932.000,A,4308.4754,N,07726.7606,W,32.90,264.89,080924,,,A*43
$GPGGA,160932.250,4308.4752,N,07726.7636,W,1,06,1.81,195.6,M,-34.4,M,,*56
lng=-77.446014, lat=43.141258, altitude=195.10, speed=32.90, satellites=6, angle=264.8900, fixquality=1
$GPRMC,160932.500,A,4308.4750,N,07726.7666,W,31.79,264.91,080924,,,A*49
$GPGGA,160932.750,4308.4747,N,07726.7696,W,1,06,1.81,196.1,M,-34.4,M,,*59
lng=-77.446113, lat=43.141250, altitude=195.60, speed=31.79, satellites=6, angle=264.9100, fixquality=1
$GPRMC,160933.000,A,4308.4745,N,07726.7726,W,31.58,264.51,080924,,,A*43
$GPGGA,160933.250,4308.4742,N,07726.7757,W,1,06,1.70,196.6,M,-34.4,M,,*5D
lng=-77.446205, lat=43.141242, altitude=196.10, speed=31.58, satellites=6, angle=264.5100, fixquality=1
$GPRMC,160933.500,A,4308.4739,N,07726.7788,W,31.86,263.42,080924,,,A*4F
$GPGGA,160933.750,4308.4736,N,07726.7818,W,1,06,1.81,197.0,M,-34.4,M,,*56
lng=-77.446311, lat=43.141235, altitude=196.60, speed=31.86, satellites=6, angle=263.4200, fixquality=1
$GPRMC,160934.000,A,4308.4733,N,07726.7848,W,31.64,263.14,080924,,,A*4B
$GPGGA,160934.250,4308.4730,N,07726.7878,W,1,06,1.70,197.1,M,-34.4,M,,*5B
lng=-77.446411, lat=43.141220, altitude=197.00, speed=31.64, satellites=6, angle=263.1400, fixquality=1
$GPRMC,160934.500,A,4308.4727,N,07726.7909,W,31.73,263.31,080924,,,A*4E
$GPGGA,160934.750,4308.4725,N,07726.7939,W,1,06,1.81,197.3,M,-34.4,M,,*52
lng=-77.446517, lat=43.141212, altitude=197.10, speed=31.73, satellites=6, angle=263.3100, fixquality=1
$GPRMC,160935.000,A,4308.4723,N,07726.7970,W,32.14,262.95,080924,,,A*4D
$GPGGA,160935.250,4308.4720,N,07726.8000,W,1,06,1.81,197.1,M,-34.4,M,,*5D
lng=-77.446617, lat=43.141201, altitude=197.30, speed=32.14, satellites=6, angle=262.9500, fixquality=1
$GPRMC,160935.500,A,4308.4717,N,07726.8030,W,31.75,262.99,080924,,,A*45
$GPGGA,160935.750,4308.4714,N,07726.8060,W,1,06,1.81,197.2,M,-34.4,M,,*5A
lng=-77.446723, lat=43.141193, altitude=197.10, speed=31.75, satellites=6, angle=262.9900, fixquality=1
$GPRMC,160936.000,A,4308.4711,N,07726.8091,W,31.74,262.73,080924,,,A*4B
$GPGGA,160936.250,4308.4708,N,07726.8122,W,1,06,1.81,197.4,M,-34.4,M,,*50
lng=-77.446815, lat=43.141185, altitude=197.20, speed=31.74, satellites=6, angle=262.7300, fixquality=1
$GPRMC,160936.500,A,4308.4705,N,07726.8153,W,32.10,263.82,080924,,,A*4A
$GPGGA,160936.750,4308.4703,N,07726.8184,W,1,06,1.81,197.5,M,-34.4,M,,*53
lng=-77.446922, lat=43.141178, altitude=197.40, speed=32.10, satellites=6, angle=263.8200, fixquality=1
$GPRMC,160937.000,A,4308.4700,N,07726.8215,W,32.23,264.28,080924,,,A*4D
$GPGGA,160937.250,4308.4697,N,07726.8246,W,1,06,1.81,197.8,M,-34.4,M,,*5B
lng=-77.447021, lat=43.141170, altitude=197.50, speed=32.23, satellites=6, angle=264.2800, fixquality=1
$GPRMC,160937.500,A,4308.4695,N,07726.8277,W,32.23,264.71,080924,,,A*4D
$GPGGA,160937.750,4308.4694,N,07726.8309,W,1,06,1.81,197.6,M,-34.4,M,,*59
lng=-77.447128, lat=43.141162, altitude=197.80, speed=32.23, satellites=6, angle=264.7100, fixquality=1
$GPRMC,160938.000,A,4308.4693,N,07726.8340,W,32.30,265.60,080924,,,A*47
$GPGGA,160938.250,4308.4692,N,07726.8372,W,1,06,1.81,197.1,M,-34.4,M,,*5E
lng=-77.447235, lat=43.141155, altitude=197.60, speed=32.30, satellites=6, angle=265.6000, fixquality=1
$GPRMC,160938.500,A,4308.4691,N,07726.8403,W,32.58,265.77,080924,,,A*48
$GPGGA,160938.750,4308.4690,N,07726.8435,W,1,06,1.81,196.4,M,-34.4,M,,*59
lng=-77.447341, lat=43.141155, altitude=197.10, speed=32.58, satellites=6, angle=265.7700, fixquality=1
$GPRMC,160939.000,A,4308.4689,N,07726.8466,W,32.80,265.89,080924,,,A*42
$GPGGA,160939.250,4308.4688,N,07726.8498,W,1,06,1.81,195.8,M,-34.4,M,,*5C
lng=-77.447441, lat=43.141147, altitude=196.40, speed=32.80, satellites=6, angle=265.8900, fixquality=1
$GPRMC,160939.500,A,4308.4687,N,07726.8530,W,32.91,265.96,080924,,,A*45
$GPGGA,160939.750,4308.4686,N,07726.8561,W,1,06,1.81,195.2,M,-34.4,M,,*5A
lng=-77.447547, lat=43.141147, altitude=195.80, speed=32.91, satellites=6, angle=265.9600, fixquality=1
$GPRMC,160940.000,A,4308.4685,N,07726.8593,W,32.95,266.38,080924,,,A*46
$GPGGA,160940.250,4308.4684,N,07726.8625,W,1,06,1.81,194.7,M,-34.4,M,,*54
lng=-77.447654, lat=43.141136, altitude=195.20, speed=32.95, satellites=6, angle=266.3800, fixquality=1
$GPRMC,160940.500,A,4308.4682,N,07726.8656,W,32.96,266.51,080924,,,A*42
$GPGGA,160940.750,4308.4681,N,07726.8688,W,1,06,1.81,194.3,M,-34.4,M,,*57
lng=-77.447761, lat=43.141136, altitude=194.70, speed=32.96, satellites=6, angle=266.5100, fixquality=1
$GPRMC,160941.000,A,4308.4680,N,07726.8720,W,32.93,266.18,080924,,,A*4C
$GPGGA,160941.250,4308.4678,N,07726.8751,W,1,06,1.81,193.8,M,-34.4,M,,*5C
lng=-77.447868, lat=43.141128, altitude=194.30, speed=32.93, satellites=6, angle=266.1800, fixquality=1
$GPRMC,160941.500,A,4308.4676,N,07726.8782,W,32.88,265.47,080924,,,A*4B
$GPGGA,160941.750,4308.4674,N,07726.8813,W,1,06,1.81,193.6,M,-34.4,M,,*52
lng=-77.447975, lat=43.141128, altitude=193.80, speed=32.88, satellites=6, angle=265.4700, fixquality=1
$GPRMC,160942.000,A,4308.4672,N,07726.8844,W,32.85,265.31,080924,,,A*40
$GPGGA,160942.250,4308.4670,N,07726.8875,W,1,06,1.81,193.6,M,-34.4,M,,*50
lng=-77.448074, lat=43.141120, altitude=193.60, speed=32.85, satellites=6, angle=265.3100, fixquality=1
$GPRMC,160942.500,A,4308.4668,N,07726.8907,W,32.84,264.89,080924,,,A*4B
$GPGGA,160942.750,4308.4665,N,07726.8938,W,1,06,1.81,193.5,M,-34.4,M,,*5A
lng=-77.448173, lat=43.141113, altitude=193.60, speed=32.84, satellites=6, angle=264.8900, fixquality=1
$GPRMC,160943.000,A,4308.4663,N,07726.8969,W,33.21,265.18,080924,,,A*4B
$GPGGA,160943.250,4308.4661,N,07726.9001,W,1,06,1.81,193.4,M,-34.4,M,,*59
lng=-77.448280, lat=43.141105, altitude=193.50, speed=33.21, satellites=6, angle=265.1800, fixquality=1
$GPRMC,160943.500,A,4308.4659,N,07726.9032,W,33.25,265.02,080924,,,A*4E
$GPGGA,160943.750,4308.4657,N,07726.9064,W,1,06,1.81,193.2,M,-34.4,M,,*5C
lng=-77.448387, lat=43.141098, altitude=193.40, speed=33.25, satellites=6, angle=265.0200, fixquality=1
$GPRMC,160944.000,A,4308.4655,N,07726.9095,W,33.25,265.25,080924,,,A*48
$GPGGA,160944.250,4308.4653,N,07726.9126,W,1,06,1.81,192.5,M,-34.4,M,,*5B
lng=-77.448493, lat=43.141090, altitude=193.20, speed=33.25, satellites=6, angle=265.2500, fixquality=1
$GPRMC,160944.500,A,4308.4651,N,07726.9158,W,33.32,264.83,080924,,,A*42
$GPGGA,160944.750,4308.4649,N,07726.9190,W,1,06,1.81,192.4,M,-34.4,M,,*59
lng=-77.448600, lat=43.141090, altitude=192.50, speed=33.32, satellites=6, angle=264.8300, fixquality=1
$GPRMC,160945.000,A,4308.4647,N,07726.9221,W,33.60,265.28,080924,,,A*4B
$GPGGA,160945.250,4308.4646,N,07726.9253,W,1,06,1.81,192.2,M,-34.4,M,,*58
lng=-77.448699, lat=43.141078, altitude=192.40, speed=33.60, satellites=6, angle=265.2800, fixquality=1
$GPRMC,160945.500,A,4308.4645,N,07726.9285,W,33.89,265.87,080924,,,A*40
$GPGGA,160945.750,4308.4644,N,07726.9317,W,1,06,1.81,191.6,M,-34.4,M,,*59
lng=-77.448814, lat=43.141071, altitude=192.20, speed=33.89, satellites=6, angle=265.8700, fixquality=1
$GPRMC,160946.000,A,4308.4643,N,07726.9349,W,34.01,266.17,080924,,,A*4C
$GPGGA,160946.250,4308.4641,N,07726.9381,W,1,06,1.81,191.1,M,-34.4,M,,*52
lng=-77.448921, lat=43.141071, altitude=191.60, speed=34.01, satellites=6, angle=266.1700, fixquality=1
$GPRMC,160946.500,A,4308.4639,N,07726.9414,W,34.05,265.83,080924,,,A*41
$GPGGA,160946.750,4308.4638,N,07726.9446,W,1,06,1.81,190.7,M,-34.4,M,,*52
lng=-77.449020, lat=43.141063, altitude=191.10, speed=34.05, satellites=6, angle=265.8300, fixquality=1
$GPRMC,160947.000,A,4308.4637,N,07726.9478,W,34.10,266.48,080924,,,A*41
$GPGGA,160947.250,4308.4636,N,07726.9511,W,1,06,1.81,190.3,M,-34.4,M,,*5F
lng=-77.449127, lat=43.141063, altitude=190.70, speed=34.10, satellites=6, angle=266.4800, fixquality=1
$GPRMC,160947.500,A,4308.4634,N,07726.9543,W,34.32,266.33,080924,,,A*42
$GPGGA,160947.750,4308.4633,N,07726.9576,W,1,06,1.81,190.1,M,-34.4,M,,*5C
lng=-77.449234, lat=43.141056, altitude=190.30, speed=34.32, satellites=6, angle=266.3300, fixquality=1
$GPRMC,160948.000,A,4308.4631,N,07726.9609,W,34.40,266.27,080924,,,A*40
$GPGGA,160948.250,4308.4630,N,07726.9642,W,1,06,1.81,189.8,M,-34.4,M,,*50
lng=-77.449348, lat=43.141048, altitude=190.10, speed=34.40, satellites=6, angle=266.2700, fixquality=1
$GPRMC,160948.500,A,4308.4627,N,07726.9675,W,34.62,265.54,080924,,,A*4E
$GPGGA,160948.750,4308.4626,N,07726.9707,W,1,06,1.81,189.6,M,-34.4,M,,*5C
lng=-77.449455, lat=43.141048, altitude=189.80, speed=34.62, satellites=6, angle=265.5400, fixquality=1
$GPRMC,160949.000,A,4308.4625,N,07726.9739,W,34.55,265.45,080924,,,A*45
$GPGGA,160949.250,4308.4624,N,07726.9772,W,1,06,1.70,188.9,M,-34.4,M,,*58
lng=-77.449569, lat=43.141040, altitude=189.60, speed=34.55, satellites=6, angle=265.4500, fixquality=1
$GPRMC,160949.500,A,4308.4623,N,07726.9804,W,34.54,265.82,080924,,,A*4D
$GPGGA,160949.750,4308.4622,N,07726.9835,W,1,06,1.81,188.1,M,-34.4,M,,*51
lng=-77.449676, lat=43.141040, altitude=188.90, speed=34.54, satellites=6, angle=265.8200, fixquality=1
$GPRMC,160950.000,A,4308.4621,N,07726.9867,W,34.40,265.70,080924,,,A*4F
$GPGGA,160950.250,4308.4620,N,07726.9898,W,1,06,1.81,187.4,M,-34.4,M,,*53
lng=-77.449783, lat=43.141033, altitude=188.10, speed=34.40, satellites=6, angle=265.7000, fixquality=1
