Vers 72
USE_SERIAL_FEEDBACK=true
DEVELOPMENT_MODE=false
USE_RMC_ONLY=false

$GPRMC,211749.250,A,4305.1631,N,07740.8725,W,0.33,13.52,100924,,,A*43
$GPGGA,211749.500,4305.1631,N,07740.8725,W,1,05,1.25,177.1,M,-34.4,M,,*55
lng=-77.681205, lat=43.086051, altitude=184.40, speed=0.33, satellites=3, angle=13.5200, fixquality=1
$GPRMC,211749.750,A,4305.1631,N,07740.8725,W,0.25,359.53,100924,,,A*7D
$GPGGA,211750.000,4305.1631,N,07740.8725,W,1,05,1.24,177.3,M,-34.4,M,,*5B
lng=-77.681205, lat=43.086051, altitude=177.10, speed=0.25, satellites=5, angle=359.5300, fixquality=1
$GPGGA,211757.750,4305.1626,N,07740.8713,W,1,06,1.19,180.0,M,-34.4,M,,*5B
$GPRMC,211757.750,A,4305.1626,N,07740.8713,W,0.08,114.19,100924,,,A*7B
lng=-77.681182, lat=43.086044, altitude=180.00, speed=0.09, satellites=6, angle=114.5400, fixquality=1
$GPGGA,211758.000,4305.1626,N,07740.8713,W,1,06,1.19,180.2,M,-34.4,M,,*54
$GPRMC,211758.000,A,4305.1626,N,07740.8713,W,0.10,124.94,100924,,,A*79
lng=-77.681182, lat=43.086044, altitude=180.20, speed=0.08, satellites=6, angle=114.1900, fixquality=1
$GPGGA,211841.500,4305.1613,N,07740.8700,W,1,07,1.17,180.2,M,-34.4,M,,*5D
$GPRMC,211841.500,A,4305.1613,N,07740.8700,W,0.01,92.06,100924,,,A*48
lng=-77.681167, lat=43.086017, altitude=180.20, speed=0.01, satellites=7, angle=183.7800, fixquality=1
$GPGGA,211841.750,4305.1613,N,07740.8700,W,1,07,1.17,180.2,M,-34.4,M,,*5A
$GPRMC,211841.750,A,4305.1613,N,07740.8700,W,0.01,60.04,100924,,,A*40
lng=-77.681167, lat=43.086017, altitude=180.20, speed=0.01, satellites=7, angle=92.0600, fixquality=1
$GPGGA,212008.500,4305.1615,N,07740.8688,W,1,07,1.10,181.0,M,-34.4,M,,*58
$GPRMC,212008.500,A,4305.1615,N,07740.8688,W,0.58,41.11,100924,,,A*4D
lng=-77.681144, lat=43.086025, altitude=181.00, speed=0.58, satellites=7, angle=43.3000, fixquality=1
$GPGGA,212008.750,4305.1616,N,07740.8689,W,1,07,1.10,181.0,M,-34.4,M,,*5D
$GPRMC,212008.750,A,4305.1616,N,07740.8689,W,0.54,35.36,100924,,,A*42
lng=-77.681152, lat=43.086025, altitude=181.00, speed=0.58, satellites=7, angle=41.1100, fixquality=1
$GPGGA,212010.250,4305.1621,N,07740.8706,W,1,07,1.10,180.7,M,-34.4,M,,*55
$GPRMC,212010.250,A,4305.1621,N,07740.8706,W,2.64,282.20,100924,,,A*74
lng=-77.681175, lat=43.086036, altitude=180.70, speed=1.02, satellites=7, angle=288.3500, fixquality=1
$GPGGA,212010.500,4305.1622,N,07740.8712,W,1,07,1.10,180.8,M,-34.4,M,,*5E
$GPRMC,212010.500,A,4305.1622,N,07740.8712,W,4.48,273.20,100924,,,A*76
lng=-77.681182, lat=43.086036, altitude=180.80, speed=2.64, satellites=7, angle=282.2000, fixquality=1
$GPGGA,212010.750,4305.1622,N,07740.8718,W,1,07,1.17,181.0,M,-34.4,M,,*5D
$GPRMC,212010.750,A,4305.1622,N,07740.8718,W,5.78,268.32,100924$GPGGA,212011.000,4305.1623,N,07740.8725,W,1,07,1.17,181.2,M,-34.4,M,,*53
lng=-77.681190, lat=43.086036, altitude=181.00, speed=4.48, satellites=7, angle=273.2000, fixquality=1
$GPRMC,212011.250,A,4305.1625,N,07740.8735,W,8.50,269.60,100924,,,A*7D
$GPGGA,212011.500,4305.1626,N,07740.8745,W,1,07,1.17,181.6,M,-34.4,M,,*51
lng=-77.681228, lat=43.086044, altitude=181.00, speed=8.50, satellites=7, angle=269.6000, fixquality=1
$GPRMC,212011.750,A,4305.1627,N,07740.8755,W,9.42,268.82,100924,,,A*73
$GPGGA,212012.000,4305.1628,N,07740.8766,W,1,07,1.17,181.9,M,-34.4,M,,*57
lng=-77.681259, lat=43.086044, altitude=181.60, speed=9.42, satellites=7, angle=268.8200, fixquality=1
$GPRMC,212012.250,A,4305.1629,N,07740.8776,W,9.77,270.21,100924,,,A*7C
$GPGGA,212012.500,4305.1630,N,07740.8791,W,1,07,1.17,182.0,M,-34.4,M,,*59
lng=-77.681289, lat=43.086051, altitude=181.90, speed=9.77, satellites=7, angle=270.2100, fixquality=1
$GPRMC,212012.750,A,4305.1631,N,07740.8804,W,9.89,269.98,100924,,,A*71
$GPGGA,212013.000,4305.1632,N,07740.8817,W,1,07,1.17,181.9,M,-34.4,M,,*54
lng=-77.681343, lat=43.086051, altitude=182.00, speed=9.89, satellites=7, angle=269.9800, fixquality=1
$GPRMC,212013.250,A,4305.1633,N,07740.8830,W,10.08,271.52,100924,,,A*4E
$GPGGA,212013.500,4305.1633,N,07740.8841,W,1,07,1.17,181.8,M,-34.4,M,,*52
lng=-77.681381, lat=43.086051, altitude=181.90, speed=10.08, satellites=7, angle=271.5200, fixquality=1
$GPRMC,212013.750,A,4305.1635,N,07740.8852,W,9.89,273.61,100924,,,A*7A
$GPGGA,212014.000,4305.1636,N,07740.8862,W,1,07,1.17,181.8,M,-34.4,M,,*54
lng=-77.681419, lat=43.086059, altitude=181.80, speed=9.89, satellites=7, angle=273.6100, fixquality=1
$GPRMC,212014.250,A,4305.1640,N,07740.8871,W,9.84,281.25,100924,,,A*7B
$GPGGA,212014.500,4305.1644,N,07740.8880,W,1,07,1.17,181.7,M,-34.4,M,,*57
lng=-77.681449, lat=43.086067, altitude=181.80, speed=9.84, satellites=7, angle=281.2500, fixquality=1
$GPRMC,212014.750,A,4305.1649,N,07740.8890,W,9.48,291.40,100924,,,A*7A
$GPGGA,212015.000,4305.1653,N,07740.8898,W,1,07,1.17,181.5,M,-34.4,M,,*5E
lng=-77.681488, lat=43.086082, altitude=181.70, speed=9.48, satellites=7, angle=291.4000, fixquality=1
$GPRMC,212015.250,A,4305.1657,N,07740.8904,W,9.16,297.61,100924,,,A*73
$GPGGA,212015.500,4305.1662,N,07740.8910,W,1,07,1.17,181.3,M,-34.4,M,,*5E
lng=-77.681510, lat=43.086093, altitude=181.50, speed=9.16, satellites=7, angle=297.6100, fixquality=1
$GPRMC,212015.750,A,4305.1668,N,07740.8915,W,8.70,308.67,100924,,,A*7A
$GPGGA,212016.000,4305.1673,N,07740.8922,W,1,07,1.17,181.1,M,-34.4,M,,*5B
lng=-77.681526, lat=43.086116, altitude=181.30, speed=8.70, satellites=7, angle=308.6700, fixquality=1
$GPRMC,212016.250,A,4305.1679,N,07740.8927,W,8.23,317.98,100924,,,A*75
$GPGGA,212016.500,4305.1685,N,07740.8930,W,1,07,1.17,180.8,M,-34.4,M,,*5C
lng=-77.681541, lat=43.086132, altitude=181.10, speed=8.23, satellites=7, angle=317.9800, fixquality=1
$GPRMC,212016.750,A,4305.1691,N,07740.8934,W,8.26,331.52,100924,,,A*73
$GPGGA,212017.000,4305.1699,N,07740.8936,W,1,07,1.17,180.6,M,-34.4,M,,*5D
lng=-77.681556, lat=43.086147, altitude=180.80, speed=8.26, satellites=7, angle=331.5200, fixquality=1
$GPRMC,212017.250,A,4305.1708,N,07740.8937,W,9.35,347.19,100924,,,A*78
$GPGGA,212017.500,4305.1717,N,07740.8937,W,1,06,1.22,180.5,M,-34.4,M,,*5A
lng=-77.681556, lat=43.086181, altitude=180.60, speed=9.35, satellites=7, angle=347.1900, fixquality=1
$GPRMC,212017.750,A,4305.1726,N,07740.8937,W,10.94,353.98,100924,,,A*4E
$GPGGA,212018.000,4305.1735,N,07740.8937,W,1,07,1.17,180.4,M,-34.4,M,,*56
lng=-77.681556, lat=43.086204, altitude=180.50, speed=10.94, satellites=6, angle=353.9800, fixquality=1
$GPRMC,212018.250,A,4305.1744,N,07740.8936,W,11.45,359.60,100924,,,A*41
$GPGGA,212018.500,4305.1753,N,07740.8935,W,1,07,1.17,180.4,M,-34.4,M,,*51
lng=-77.681556, lat=43.086238, altitude=180.40, speed=11.45, satellites=7, angle=359.6000, fixquality=1
$GPRMC,212018.750,A,4305.1762,N,07740.8934,W,12.60,1.49,100924,,,A*43
$GPGGA,212019.000,4305.1772,N,07740.8933,W,1,07,1.17,180.4,M,-34.4,M,,*50
lng=-77.681556, lat=43.086269, altitude=180.40, speed=12.60, satellites=7, angle=1.4900, fixquality=1
$GPRMC,212019.250,A,4305.1783,N,07740.8932,W,13.63,1.51,100924,,,A*45
$GPGGA,212019.500,4305.1793,N,07740.8931,W,1,07,1.17,180.3,M,-34.4,M,,*5F
lng=-77.681549, lat=43.086303, altitude=180.40, speed=13.63, satellites=7, angle=1.5100, fixquality=1
$GPRMC,212019.750,A,4305.1804,N,07740.8930,W,14.41,0.86,100924,,,A*4E
$GPGGA,212020.000,4305.1816,N,07740.8929,W,1,07,1.17,180.1,M,-34.4,M,,*59
lng=-77.681549, lat=43.086338, altitude=180.30, speed=14.41, satellites=7, angle=0.8600, fixquality=1
$GPRMC,212020.250,A,4305.1828,N,07740.8928,W,15.28,0.31,100924,,,A*44
$GPGGA,212020.500,4305.1840,N,07740.8929,W,1,07,1.17,179.9,M,-34.4,M,,*51
lng=-77.681541, lat=43.086376, altitude=180.10, speed=15.28, satellites=7, angle=0.3100, fixquality=1
$GPRMC,212020.750,A,4305.1852,N,07740.8928,W,15.85,359.25,100924,,,A*41
$GPGGA,212021.000,4305.1864,N,07740.8928,W,1,07,1.17,179.7,M,-34.4,M,,*5C
lng=-77.681541, lat=43.086418, altitude=179.90, speed=15.85, satellites=7, angle=359.2500, fixquality=1
$GPRMC,212021.250,A,4305.1877,N,07740.8928,W,16.46,358.24,100924,,,A*4E
$GPGGA,212021.500,4305.1889,N,07740.8928,W,1,07,1.17,179.5,M,-34.4,M,,*58
lng=-77.681541, lat=43.086460, altitude=179.70, speed=16.46, satellites=7, angle=358.2400, fixquality=1
$GPRMC,212021.750,A,4305.1902,N,07740.8928,W,16.72,357.84,100924,,,A*4A
$GPGGA,212022.000,4305.1914,N,07740.8928,W,1,07,1.17,179.3,M,-34.4,M,,*5D
lng=-77.681541, lat=43.086505, altitude=179.50, speed=16.72, satellites=7, angle=357.8400, fixquality=1
$GPRMC,212022.250,A,4305.1926,N,07740.8928,W,16.71,357.78,100924,,,A*4A
$GPGGA,212022.500,4305.1939,N,07740.8928,W,1,07,1.17,179.0,M,-34.4,M,,*54
lng=-77.681541, lat=43.086540, altitude=179.30, speed=16.71, satellites=7, angle=357.7800, fixquality=1
$GPRMC,212022.750,A,4305.1951,N,07740.8929,W,16.98,357.85,100924,,,A*4B
$GPGGA,212023.000,4305.1964,N,07740.8929,W,1,07,1.17,178.6,M,-34.4,M,,*5E
lng=-77.681549, lat=43.086589, altitude=179.00, speed=16.98, satellites=7, angle=357.8500, fixquality=1
$GPRMC,212023.250,A,4305.1976,N,07740.8929,W,17.03,357.51,100924,,,A*40
$GPGGA,212023.500,4305.1989,N,07740.8930,W,1,07,1.17,178.3,M,-34.4,M,,*55
lng=-77.681549, lat=43.086627, altitude=178.60, speed=17.03, satellites=7, angle=357.5100, fixquality=1
$GPRMC,212023.750,A,4305.2001,N,07740.8931,W,17.34,357.88,100924,,,A*46
$GPGGA,212024.000,4305.2014,N,07740.8931,W,1,07,1.17,178.1,M,-34.4,M,,*5A
lng=-77.681549, lat=43.086669, altitude=178.30, speed=17.34, satellites=7, angle=357.8800, fixquality=1
$GPRMC,212024.250,A,4305.2027,N,07740.8932,W,17.67,357.82,100924,,,A*4F
$GPGGA,212024.500,4305.2039,N,07740.8933,W,1,07,1.17,177.8,M,-34.4,M,,*54
lng=-77.681549, lat=43.086711, altitude=178.10, speed=17.67, satellites=7, angle=357.8200, fixquality=1
$GPRMC,212024.750,A,4305.2052,N,07740.8933,W,17.91,358.67,100924,,,A*44
$GPGGA,212025.000,4305.2065,N,07740.8933,W,1,07,1.17,177.6,M,-34.4,M,,*57
lng=-77.681549, lat=43.086750, altitude=177.80, speed=17.91, satellites=7, angle=358.6700, fixquality=1
$GPRMC,212025.250,A,4305.2078,N,07740.8933,W,17.97,358.89,100924,,,A*4E
$GPGGA,212025.500,4305.2091,N,07740.8933,W,1,07,1.17,177.4,M,-34.4,M,,*5B
lng=-77.681549, lat=43.086799, altitude=177.60, speed=17.97, satellites=7, angle=358.8900, fixquality=1
$GPRMC,212025.750,A,4305.2104,N,07740.8933,W,18.21,358.96,100924,,,A*4D
$GPGGA,212026.000,4305.2117,N,07740.8934,W,1,07,1.17,177.1,M,-34.4,M,,*50
lng=-77.681549, lat=43.086841, altitude=177.40, speed=18.21, satellites=7, angle=358.9600, fixquality=1
$GPRMC,212026.250,A,4305.2130,N,07740.8934,W,18.45,358.89,100924,,,A*47
$GPGGA,212026.500,4305.2144,N,07740.8934,W,1,07,1.17,176.8,M,-34.4,M,,*5B
lng=-77.681556, lat=43.086879, altitude=177.10, speed=18.45, satellites=7, angle=358.8900, fixquality=1
$GPRMC,212026.750,A,4305.2157,N,07740.8933,W,18.47,358.45,100924,,,A*46
$GPGGA,212027.000,4305.2170,N,07740.8934,W,1,07,1.17,176.4,M,-34.4,M,,*54
lng=-77.681549, lat=43.086929, altitude=176.80, speed=18.47, satellites=7, angle=358.4500, fixquality=1
$GPRMC,212027.250,A,4305.2183,N,07740.8936,W,18.40,356.43,100924,,,A*41
$GPGGA,212027.500,4305.2196,N,07740.8938,W,1,07,1.17,176.1,M,-34.4,M,,*50
lng=-77.681556, lat=43.086971, altitude=176.40, speed=18.40, satellites=7, angle=356.4300, fixquality=1
$GPRMC,212027.750,A,4305.2209,N,07740.8939,W,18.31,354.71,100924,,,A*4F
$GPGGA,212028.000,4305.2221,N,07740.8941,W,1,07,1.17,175.6,M,-34.4,M,,*5F
lng=-77.681564, lat=43.087013, altitude=176.10, speed=18.31, satellites=7, angle=354.7100, fixquality=1
$GPRMC,212028.250,A,4305.2233,N,07740.8942,W,17.94,353.05,100924,,,A*44
$GPGGA,212028.500,4305.2245,N,07740.8944,W,1,07,1.17,175.0,M,-34.4,M,,*5B
lng=-77.681564, lat=43.087051, altitude=175.60, speed=17.94, satellites=7, angle=353.0500, fixquality=1
$GPRMC,212028.750,A,4305.2257,N,07740.8946,W,17.67,351.89,100924,,,A*4D
$GPGGA,212029.000,4305.2268,N,07740.8947,W,1,07,1.17,174.4,M,-34.4,M,,*56
lng=-77.681571, lat=43.087093, altitude=175.00, speed=17.67, satellites=7, angle=351.8900, fixquality=1
$GPRMC,212029.250,A,4305.2280,N,07740.8950,W,17.12,350.94,100924,,,A*4B
$GPGGA,212029.500,4305.2291,N,07740.8952,W,1,07,1.17,174.0,M,-34.4,M,,*55
lng=-77.681587, lat=43.087135, altitude=174.40, speed=17.12, satellites=7, angle=350.9400, fixquality=1
$GPRMC,212029.750,A,4305.2302,N,07740.8955,W,16.77,350.68,100924,,,A*41
$GPGGA,212030.000,4305.2314,N,07740.8958,W,1,07,1.17,173.6,M,-34.4,M,,*5F
lng=-77.681594, lat=43.087165, altitude=174.00, speed=16.77, satellites=7, angle=350.6800, fixquality=1
$GPRMC,212030.250,A,4305.2324,N,07740.8961,W,16.17,351.12,100924,,,A*45
$GPGGA,212030.500,4305.2334,N,07740.8963,W,1,07,1.17,173.2,M,-34.4,M,,*54
lng=-77.681602, lat=43.087207, altitude=173.60, speed=16.17, satellites=7, angle=351.1200, fixquality=1
$GPRMC,212030.750,A,4305.2344,N,07740.8965,W,15.20,351.54,100924,,,A*47
$GPGGA,212031.000,4305.2352,N,07740.8967,W,1,07,1.17,172.9,M,-34.4,M,,*5E
lng=-77.681610, lat=43.087238, altitude=173.20, speed=15.20, satellites=7, angle=351.5400, fixquality=1
$GPRMC,212031.250,A,4305.2361,N,07740.8969,W,13.59,353.30,100924,,,A*40
$GPGGA,212031.500,4305.2368,N,07740.8970,W,1,07,1.17,172.6,M,-34.4,M,,*5B
lng=-77.681617, lat=43.087272, altitude=172.90, speed=13.59, satellites=7, angle=353.3000, fixquality=1
$GPRMC,212031.750,A,4305.2376,N,07740.8971,W,12.16,356.11,100924,,,A*46
$GPGGA,212032.000,4305.2383,N,07740.8971,W,1,06,1.22,172.6,M,-34.4,M,,*5E
lng=-77.681617, lat=43.087295, altitude=172.60, speed=12.16, satellites=7, angle=356.1100, fixquality=1
$GPRMC,212032.250,A,4305.2390,N,07740.8971,W,10.64,3.60,100924,,,A*4A
$GPGGA,212032.500,4305.2396,N,07740.8970,W,1,06,1.22,172.4,M,-34.4,M,,*5C
lng=-77.681617, lat=43.087314, altitude=172.60, speed=10.64, satellites=6, angle=3.6000, fixquality=1
$GPRMC,212032.750,A,4305.2402,N,07740.8969,W,9.92,7.02,100924,,,A*7B
$GPGGA,212033.000,4305.2408,N,07740.8967,W,1,06,1.22,172.3,M,-34.4,M,,*59
lng=-77.681617, lat=43.087337, altitude=172.40, speed=9.92, satellites=6, angle=7.0200, fixquality=1
$GPRMC,212033.250,A,4305.2412,N,07740.8966,W,8.86,12.44,100924,,,A*43
$GPGGA,212033.500,4305.2417,N,07740.8964,W,1,06,1.22,172.2,M,-34.4,M,,*50
lng=-77.681610, lat=43.087352, altitude=172.30, speed=8.86, satellites=6, angle=12.4400, fixquality=1
$GPRMC,212033.750,A,4305.2422,N,07740.8962,W,7.98,15.46,100924,,,A*44
$GPGGA,212034.000,4305.2427,N,07740.8959,W,1,07,1.17,171.8,M,-34.4,M,,*51
lng=-77.681602, lat=43.087368, altitude=172.20, speed=7.98, satellites=6, angle=15.4600, fixquality=1
$GPRMC,212034.250,A,4305.2433,N,07740.8957,W,7.95,19.80,100924,,,A*4B
$GPGGA,212034.500,4305.2438,N,07740.8953,W,1,07,1.17,171.6,M,-34.4,M,,*5E
lng=-77.681594, lat=43.087387, altitude=171.80, speed=7.95, satellites=7, angle=19.8000, fixquality=1
$GPRMC,212034.750,A,4305.2444,N,07740.8950,W,8.29,24.01,100924,,,A*46
$GPGGA,212035.000,4305.2450,N,07740.8944,W,1,07,1.17,171.0,M,-34.4,M,,*54
lng=-77.681587, lat=43.087409, altitude=171.60, speed=8.29, satellites=7, angle=24.0100, fixquality=1
$GPRMC,212035.250,A,4305.2457,N,07740.8937,W,9.50,35.40,100924,,,A*4B
$GPGGA,212035.500,4305.2463,N,07740.8929,W,1,07,1.17,170.5,M,-34.4,M,,*5E
lng=-77.681556, lat=43.087425, altitude=171.00, speed=9.50, satellites=7, angle=35.4000, fixquality=1
$GPRMC,212035.750,A,4305.2469,N,07740.8920,W,10.93,43.86,100924,,,A*79
$GPGGA,212036.000,4305.2475,N,07740.8909,W,1,07,1.17,169.6,M,-34.4,M,,*56
lng=-77.681533, lat=43.087451, altitude=170.50, speed=10.93, satellites=7, angle=43.8600, fixquality=1
$GPRMC,212036.250,A,4305.2479,N,07740.8898,W,12.76,57.86,100924,,,A*70
$GPGGA,212036.500,4305.2483,N,07740.8887,W,1,07,1.17,169.5,M,-34.4,M,,*5E
lng=-77.681495, lat=43.087467, altitude=169.60, speed=12.76, satellites=7, angle=57.8600, fixquality=1
$GPRMC,212036.750,A,4305.2488,N,07740.8875,W,14.18,65.18,100924,,,A*70
$GPGGA,212037.000,4305.2492,N,07740.8861,W,1,07,1.17,169.3,M,-34.4,M,,*54
lng=-77.681465, lat=43.087482, altitude=169.50, speed=14.18, satellites=7, angle=65.1800, fixquality=1
$GPRMC,212037.250,A,4305.2495,N,07740.8846,W,16.52,72.00,100924,,,A*7B
$GPGGA,212037.500,4305.2498,N,07740.8830,W,1,07,1.17,169.1,M,-34.4,M,,*5D
lng=-77.681411, lat=43.087490, altitude=169.30, speed=16.52, satellites=7, angle=72.0000, fixquality=1
$GPRMC,212037.750,A,4305.2500,N,07740.8813,W,17.56,76.34,100924,,,A*75
$GPGGA,212038.000,4305.2502,N,07740.8796,W,1,07,1.17,168.7,M,-34.4,M,,*51
lng=-77.681358, lat=43.087501, altitude=169.10, speed=17.56, satellites=7, angle=76.3400, fixquality=1
$GPRMC,212038.250,A,4305.2504,N,07740.8778,W,18.56,80.02,100924,,,A*7A
$GPGGA,212038.500,4305.2506,N,07740.8760,W,1,07,1.17,168.4,M,-34.4,M,,*5A
lng=-77.681297, lat=43.087509, altitude=168.70, speed=18.56, satellites=7, angle=80.0200, fixquality=1
$GPRMC,212038.750,A,4305.2508,N,07740.8742,W,18.89,80.65,100924,,,A*79
$GPGGA,212039.000,4305.2510,N,07740.8724,W,1,07,1.17,168.1,M,-34.4,M,,*5C
lng=-77.681236, lat=43.087516, altitude=168.40, speed=18.89, satellites=7, angle=80.6500, fixquality=1
$GPRMC,212039.250,A,4305.2511,N,07740.8705,W,19.48,81.10,100924,,,A*79
$GPGGA,212039.500,4305.2513,N,07740.8687,W,1,07,1.17,167.8,M,-34.4,M,,*54
lng=-77.681175, lat=43.087516, altitude=168.10, speed=19.48, satellites=7, angle=81.1000, fixquality=1
$GPRMC,212039.750,A,4305.2515,N,07740.8668,W,19.41,81.32,100924,,,A*7B
$GPGGA,212040.000,4305.2517,N,07740.8649,W,1,07,1.17,167.5,M,-34.4,M,,*54
lng=-77.681114, lat=43.087524, altitude=167.80, speed=19.41, satellites=7, angle=81.3200, fixquality=1
$GPRMC,212040.250,A,4305.2519,N,07740.8630,W,19.42,80.86,100924,,,A*7C
$GPGGA,212040.500,4305.2522,N,07740.8611,W,1,07,1.17,167.3,M,-34.4,M,,*5C
lng=-77.681045, lat=43.087532, altitude=167.50, speed=19.42, satellites=7, angle=80.8600, fixquality=1
$GPRMC,212040.750,A,4305.2524,N,07740.8592,W,19.80,80.06,100924,,,A*7A
$GPGGA,212041.000,4305.2527,N,07740.8573,W,1,07,1.17,166.9,M,-34.4,M,,*51
lng=-77.680992, lat=43.087539, altitude=167.30, speed=19.80, satellites=7, angle=80.0600, fixquality=1
$GPRMC,212041.250,A,4305.2529,N,07740.8554,W,20.45,78.97,100924,,,A*75
$GPGGA,212041.500,4305.2531,N,07740.8535,W,1,07,1.17,166.4,M,-34.4,M,,*5C
lng=-77.680923, lat=43.087547, altitude=166.90, speed=20.45, satellites=7, angle=78.9700, fixquality=1
$GPRMC,212041.750,A,4305.2534,N,07740.8516,W,20.40,78.61,100924,,,A*76
$GPGGA,212042.000,4305.2537,N,07740.8497,W,1,07,1.17,165.9,M,-34.4,M,,*5B
lng=-77.680862, lat=43.087558, altitude=166.40, speed=20.40, satellites=7, angle=78.6100, fixquality=1
$GPRMC,212042.250,A,4305.2539,N,07740.8478,W,19.80,78.30,100924,,,A*76
$GPGGA,212042.500,4305.2542,N,07740.8459,W,1,07,1.17,165.4,M,-34.4,M,,*53
lng=-77.680793, lat=43.087566, altitude=165.90, speed=19.80, satellites=7, angle=78.3000, fixquality=1
$GPRMC,212042.750,A,4305.2545,N,07740.8441,W,19.46,78.51,100924,,,A*7F
$GPGGA,212043.000,4305.2547,N,07740.8423,W,1,07,1.10,164.9,M,-34.4,M,,*54
lng=-77.680740, lat=43.087574, altitude=165.40, speed=19.46, satellites=7, angle=78.5100, fixquality=1
$GPRMC,212043.250,A,4305.2549,N,07740.8405,W,19.04,78.99,100924,,,A*75
$GPGGA,212043.500,4305.2552,N,07740.8387,W,1,07,1.17,164.6,M,-34.4,M,,*54
lng=-77.680671, lat=43.087581, altitude=164.90, speed=19.04, satellites=7, angle=78.9900, fixquality=1
$GPRMC,212043.750,A,4305.2555,N,07740.8369,W,18.83,79.30,100924,,,A*7C
$GPGGA,212044.000,4305.2556,N,07740.8351,W,1,07,1.10,164.3,M,-34.4,M,,*5B
lng=-77.680618, lat=43.087589, altitude=164.60, speed=18.83, satellites=7, angle=79.3000, fixquality=1
$GPRMC,212044.250,A,4305.2556,N,07740.8333,W,18.41,82.13,100924,,,A*79
$GPGGA,212044.500,4305.2557,N,07740.8315,W,1,07,1.17,163.9,M,-34.4,M,,*55
lng=-77.680557, lat=43.087589, altitude=164.30, speed=18.41, satellites=7, angle=82.1300, fixquality=1
$GPRMC,212044.750,A,4305.2558,N,07740.8297,W,18.41,83.27,100924,,,A*7B
$GPGGA,212045.000,4305.2559,N,07740.8279,W,1,07,1.10,163.5,M,-34.4,M,,*5F
lng=-77.680496, lat=43.087596, altitude=163.90, speed=18.41, satellites=7, angle=83.2700, fixquality=1
$GPRMC,212045.250,A,4305.2560,N,07740.8262,W,18.45,83.67,100924,,,A*7E
$GPGGA,212045.500,4305.2561,N,07740.8244,W,1,07,1.17,163.1,M,-34.4,M,,*5C
lng=-77.680435, lat=43.087596, altitude=163.50, speed=18.45, satellites=7, angle=83.6700, fixquality=1
$GPRMC,212045.750,A,4305.2562,N,07740.8227,W,18.22,84.63,100924,,,A*7A
$GPGGA,212046.000,4305.2562,N,07740.8210,W,1,07,1.17,162.7,M,-34.4,M,,*5F
lng=-77.680381, lat=43.087604, altitude=163.10, speed=18.22, satellites=7, angle=84.6300, fixquality=1
$GPRMC,212046.250,A,4305.2563,N,07740.8193,W,17.86,84.98,100924,,,A*74
$GPGGA,212046.500,4305.2564,N,07740.8176,W,1,07,1.17,162.4,M,-34.4,M,,*5C
lng=-77.680320, lat=43.087604, altitude=162.70, speed=17.86, satellites=7, angle=84.9800, fixquality=1
$GPRMC,212046.750,A,4305.2565,N,07740.8159,W,17.72,84.54,100924,,,A*7A
$GPGGA,212047.000,4305.2566,N,07740.8142,W,1,07,1.17,162.1,M,-34.4,M,,*58
lng=-77.680267, lat=43.087604, altitude=162.40, speed=17.72, satellites=7, angle=84.5400, fixquality=1
$GPRMC,212047.250,A,4305.2567,N,07740.8125,W,17.25,84.00,100924,,,A*74
$GPGGA,212047.500,4305.2568,N,07740.8108,W,1,07,1.17,161.8,M,-34.4,M,,*57
lng=-77.680206, lat=43.087612, altitude=162.10, speed=17.25, satellites=7, angle=84.0000, fixquality=1
$GPRMC,212047.750,A,4305.2569,N,07740.8092,W,17.21,84.27,100924,,,A*73
$GPGGA,212048.000,4305.2570,N,07740.8075,W,1,07,1.17,161.5,M,-34.4,M,,*52
lng=-77.680152, lat=43.087612, altitude=161.80, speed=17.21, satellites=7, angle=84.2700, fixquality=1
$GPRMC,212048.250,A,4305.2570,N,07740.8059,W,16.87,85.16,100924,,,A*78
$GPGGA,212048.500,4305.2571,N,07740.8043,W,1,07,1.17,161.1,M,-34.4,M,,*57
lng=-77.680091, lat=43.087612, altitude=161.50, speed=16.87, satellites=7, angle=85.1600, fixquality=1
$GPRMC,212048.750,A,4305.2572,N,07740.8027,W,16.62,84.93,100924,,,A*71
$GPGGA,212049.000,4305.2573,N,07740.8011,W,1,07,1.17,160.7,M,-34.4,M,,*51
lng=-77.680046, lat=43.087623, altitude=161.10, speed=16.62, satellites=7, angle=84.9300, fixquality=1
$GPRMC,212049.250,A,4305.2574,N,07740.7995,W,16.40,84.09,100924,,,A*7F
$GPGGA,212049.500,4305.2575,N,07740.7979,W,2,07,1.17,160.4,M,-34.4,M,0000,0000*5A
lng=-77.679985, lat=43.087623, altitude=160.70, speed=16.40, satellites=7, angle=84.0900, fixquality=1
$GPRMC,212049.750,A,4305.2576,N,07740.7964,W,16.21,83.64,100924,,,D*78
$GPGGA,212050.000,4305.2577,N,07740.7949,W,2,07,1.17,160.1,M,-34.4,M,0000,0000*53
lng=-77.679939, lat=43.087631, altitude=160.40, speed=16.21, satellites=7, angle=83.6400, fixquality=2
$GPRMC,212050.250,A,4305.2578,N,07740.7934,W,15.80,83.46,100924,,,D*76
$GPGGA,212050.500,4305.2579,N,07740.7919,W,2,07,1.17,159.8,M,-34.4,M,0000,0000*5E
lng=-77.679893, lat=43.087631, altitude=160.10, speed=15.80, satellites=7, angle=83.4600, fixquality=2
$GPRMC,212050.750,A,4305.2580,N,07740.7904,W,15.59,83.02,100924,,,D*73
$GPGGA,212051.000,4305.2581,N,07740.7889,W,2,07,1.17,159.6,M,-34.4,M,0000,0000*5B
lng=-77.679840, lat=43.087631, altitude=159.80, speed=15.59, satellites=7, angle=83.0200, fixquality=2
$GPRMC,212051.250,A,4305.2583,N,07740.7875,W,15.25,82.24,100924,,,D*7D
$GPGGA,212051.500,4305.2583,N,07740.7861,W,2,07,1.17,159.4,M,-34.4,M,0000,0000*58
lng=-77.679794, lat=43.087638, altitude=159.60, speed=15.25, satellites=7, angle=82.2400, fixquality=2
$GPRMC,212051.750,A,4305.2584,N,07740.7847,W,15.07,82.82,100924,,,D*72
$GPGGA,212052.000,4305.2585,N,07740.7833,W,2,07,1.17,159.2,M,-34.4,M,0000,0000*59
lng=-77.679740, lat=43.087638, altitude=159.40, speed=15.07, satellites=7, angle=82.8200, fixquality=2
$GPRMC,212052.250,A,4305.2586,N,07740.7819,W,14.71,83.70,100924,,,D*71
$GPGGA,212052.500,4305.2587,N,07740.7806,W,2,07,1.17,159.0,M,-34.4,M,0000,0000*5A
lng=-77.679695, lat=43.087646, altitude=159.20, speed=14.71, satellites=7, angle=83.7000, fixquality=2
$GPRMC,212052.750,A,4305.2587,N,07740.7793,W,14.46,84.51,100924,,,D*78
$GPGGA,212053.000,4305.2588,N,07740.7779,W,2,07,1.17,158.8,M,-34.4,M,0000,0000*5F
lng=-77.679656, lat=43.087646, altitude=159.00, speed=14.46, satellites=7, angle=84.5100, fixquality=2
$GPRMC,212053.250,A,4305.2589,N,07740.7766,W,14.22,85.21,100924,,,D*7C
$GPGGA,212053.500,4305.2589,N,07740.7753,W,2,07,1.17,158.6,M,-34.4,M,0000,0000*5D
lng=-77.679603, lat=43.087646, altitude=158.80, speed=14.22, satellites=7, angle=85.2100, fixquality=2
$GPRMC,212053.750,A,4305.2589,N,07740.7739,W,14.21,86.08,100924,,,D*78
$GPGGA,212054.000,4305.2589,N,07740.7727,W,2,07,1.17,158.3,M,-34.4,M,0000,0000*59
lng=-77.679565, lat=43.087646, altitude=158.60, speed=14.21, satellites=7, angle=86.0800, fixquality=2
$GPRMC,212054.250,A,4305.2589,N,07740.7714,W,13.92,87.49,100924,,,D*7E
$GPGGA,212054.500,4305.2589,N,07740.7701,W,2,07,1.17,158.1,M,-34.4,M,0000,0000*5A
lng=-77.679527, lat=43.087646, altitude=158.30, speed=13.92, satellites=7, angle=87.4900, fixquality=2
$GPRMC,212054.750,A,4305.2590,N,07740.7689,W,13.17,88.99,100924,,,D*79
$GPGGA,212055.000,4305.2590,N,07740.7678,W,2,07,1.17,158.0,M,-34.4,M,0000,0000*58
lng=-77.679481, lat=43.087646, altitude=158.10, speed=13.17, satellites=7, angle=88.9900, fixquality=2
$GPRMC,212055.250,A,4305.2590,N,07740.7668,W,11.30,89.45,100924,,,D*75
$GPGGA,212055.500,4305.2590,N,07740.7659,W,2,07,1.17,157.9,M,-34.4,M,0000,0000*58
lng=-77.679443, lat=43.087646, altitude=158.00, speed=11.30, satellites=7, angle=89.4500, fixquality=2
$GPRMC,212055.750,A,4305.2590,N,07740.7650,W,9.79,89.52,100924,,,D*49
$GPGGA,212056.000,4305.2591,N,07740.7642,W,2,07,1.17,157.7,M,-34.4,M,0000,0000*5B
lng=-77.679420, lat=43.087646, altitude=157.90, speed=9.79, satellites=7, angle=89.5200, fixquality=2
$GPRMC,212056.250,A,4305.2591,N,07740.7636,W,7.43,90.52,100924,,,D*41
$GPGGA,212056.500,4305.2591,N,07740.7631,W,2,07,1.17,157.5,M,-34.4,M,0000,0000*58
lng=-77.679397, lat=43.087654, altitude=157.70, speed=7.43, satellites=7, angle=90.5200, fixquality=2
$GPRMC,212056.750,A,4305.2592,N,07740.7625,W,5.73,90.79,100924,,,D*4D
$GPGGA,212057.000,4305.2592,N,07740.7620,W,2,07,1.17,157.2,M,-34.4,M,0000,0000*58
lng=-77.679374, lat=43.087654, altitude=157.50, speed=5.73, satellites=7, angle=90.7900, fixquality=2
$GPRMC,212057.250,A,4305.2592,N,07740.7615,W,5.06,90.02,100924,,,D*44
$GPGGA,212057.500,4305.2592,N,07740.7610,W,2,07,1.17,157.0,M,-34.4,M,0000,0000*5C
lng=-77.679359, lat=43.087654, altitude=157.20, speed=5.06, satellites=7, angle=90.0200, fixquality=2
$GPRMC,212057.750,A,4305.2592,N,07740.7605,W,5.50,88.08,100924,,,D*40
$GPGGA,212058.000,4305.2593,N,07740.7599,W,2,07,1.17,156.8,M,-34.4,M,0000,0000*5C
lng=-77.679344, lat=43.087654, altitude=157.00, speed=5.50, satellites=7, angle=88.0800, fixquality=2
$GPRMC,212058.250,A,4305.2593,N,07740.7593,W,7.18,86.97,100924,,,D*41
$GPGGA,212058.500,4305.2595,N,07740.7585,W,2,07,1.17,156.6,M,-34.4,M,0000,0000*5C
lng=-77.679321, lat=43.087654, altitude=156.80, speed=7.18, satellites=7, angle=86.9700, fixquality=2
$GPRMC,212058.750,A,4305.2597,N,07740.7578,W,8.34,79.49,100924,,,D*47
$GPGGA,212059.000,4305.2600,N,07740.7568,W,2,07,1.17,156.3,M,-34.4,M,0000,0000*51
lng=-77.679298, lat=43.087661, altitude=156.60, speed=8.34, satellites=7, angle=79.4900, fixquality=2
$GPRMC,212059.250,A,4305.2602,N,07740.7559,W,10.03,73.81,100924,,,D*7C
$GPGGA,212059.500,4305.2604,N,07740.7551,W,2,07,1.17,156.4,M,-34.4,M,0000,0000*5D
lng=-77.679267, lat=43.087669, altitude=156.30, speed=10.03, satellites=7, angle=73.8100, fixquality=2
$GPRMC,212059.750,A,4305.2607,N,07740.7541,W,10.58,70.31,100924,,,D*73
$GPGGA,212100.000,4305.2611,N,07740.7531,W,2,07,1.10,156.1,M,-34.4,M,0000,0000*55
lng=-77.679229, lat=43.087680, altitude=156.40, speed=10.58, satellites=7, angle=70.3100, fixquality=2
$GPRMC,212100.250,A,4305.2615,N,07740.7522,W,10.77,64.30,100924,,,D*74
$GPGGA,212100.500,4305.2619,N,07740.7513,W,2,07,1.10,155.9,M,-34.4,M,0000,0000*53
lng=-77.679206, lat=43.087696, altitude=156.10, speed=10.77, satellites=7, angle=64.3000, fixquality=2
$GPRMC,212100.750,A,4305.2624,N,07740.7506,W,10.32,58.63,100924,,,D*7D
$GPGGA,212101.000,4305.2631,N,07740.7499,W,2,07,1.17,155.6,M,-34.4,M,0000,0000*56
lng=-77.679176, lat=43.087703, altitude=155.90, speed=10.32, satellites=7, angle=58.6300, fixquality=2
$GPRMC,212101.250,A,4305.2640,N,07740.7494,W,10.12,41.64,100924,,,D*7C
$GPGGA,212101.500,4305.2653,N,07740.7488,W,2,07,1.17,155.2,M,-34.4,M,0000,0000*53
lng=-77.679161, lat=43.087734, altitude=155.60, speed=10.12, satellites=7, angle=41.6400, fixquality=2
$GPRMC,212101.750,A,4305.2669,N,07740.7485,W,13.62,20.90,100924,,,D*7A
$GPGGA,212102.000,4305.2680,N,07740.7481,W,2,07,1.17,155.0,M,-34.4,M,0000,0000*50
lng=-77.679145, lat=43.087783, altitude=155.20, speed=13.62, satellites=7, angle=20.9000, fixquality=2
$GPRMC,212102.250,A,4305.2692,N,07740.7479,W,14.59,8.96,100924,,,D*48
$GPGGA,212102.500,4305.2704,N,07740.7478,W,2,06,1.21,154.8,M,-34.4,M,0000,0000*53
lng=-77.679130, lat=43.087818, altitude=155.00, speed=14.59, satellites=7, angle=8.9600, fixquality=2
$GPRMC,212102.750,A,4305.2715,N,07740.7477,W,15.34,3.09,100924,,,D*4A
$GPGGA,212103.000,4305.2728,N,07740.7477,W,2,06,1.22,154.6,M,-34.4,M,0000,0000*5B
lng=-77.679122, lat=43.087856, altitude=154.80, speed=15.34, satellites=6, angle=3.0900, fixquality=2
$GPRMC,212103.250,A,4305.2741,N,07740.7477,W,16.71,358.74,100924,,,D*4A
$GPGGA,212103.500,4305.2754,N,07740.7477,W,2,06,1.22,154.3,M,-34.4,M,0000,0000*50
lng=-77.679122, lat=43.087898, altitude=154.60, speed=16.71, satellites=6, angle=358.7400, fixquality=2
$GPRMC,212103.750,A,4305.2767,N,07740.7478,W,17.51,356.87,100924,,,D*45
$GPGGA,212104.000,4305.2780,N,07740.7479,W,2,07,1.17,154.1,M,-34.4,M,0000,0000*50
lng=-77.679130, lat=43.087947, altitude=154.30, speed=17.51, satellites=6, angle=356.8700, fixquality=2
$GPRMC,212104.250,A,4305.2794,N,07740.7480,W,18.33,355.09,100924,,,D*42
$GPGGA,212104.500,4305.2807,N,07740.7482,W,2,07,1.17,153.9,M,-34.4,M,0000,0000*5E
lng=-77.679130, lat=43.087989, altitude=154.10, speed=18.33, satellites=7, angle=355.0900, fixquality=2
$GPRMC,212104.750,A,4305.2821,N,07740.7483,W,18.87,354.61,100924,,,D*45
$GPGGA,212105.000,4305.2835,N,07740.7485,W,2,07,1.17,153.6,M,-34.4,M,0000,0000*53
lng=-77.679145, lat=43.088035, altitude=153.90, speed=18.87, satellites=7, angle=354.6100, fixquality=2
$GPRMC,212105.250,A,4305.2848,N,07740.7486,W,19.31,355.78,100924,,,D*4E
$GPGGA,212105.500,4305.2862,N,07740.7487,W,2,07,1.17,153.4,M,-34.4,M,0000,0000*54
lng=-77.679145, lat=43.088077, altitude=153.60, speed=19.31, satellites=7, angle=355.7800, fixquality=2
$GPRMC,212105.750,A,4305.2876,N,07740.7488,W,19.60,357.21,100924,,,D*42
$GPGGA,212106.000,4305.2890,N,07740.7488,W,2,07,1.17,153.3,M,-34.4,M,0000,0000*57
lng=-77.679153, lat=43.088127, altitude=153.40, speed=19.60, satellites=7, angle=357.2100, fixquality=2
$GPRMC,212106.250,A,4305.2905,N,07740.7488,W,20.10,359.35,100924,,,D*47
$GPGGA,212106.500,4305.2920,N,07740.7488,W,2,07,1.17,153.1,M,-34.4,M,0000,0000*5A
lng=-77.679153, lat=43.088176, altitude=153.30, speed=20.10, satellites=7, angle=359.3500, fixquality=2
$GPRMC,212106.750,A,4305.2935,N,07740.7488,W,20.54,0.06,100924,,,D*4E
$GPGGA,212107.000,4305.2949,N,07740.7488,W,2,07,1.17,152.9,M,-34.4,M,0000,0000*58
lng=-77.679153, lat=43.088222, altitude=153.10, speed=20.54, satellites=7, angle=0.0600, fixquality=2
$GPRMC,212107.250,A,4305.2964,N,07740.7488,W,20.76,0.64,100924,,,D*4A
$GPGGA,212107.500,4305.2979,N,07740.7488,W,2,07,1.17,152.7,M,-34.4,M,0000,0000*50
lng=-77.679153, lat=43.088272, altitude=152.90, speed=20.76, satellites=7, angle=0.6400, fixquality=2
$GPRMC,212107.750,A,4305.2994,N,07740.7489,W,21.01,0.48,100924,,,D*4E
$GPGGA,212108.000,4305.3008,N,07740.7489,W,2,07,1.17,152.5,M,-34.4,M,0000,0000*57
lng=-77.679153, lat=43.088321, altitude=152.70, speed=21.01, satellites=7, angle=0.4800, fixquality=2
$GPRMC,212108.250,A,4305.3023,N,07740.7490,W,21.07,359.93,100924,,,D*47
$GPGGA,212108.500,4305.3038,N,07740.7490,W,2,07,1.17,152.4,M,-34.4,M,0000,0000*58
lng=-77.679153, lat=43.088371, altitude=152.50, speed=21.07, satellites=7, angle=359.9300, fixquality=2
$GPRMC,212108.750,A,4305.3052,N,07740.7491,W,21.12,359.14,100924,,,D*4E
$GPGGA,212109.000,4305.3067,N,07740.7492,W,2,07,1.17,152.2,M,-34.4,M,0000,0000*52
lng=-77.679153, lat=43.088420, altitude=152.40, speed=21.12, satellites=7, angle=359.1400, fixquality=2
$GPRMC,212109.250,A,4305.3082,N,07740.7493,W,21.18,358.58,100924,,,D*46
$GPGGA,212109.500,4305.3097,N,07740.7494,W,2,07,1.17,152.1,M,-34.4,M,0000,0000*5D
lng=-77.679161, lat=43.088466, altitude=152.20, speed=21.18, satellites=7, angle=358.5800, fixquality=2
$GPRMC,212109.750,A,4305.3111,N,07740.7494,W,21.12,358.63,100924,,,D*4D
$GPGGA,212110.000,4305.3125,N,07740.7495,W,2,07,1.17,152.0,M,-34.4,M,0000,0000*58
lng=-77.679161, lat=43.088516, altitude=152.10, speed=21.12, satellites=7, angle=358.6300, fixquality=2
$GPRMC,212110.250,A,4305.3139,N,07740.7496,W,20.68,358.78,100924,,,D*4E
$GPGGA,212110.500,4305.3153,N,07740.7497,W,2,07,1.17,152.0,M,-34.4,M,0000,0000*5E
lng=-77.679161, lat=43.088565, altitude=152.00, speed=20.68, satellites=7, angle=358.7800, fixquality=2
$GPRMC,212110.750,A,4305.3166,N,07740.7498,W,20.42,358.90,100924,,,D*41
$GPGGA,212111.000,4305.3180,N,07740.7499,W,2,07,1.17,152.0,M,-34.4,M,0000,0000*5A
lng=-77.679168, lat=43.088607, altitude=152.00, speed=20.42, satellites=7, angle=358.9000, fixquality=2
$GPRMC,212111.250,A,4305.3194,N,07740.7500,W,20.11,359.26,100924,,,D*42
$GPGGA,212111.500,4305.3207,N,07740.7501,W,2,07,1.17,152.0,M,-34.4,M,0000,0000*53
lng=-77.679168, lat=43.088657, altitude=152.00, speed=20.11, satellites=7, angle=359.2600, fixquality=2
$GPRMC,212111.750,A,4305.3221,N,07740.7501,W,19.87,359.98,100924,,,D*4B
$GPGGA,212112.000,4305.3234,N,07740.7501,W,2,07,1.17,152.0,M,-34.4,M,0000,0000*55
lng=-77.679168, lat=43.088703, altitude=152.00, speed=19.87, satellites=7, angle=359.9800, fixquality=2
$GPRMC,212112.250,A,4305.3247,N,07740.7501,W,19.53,2.44,100924,,,D*48
$GPGGA,212112.500,4305.3261,N,07740.7501,W,2,07,1.17,152.2,M,-34.4,M,0000,0000*52
lng=-77.679168, lat=43.088745, altitude=152.00, speed=19.53, satellites=7, angle=2.4400, fixquality=2
$GPRMC,212112.750,A,4305.3275,N,07740.7501,W,19.51,3.54,100924,,,D*4E
$GPGGA,212113.000,4305.3287,N,07740.7501,W,2,07,1.17,152.3,M,-34.4,M,0000,0000*5F
lng=-77.679168, lat=43.088794, altitude=152.20, speed=19.51, satellites=7, angle=3.5400, fixquality=2
$GPRMC,212113.250,A,4305.3300,N,07740.7501,W,18.98,4.64,100924,,,D*49
$GPGGA,212113.500,4305.3312,N,07740.7501,W,2,07,1.17,152.5,M,-34.4,M,0000,0000*51
lng=-77.679168, lat=43.088832, altitude=152.30, speed=18.98, satellites=7, angle=4.6400, fixquality=2
$GPRMC,212113.750,A,4305.3325,N,07740.7499,W,18.61,6.78,100924,,,D*42
$GPGGA,212114.000,4305.3337,N,07740.7498,W,2,06,1.22,152.6,M,-34.4,M,0000,0000*51
lng=-77.679168, lat=43.088874, altitude=152.50, speed=18.61, satellites=7, angle=6.7800, fixquality=2
$GPRMC,212114.250,A,4305.3348,N,07740.7496,W,17.86,9.13,100924,,,D*40
$GPGGA,212114.500,4305.3358,N,07740.7495,W,2,06,1.22,152.7,M,-34.4,M,0000,0000*51
lng=-77.679161, lat=43.088916, altitude=152.60, speed=17.86, satellites=6, angle=9.1300, fixquality=2
$GPRMC,212114.750,A,4305.3363,N,07740.7498,W,15.39,8.95,100924,,,D*4B
$GPGGA,212115.000,4305.3370,N,07740.7497,W,2,06,1.22,153.1,M,-34.4,M,0000,0000*5A
lng=-77.679168, lat=43.088939, altitude=152.70, speed=15.39, satellites=6, angle=8.9500, fixquality=2
$GPRMC,212115.250,A,4305.3377,N,07740.7495,W,13.62,12.68,100924,,,D*76
$GPGGA,212115.500,4305.3385,N,07740.7491,W,2,07,1.17,153.0,M,-34.4,M,0000,0000*55
lng=-77.679161, lat=43.088966, altitude=153.10, speed=13.62, satellites=6, angle=12.6800, fixquality=2
$GPRMC,212115.750,A,4305.3393,N,07740.7487,W,12.97,20.51,100924,,,D*7A
$GPGGA,212116.000,4305.3400,N,07740.7482,W,2,07,1.10,153.0,M,-34.4,M,0000,0000*5C
lng=-77.679145, lat=43.088989, altitude=153.00, speed=12.97, satellites=7, angle=20.5100, fixquality=2
$GPRMC,212116.250,A,4305.3407,N,07740.7477,W,12.75,30.59,100924,,,D*7C
$GPGGA,212116.500,4305.3413,N,07740.7470,W,2,06,1.21,153.0,M,-34.4,M,0000,0000*55
lng=-77.679122, lat=43.089012, altitude=153.00, speed=12.75, satellites=7, angle=30.5900, fixquality=2
$GPRMC,212116.750,A,4305.3418,N,07740.7462,W,12.50,40.22,100924,,,D*7F
$GPGGA,212117.000,4305.3421,N,07740.7453,W,2,07,1.17,153.0,M,-34.4,M,0000,0000*55
lng=-77.679100, lat=43.089031, altitude=153.00, speed=12.50, satellites=6, angle=40.2200, fixquality=2
$GPRMC,212117.250,A,4305.3422,N,07740.7444,W,12.25,58.06,100924,,,D*7B
$GPGGA,212117.500,4305.3426,N,07740.7433,W,2,07,1.17,153.0,M,-34.4,M,0000,0000*51
lng=-77.679077, lat=43.089038, altitude=153.00, speed=12.25, satellites=7, angle=58.0600, fixquality=2
$GPRMC,212117.750,A,4305.3429,N,07740.7421,W,12.78,66.28,100924,,,D*7F
$GPGGA,212118.000,4305.3432,N,07740.7410,W,2,07,1.10,153.0,M,-34.4,M,0000,0000*58
lng=-77.679039, lat=43.089046, altitude=153.00, speed=12.78, satellites=7, angle=66.2800, fixquality=2
$GPRMC,212118.250,A,4305.3435,N,07740.7398,W,13.04,69.46,100924,,,D*70
$GPGGA,212118.500,4305.3438,N,07740.7385,W,2,07,1.17,152.9,M,-34.4,M,0000,0000*53
lng=-77.678993, lat=43.089054, altitude=153.00, speed=13.04, satellites=7, angle=69.4600, fixquality=2
$GPRMC,212118.750,A,4305.3440,N,07740.7372,W,13.26,72.48,100924,,,D*77
$GPGGA,212119.000,4305.3443,N,07740.7359,W,2,07,1.10,153.0,M,-34.4,M,0000,0000*55
lng=-77.678955, lat=43.089069, altitude=152.90, speed=13.26, satellites=7, angle=72.4800, fixquality=2
$GPRMC,212119.250,A,4305.3445,N,07740.7345,W,14.12,76.09,100924,,,D*73
$GPGGA,212119.500,4305.3446,N,07740.7331,W,2,07,1.17,152.9,M,-34.4,M,0000,0000*54
lng=-77.678909, lat=43.089076, altitude=153.00, speed=14.12, satellites=7, angle=76.0900, fixquality=2
$GPRMC,212119.750,A,4305.3448,N,07740.7316,W,14.57,79.33,100924,,,D*7A
$GPGGA,212120.000,4305.3449,N,07740.7301,W,2,07,1.10,152.8,M,-34.4,M,0000,0000*51
lng=-77.678855, lat=43.089076, altitude=152.90, speed=14.57, satellites=7, angle=79.3300, fixquality=2
$GPRMC,212120.250,A,4305.3449,N,07740.7285,W,15.60,83.28,100924,,,D*75
$GPGGA,212120.500,4305.3451,N,07740.7269,W,2,07,1.17,152.8,M,-34.4,M,0000,0000*55
lng=-77.678810, lat=43.089076, altitude=152.80, speed=15.60, satellites=7, angle=83.2800, fixquality=2
$GPRMC,212120.750,A,4305.3452,N,07740.7251,W,16.81,85.11,100924,,,D*73
$GPGGA,212121.000,4305.3453,N,07740.7232,W,2,07,1.17,152.8,M,-34.4,M,0000,0000*5D
lng=-77.678749, lat=43.089088, altitude=152.80, speed=16.81, satellites=7, angle=85.1100, fixquality=2
$GPRMC,212121.250,A,4305.3455,N,07740.7214,W,18.30,85.94,100924,,,D*78
$GPGGA,212121.500,4305.3456,N,07740.7195,W,2,07,1.17,152.7,M,-34.4,M,0000,0000*5C
lng=-77.678688, lat=43.089096, altitude=152.80, speed=18.30, satellites=7, angle=85.9400, fixquality=2
$GPRMC,212121.750,A,4305.3456,N,07740.7176,W,18.87,86.93,100924,,,D*71
$GPGGA,212122.000,4305.3457,N,07740.7157,W,2,07,1.17,152.5,M,-34.4,M,0000,0000*57
lng=-77.678627, lat=43.089096, altitude=152.70, speed=18.87, satellites=7, angle=86.9300, fixquality=2
$GPRMC,212122.250,A,4305.3457,N,07740.7137,W,19.82,87.97,100924,,,D*72
$GPGGA,212122.500,4305.3457,N,07740.7116,W,2,07,1.17,152.3,M,-34.4,M,0000,0000*51
lng=-77.678565, lat=43.089096, altitude=152.50, speed=19.82, satellites=7, angle=87.9700, fixquality=2
$GPRMC,212122.750,A,4305.3458,N,07740.7095,W,20.83,88.20,100924,,,D*79
$GPGGA,212123.000,4305.3458,N,07740.7074,W,2,07,1.17,152.1,M,-34.4,M,0000,0000*5D
lng=-77.678489, lat=43.089096, altitude=152.30, speed=20.83, satellites=7, angle=88.2000, fixquality=2
$GPRMC,212123.250,A,4305.3459,N,07740.7053,W,21.94,88.02,100924,,,D*71
$GPGGA,212123.500,4305.3460,N,07740.7030,W,2,07,1.17,151.9,M,-34.4,M,0000,0000*58
lng=-77.678421, lat=43.089096, altitude=152.10, speed=21.94, satellites=7, angle=88.0200, fixquality=2
$GPRMC,212123.750,A,4305.3461,N,07740.7007,W,22.53,87.32,100924,,,D*7A
$GPGGA,212124.000,4305.3463,N,07740.6984,W,2,07,1.17,151.7,M,-34.4,M,0000,0000*50
lng=-77.678344, lat=43.089103, altitude=151.90, speed=22.53, satellites=7, angle=87.3200, fixquality=2
$GPRMC,212124.250,A,4305.3465,N,07740.6960,W,23.46,86.19,100924,,,D*78
$GPGGA,212124.500,4305.3466,N,07740.6936,W,2,07,1.17,151.5,M,-34.4,M,0000,0000*5B
lng=-77.678260, lat=43.089111, altitude=151.70, speed=23.46, satellites=7, angle=86.1900, fixquality=2
$GPRMC,212124.750,A,4305.3467,N,07740.6913,W,24.05,86.01,100924,,,D*72
$GPGGA,212125.000,4305.3468,N,07740.6889,W,2,07,1.17,151.4,M,-34.4,M,0000,0000*55
lng=-77.678192, lat=43.089111, altitude=151.50, speed=24.05, satellites=7, angle=86.0100, fixquality=2
$GPRMC,212125.250,A,4305.3470,N,07740.6864,W,24.71,85.84,100924,,,D*7C
$GPGGA,212125.500,4305.3471,N,07740.6839,W,2,07,1.17,151.3,M,-34.4,M,0000,0000*54
lng=-77.678108, lat=43.089118, altitude=151.40, speed=24.71, satellites=7, angle=85.8400, fixquality=2
$GPRMC,212125.750,A,4305.3473,N,07740.6814,W,25.15,86.12,100924,,,D*72
$GPGGA,212126.000,4305.3474,N,07740.6789,W,2,07,1.17,151.2,M,-34.4,M,0000,0000*52
lng=-77.678024, lat=43.089118, altitude=151.30, speed=25.15, satellites=7, angle=86.1200, fixquality=2
$GPRMC,212126.250,A,4305.3476,N,07740.6764,W,25.65,86.33,100924,,,D*7D
$GPGGA,212126.500,4305.3477,N,07740.6739,W,2,07,1.17,151.1,M,-34.4,M,0000,0000*5C
lng=-77.677940, lat=43.089126, altitude=151.20, speed=25.65, satellites=7, angle=86.3300, fixquality=2
$GPRMC,212126.750,A,4305.3479,N,07740.6713,W,26.01,85.91,100924,,,D*7D
$GPGGA,212127.000,4305.3480,N,07740.6688,W,2,07,1.17,151.0,M,-34.4,M,0000,0000*5A
lng=-77.677856, lat=43.089126, altitude=151.10, speed=26.01, satellites=7, angle=85.9100, fixquality=2
$GPRMC,212127.250,A,4305.3481,N,07740.6662,W,26.54,86.08,100924,,,D*7A
$GPGGA,212127.500,4305.3482,N,07740.6636,W,2,07,1.17,150.9,M,-34.4,M,0000,0000*50
lng=-77.677764, lat=43.089134, altitude=151.00, speed=26.54, satellites=7, angle=86.0800, fixquality=2
$GPRMC,212127.750,A,4305.3483,N,07740.6610,W,26.77,86.66,100924,,,D*71
$GPGGA,212128.000,4305.3484,N,07740.6584,W,2,07,1.17,150.9,M,-34.4,M,0000,0000*56
lng=-77.677688, lat=43.089134, altitude=150.90, speed=26.77, satellites=7, angle=86.6600, fixquality=2
$GPRMC,212128.250,A,4305.3485,N,07740.6558,W,27.03,86.68,100924,,,D*7E
$GPGGA,212128.500,4305.3486,N,07740.6532,W,2,07,1.17,150.9,M,-34.4,M,0000,0000*5C
lng=-77.677597, lat=43.089145, altitude=150.90, speed=27.03, satellites=7, angle=86.6800, fixquality=2
$GPRMC,212128.750,A,4305.3488,N,07740.6505,W,27.17,86.62,100924,,,D*71
$GPGGA,212129.000,4305.3489,N,07740.6479,W,2,07,1.17,150.9,M,-34.4,M,0000,0000*59
lng=-77.677505, lat=43.089145, altitude=150.90, speed=27.17, satellites=7, angle=86.6200, fixquality=2
$GPRMC,212129.250,A,4305.3491,N,07740.6452,W,27.44,86.49,100924,,,D*71
$GPGGA,212129.500,4305.3492,N,07740.6425,W,2,07,1.17,150.8,M,-34.4,M,0000,0000*5E
lng=-77.677413, lat=43.089153, altitude=150.90, speed=27.44, satellites=7, angle=86.4900, fixquality=2
$GPRMC,212129.750,A,4305.3493,N,07740.6398,W,27.82,86.49,100924,,,D*7D
$GPGGA,212130.000,4305.3494,N,07740.6371,W,2,07,1.17,150.8,M,-34.4,M,0000,0000*53
lng=-77.677330, lat=43.089153, altitude=150.80, speed=27.82, satellites=7, angle=86.4900, fixquality=2
$GPRMC,212130.250,A,4305.3496,N,07740.6344,W,27.93,86.45,100924,,,D*78
$GPGGA,212130.500,4305.3496,N,07740.6318,W,2,07,1.17,150.8,M,-34.4,M,0000,0000*5B
lng=-77.677238, lat=43.089160, altitude=150.80, speed=27.93, satellites=7, angle=86.4500, fixquality=2
$GPRMC,212130.750,A,4305.3497,N,07740.6291,W,28.10,86.44,100924,,,D*70
$GPGGA,212131.000,4305.3498,N,07740.6264,W,2,07,1.17,150.8,M,-34.4,M,0000,0000*5B
lng=-77.677146, lat=43.089160, altitude=150.80, speed=28.10, satellites=7, angle=86.4400, fixquality=2
$GPRMC,212131.250,A,4305.3500,N,07740.6237,W,28.37,86.29,100924,,,D*79
$GPGGA,212131.500,4305.3501,N,07740.6209,W,2,07,1.17,150.8,M,-34.4,M,0000,0000*54
lng=-77.677055, lat=43.089168, altitude=150.80, speed=28.37, satellites=7, angle=86.2900, fixquality=2
$GPRMC,212131.750,A,4305.3502,N,07740.6182,W,28.45,86.41,100924,,,D*78
$GPGGA,212132.000,4305.3503,N,07740.6155,W,2,07,1.17,150.8,M,-34.4,M,0000,0000*5A
lng=-77.676971, lat=43.089168, altitude=150.80, speed=28.45, satellites=7, angle=86.4100, fixquality=2
$GPRMC,212132.250,A,4305.3504,N,07740.6127,W,29.07,86.38,100924,,,D*7E
$GPGGA,212132.500,4305.3506,N,07740.6099,W,2,07,1.17,150.9,M,-34.4,M,0000,0000*5A
lng=-77.676879, lat=43.089176, altitude=150.80, speed=29.07, satellites=7, angle=86.3800, fixquality=2
$GPRMC,212132.750,A,4305.3508,N,07740.6071,W,29.24,85.70,100924,,,D*7B
$GPGGA,212133.000,4305.3509,N,07740.6043,W,2,07,1.17,150.9,M,-34.4,M,0000,0000*56
lng=-77.676780, lat=43.089176, altitude=150.90, speed=29.24, satellites=7, angle=85.7000, fixquality=2
$GPRMC,212133.250,A,4305.3511,N,07740.6015,W,29.27,85.92,100924,,,D*7A
$GPGGA,212133.500,4305.3513,N,07740.5987,W,2,07,1.17,151.0,M,-34.4,M,0000,0000*52
lng=-77.676689, lat=43.089183, altitude=150.90, speed=29.27, satellites=7, angle=85.9200, fixquality=2
$GPRMC,212133.750,A,4305.3514,N,07740.5958,W,29.36,86.03,100924,,,D*72
$GPGGA,212134.000,4305.3516,N,07740.5930,W,2,07,1.17,151.0,M,-34.4,M,0000,0000*59
lng=-77.676597, lat=43.089191, altitude=151.00, speed=29.36, satellites=7, angle=86.0300, fixquality=2
$GPRMC,212134.250,A,4305.3519,N,07740.5902,W,29.40,85.98,100924,,,D*72
$GPGGA,212134.500,4305.3520,N,07740.5874,W,2,07,1.17,151.0,M,-34.4,M,0000,0000*58
lng=-77.676506, lat=43.089199, altitude=151.00, speed=29.40, satellites=7, angle=85.9800, fixquality=2
$GPRMC,212134.750,A,4305.3523,N,07740.5845,W,28.97,86.38,100924,,,D*7E
$GPGGA,212135.000,4305.3525,N,07740.5817,W,2,07,1.17,151.1,M,-34.4,M,0000,0000*5D
lng=-77.676406, lat=43.089210, altitude=151.00, speed=28.97, satellites=7, angle=86.3800, fixquality=2
$GPRMC,212135.250,A,4305.3527,N,07740.5790,W,28.61,85.88,100924,,,D*78
$GPGGA,212135.500,4305.3530,N,07740.5762,W,2,07,1.17,151.2,M,-34.4,M,0000,0000*52
lng=-77.676315, lat=43.089210, altitude=151.10, speed=28.61, satellites=7, angle=85.8800, fixquality=2
$GPRMC,212135.750,A,4305.3532,N,07740.5735,W,28.50,85.72,100924,,,D*71
$GPGGA,212136.000,4305.3533,N,07740.5708,W,2,07,1.17,151.2,M,-34.4,M,0000,0000*5B
lng=-77.676231, lat=43.089218, altitude=151.20, speed=28.50, satellites=7, angle=85.7200, fixquality=2
$GPRMC,212136.250,A,4305.3534,N,07740.5682,W,28.06,85.81,100924,,,D*73
$GPGGA,212136.500,4305.3536,N,07740.5655,W,2,07,1.17,151.2,M,-34.4,M,0000,0000*52
lng=-77.676139, lat=43.089225, altitude=151.20, speed=28.06, satellites=7, angle=85.8100, fixquality=2
$GPRMC,212136.750,A,4305.3538,N,07740.5629,W,27.72,85.92,100924,,,D*75
$GPGGA,212137.000,4305.3539,N,07740.5602,W,2,07,1.17,151.2,M,-34.4,M,0000,0000*5B
lng=-77.676048, lat=43.089233, altitude=151.20, speed=27.72, satellites=7, angle=85.9200, fixquality=2
$GPRMC,212137.250,A,4305.3540,N,07740.5576,W,27.25,85.68,100924,,,D*70
$GPGGA,212137.500,4305.3541,N,07740.5551,W,2,07,1.17,151.2,M,-34.4,M,0000,0000*54
lng=-77.675956, lat=43.089233, altitude=151.20, speed=27.25, satellites=7, angle=85.6800, fixquality=2
$GPRMC,212137.750,A,4305.3542,N,07740.5525,W,27.05,85.39,100924,,,D*77
$GPGGA,212138.000,4305.3544,N,07740.5500,W,2,07,1.17,151.3,M,-34.4,M,0000,0000*5E
lng=-77.675880, lat=43.089233, altitude=151.20, speed=27.05, satellites=7, angle=85.3900, fixquality=2
$GPRMC,212138.250,A,4305.3545,N,07740.5477,W,24.98,85.14,100924,,,D*74
$GPGGA,212138.500,4305.3546,N,07740.5455,W,2,07,1.17,151.4,M,-34.4,M,0000,0000*5F
lng=-77.675796, lat=43.089241, altitude=151.30, speed=24.98, satellites=7, angle=85.1400, fixquality=2
$GPRMC,212138.750,A,4305.3548,N,07740.5433,W,23.49,84.71,100924,,,D*75
$GPGGA,212139.000,4305.3548,N,07740.5412,W,2,07,1.17,151.5,M,-34.4,M,0000,0000*57
lng=-77.675727, lat=43.089248, altitude=151.40, speed=23.49, satellites=7, angle=84.7100, fixquality=2
$GPRMC,212139.250,A,4305.3549,N,07740.5392,W,21.29,86.28,100924,,,D*76
$GPGGA,212139.500,4305.3550,N,07740.5373,W,2,07,1.17,151.5,M,-34.4,M,0000,0000*5B
lng=-77.675651, lat=43.089248, altitude=151.50, speed=21.29, satellites=7, angle=86.2800, fixquality=2
$GPRMC,212139.750,A,4305.3550,N,07740.5354,W,19.96,87.73,100924,,,D*71
$GPGGA,212140.000,4305.3551,N,07740.5336,W,2,07,1.17,151.5,M,-34.4,M,0000,0000*50
lng=-77.675582, lat=43.089248, altitude=151.50, speed=19.96, satellites=7, angle=87.7300, fixquality=2
$GPRMC,212140.250,A,4305.3551,N,07740.5321,W,17.84,90.27,100924,,,D*73
$GPGGA,212140.500,4305.3550,N,07740.5305,W,2,07,1.17,151.6,M,-34.4,M,0000,0000*57
lng=-77.675537, lat=43.089248, altitude=151.50, speed=17.84, satellites=7, angle=90.2700, fixquality=2
$GPRMC,212140.750,A,4305.3550,N,07740.5290,W,16.89,90.72,100924,,,D*70
$GPGGA,212141.000,4305.3549,N,07740.5275,W,2,07,1.17,151.8,M,-34.4,M,0000,0000*53
lng=-77.675483, lat=43.089248, altitude=151.60, speed=16.89, satellites=7, angle=90.7200, fixquality=2
$GPRMC,212141.250,A,4305.3547,N,07740.5262,W,15.80,94.62,100924,,,D*70
$GPGGA,212141.500,4305.3545,N,07740.5249,W,2,07,1.17,152.1,M,-34.4,M,0000,0000*5F
lng=-77.675437, lat=43.089241, altitude=151.80, speed=15.80, satellites=7, angle=94.6200, fixquality=2
$GPRMC,212141.750,A,4305.3536,N,07740.5235,W,15.53,109.75,100924,,,D*4C
$GPGGA,212142.000,4305.3530,N,07740.5222,W,2,07,1.17,152.0,M,-34.4,M,0000,0000*57
lng=-77.675392, lat=43.089225, altitude=152.10, speed=15.53, satellites=7, angle=109.7500, fixquality=2
$GPRMC,212142.250,A,4305.3524,N,07740.5210,W,15.42,116.93,100924,,,D*48
$GPGGA,212142.500,4305.3517,N,07740.5198,W,2,07,1.17,152.2,M,-34.4,M,0000,0000*57
lng=-77.675346, lat=43.089210, altitude=152.00, speed=15.42, satellites=7, angle=116.9300, fixquality=2
$GPRMC,212142.750,A,4305.3511,N,07740.5186,W,15.31,124.11,100924,,,D*48
$GPGGA,212143.000,4305.3503,N,07740.5176,W,2,07,1.17,152.4,M,-34.4,M,0000,0000*50
lng=-77.675308, lat=43.089183, altitude=152.20, speed=15.31, satellites=7, angle=124.1100, fixquality=2
$GPRMC,212143.250,A,4305.3494,N,07740.5165,W,15.25,131.01,100924,,,D*4D
$GPGGA,212143.500,4305.3486,N,07740.5155,W,2,07,1.17,152.8,M,-34.4,M,0000,0000*54
lng=-77.675277, lat=43.089160, altitude=152.40, speed=15.25, satellites=7, angle=131.0100, fixquality=2
$GPRMC,212143.750,A,4305.3477,N,07740.5146,W,15.37,136.27,100924,,,D*44
$GPGGA,212144.000,4305.3467,N,07740.5140,W,2,07,1.17,153.1,M,-34.4,M,0000,0000*55
lng=-77.675247, lat=43.089126, altitude=152.80, speed=15.37, satellites=7, angle=136.2700, fixquality=2
$GPRMC,212144.250,A,4305.3455,N,07740.5135,W,15.55,149.79,100924,,,D*45
$GPGGA,212144.500,4305.3441,N,07740.5131,W,2,07,1.17,153.7,M,-34.4,M,0000,0000*54
lng=-77.675224, lat=43.089096, altitude=153.10, speed=15.55, satellites=7, angle=149.7900, fixquality=2
$GPRMC,212144.750,A,4305.3428,N,07740.5127,W,17.12,160.51,100924,,,D*49
$GPGGA,212145.000,4305.3416,N,07740.5123,W,2,07,1.17,154.2,M,-34.4,M,0000,0000*53
lng=-77.675209, lat=43.089046, altitude=153.70, speed=17.12, satellites=7, angle=160.5100, fixquality=2
$GPRMC,212145.250,A,4305.3402,N,07740.5121,W,18.05,168.49,100924,,,D*4B
$GPGGA,212145.500,4305.3389,N,07740.5119,W,2,07,1.17,154.7,M,-34.4,M,0000,0000*5B
lng=-77.675201, lat=43.089004, altitude=154.20, speed=18.05, satellites=7, angle=168.4900, fixquality=2
$GPRMC,212145.750,A,4305.3376,N,07740.5118,W,18.79,173.32,100924,,,D*4D
$GPGGA,212146.000,4305.3362,N,07740.5117,W,2,07,1.17,155.2,M,-34.4,M,0000,0000*52
lng=-77.675193, lat=43.088954, altitude=154.70, speed=18.79, satellites=7, angle=173.3200, fixquality=2
$GPRMC,212146.250,A,4305.3348,N,07740.5118,W,19.50,179.07,100924,,,D*40
$GPGGA,212146.500,4305.3333,N,07740.5119,W,2,07,1.17,155.7,M,-34.4,M,0000,0000*58
lng=-77.675193, lat=43.088916, altitude=155.20, speed=19.50, satellites=7, angle=179.0700, fixquality=2
$GPRMC,212146.750,A,4305.3319,N,07740.5120,W,20.14,180.05,100924,,,D*44
$GPGGA,212147.000,4305.3304,N,07740.5120,W,2,07,1.17,156.2,M,-34.4,M,0000,0000*54
lng=-77.675201, lat=43.088867, altitude=155.70, speed=20.14, satellites=7, angle=180.0500, fixquality=2
$GPRMC,212147.250,A,4305.3288,N,07740.5120,W,20.94,179.73,100924,,,D*46
$GPGGA,212147.500,4305.3273,N,07740.5120,W,2,07,1.17,156.6,M,-34.4,M,0000,0000*54
lng=-77.675201, lat=43.088809, altitude=156.20, speed=20.94, satellites=7, angle=179.7300, fixquality=2
$GPRMC,212147.750,A,4305.3258,N,07740.5119,W,21.26,178.00,100924,,,D*49
$GPGGA,212148.000,4305.3243,N,07740.5118,W,2,07,1.17,156.9,M,-34.4,M,0000,0000*59
lng=-77.675193, lat=43.088760, altitude=156.60, speed=21.26, satellites=7, angle=178.0000, fixquality=2
$GPRMC,212148.250,A,4305.3227,N,07740.5115,W,21.58,172.46,100924,,,D*46
$GPGGA,212148.500,4305.3211,N,07740.5111,W,2,07,1.17,157.1,M,-34.4,M,0000,0000*5B
lng=-77.675193, lat=43.088710, altitude=156.90, speed=21.58, satellites=7, angle=172.4600, fixquality=2
$GPRMC,212148.750,A,4305.3196,N,07740.5106,W,22.00,168.50,100924,,,D*4A
$GPGGA,212149.000,4305.3180,N,07740.5101,W,2,07,1.17,157.4,M,-34.4,M,0000,0000*50
lng=-77.675178, lat=43.088665, altitude=157.10, speed=22.00, satellites=7, angle=168.5000, fixquality=2
$GPRMC,212149.250,A,4305.3165,N,07740.5095,W,22.15,163.43,100924,,,D*44
$GPGGA,212149.500,4305.3150,N,07740.5090,W,2,07,1.17,157.6,M,-34.4,M,0000,0000*53
lng=-77.675155, lat=43.088607, altitude=157.40, speed=22.15, satellites=7, angle=163.4300, fixquality=2
$GPRMC,212149.750,A,4305.3135,N,07740.5083,W,22.23,161.62,100924,,,D*47
$GPGGA,212150.000,4305.3120,N,07740.5076,W,2,07,1.17,157.7,M,-34.4,M,0000,0000*50
lng=-77.675140, lat=43.088558, altitude=157.60, speed=22.23, satellites=7, angle=161.6200, fixquality=2
$GPRMC,212150.250,A,4305.3105,N,07740.5068,W,22.35,157.88,100924,,,D*4A
$GPGGA,212150.500,4305.3091,N,07740.5059,W,2,07,1.17,157.8,M,-34.4,M,0000,0000*5C
lng=-77.675117, lat=43.088508, altitude=157.70, speed=22.35, satellites=7, angle=157.8800, fixquality=2
$GPRMC,212150.750,A,4305.3077,N,07740.5050,W,22.55,154.96,100924,,,D*4A
$GPGGA,212151.000,4305.3063,N,07740.5039,W,2,07,1.17,157.9,M,-34.4,M,0000,0000*52
lng=-77.675079, lat=43.088459, altitude=157.80, speed=22.55, satellites=7, angle=154.9600, fixquality=2
$GPRMC,212151.250,A,4305.3050,N,07740.5027,W,22.44,149.66,100924,,,D*48
$GPGGA,212151.500,4305.3038,N,07740.5015,W,2,07,1.17,158.1,M,-34.4,M,0000,0000*50
lng=-77.675048, lat=43.088420, altitude=157.90, speed=22.44, satellites=7, angle=149.6600, fixquality=2
$GPRMC,212151.750,A,4305.3027,N,07740.5001,W,22.24,142.52,100924,,,D*43
$GPGGA,212152.000,4305.3015,N,07740.4987,W,2,07,1.17,158.2,M,-34.4,M,0000,0000*59
lng=-77.675003, lat=43.088378, altitude=158.10, speed=22.24, satellites=7, angle=142.5200, fixquality=2
$GPRMC,212152.250,A,4305.3005,N,07740.4973,W,21.94,135.97,100924,,,D*49
$GPGGA,212152.500,4305.2996,N,07740.4958,W,2,07,1.17,158.4,M,-34.4,M,0000,0000*5B
lng=-77.674949, lat=43.088336, altitude=158.20, speed=21.94, satellites=7, angle=135.9700, fixquality=2
$GPRMC,212152.750,A,4305.2987,N,07740.4942,W,21.75,129.39,100924,,,D*4A
$GPGGA,212153.000,4305.2978,N,07740.4925,W,2,07,1.17,158.2,M,-34.4,M,0000,0000*53
lng=-77.674903, lat=43.088314, altitude=158.40, speed=21.75, satellites=7, angle=129.3900, fixquality=2
$GPRMC,212153.250,A,4305.2970,N,07740.4906,W,22.68,122.04,100924,,,D*4C
$GPGGA,212153.500,4305.2963,N,07740.4887,W,2,07,1.17,157.9,M,-34.4,M,0000,0000*51
lng=-77.674842, lat=43.088279, altitude=158.20, speed=22.68, satellites=7, angle=122.0400, fixquality=2
$GPRMC,212153.750,A,4305.2957,N,07740.4869,W,22.21,116.49,100924,,,D*47
$GPGGA,212154.000,4305.2950,N,07740.4849,W,2,07,1.10,158.0,M,-34.4,M,0000,0000*50
lng=-77.674781, lat=43.088264, altitude=157.90, speed=22.21, satellites=7, angle=116.4900, fixquality=2
$GPRMC,212154.250,A,4305.2944,N,07740.4829,W,22.88,114.52,100924,,,D*48
$GPGGA,212154.500,4305.2939,N,07740.4808,W,2,07,1.17,157.9,M,-34.4,M,0000,0000*5E
lng=-77.674713, lat=43.088241, altitude=158.00, speed=22.88, satellites=7, angle=114.5200, fixquality=2
$GPRMC,212154.750,A,4305.2934,N,07740.4787,W,23.22,110.80,100924,,,D*4B
$GPGGA,212155.000,4305.2933,N,07740.4766,W,2,07,1.17,158.0,M,-34.4,M,0000,0000*51
lng=-77.674644, lat=43.088222, altitude=157.90, speed=23.22, satellites=7, angle=110.8000, fixquality=2
$GPRMC,212155.250,A,4305.2929,N,07740.4745,W,22.78,104.41,100924,,,D*4B
$GPGGA,212155.500,4305.2927,N,07740.4725,W,2,07,1.17,158.0,M,-34.4,M,0000,0000*56
lng=-77.674575, lat=43.088214, altitude=158.00, speed=22.78, satellites=7, angle=104.4100, fixquality=2
$GPRMC,212155.750,A,4305.2924,N,07740.4704,W,22.24,102.67,100924,,,D*4D
$GPGGA,212156.000,4305.2922,N,07740.4684,W,2,07,1.10,158.0,M,-34.4,M,0000,0000*58
lng=-77.674507, lat=43.088207, altitude=158.00, speed=22.24, satellites=7, angle=102.6700, fixquality=2
$GPRMC,212156.250,A,4305.2920,N,07740.4664,W,21.51,100.68,100924,,,D*44
$GPGGA,212156.500,4305.2922,N,07740.4644,W,2,07,1.10,158.0,M,-34.4,M,0000,0000*51
lng=-77.674438, lat=43.088199, altitude=158.00, speed=21.51, satellites=7, angle=100.6800, fixquality=2
$GPRMC,212156.750,A,4305.2930,N,07740.4625,W,20.40,87.30,100924,,,D*77
$GPGGA,212157.000,4305.2937,N,07740.4604,W,2,07,1.10,157.9,M,-34.4,M,0000,0000*53
lng=-77.674369, lat=43.088214, altitude=158.00, speed=20.40, satellites=7, angle=87.3000, fixquality=2
$GPRMC,212157.250,A,4305.2946,N,07740.4585,W,20.42,74.77,100924,,,D*76
$GPGGA,212157.500,4305.2954,N,07740.4566,W,2,07,1.17,157.7,M,-34.4,M,0000,0000*5D
lng=-77.674308, lat=43.088241, altitude=157.90, speed=20.42, satellites=7, angle=74.7700, fixquality=2
$GPRMC,212157.750,A,4305.2961,N,07740.4548,W,20.16,67.22,100924,,,D*74
$GPGGA,212158.000,4305.2969,N,07740.4531,W,2,07,1.17,157.6,M,-34.4,M,0000,0000*5A
lng=-77.674240, lat=43.088264, altitude=157.70, speed=20.16, satellites=7, angle=67.2200, fixquality=2
$GPRMC,212158.250,A,4305.2978,N,07740.4515,W,19.89,59.00,100924,,,D*7F
$GPGGA,212158.500,4305.2988,N,07740.4499,W,2,07,1.17,157.4,M,-34.4,M,0000,0000*51
lng=-77.674194, lat=43.088298, altitude=157.60, speed=19.89, satellites=7, angle=59.0000, fixquality=2
$GPRMC,212158.750,A,4305.2998,N,07740.4484,W,20.12,52.31,100924,,,D*7C
$GPGGA,212159.000,4305.3009,N,07740.4470,W,2,07,1.17,157.3,M,-34.4,M,0000,0000*54
lng=-77.674140, lat=43.088329, altitude=157.40, speed=20.12, satellites=7, angle=52.3100, fixquality=2
$GPRMC,212159.250,A,4305.3020,N,07740.4457,W,20.34,45.08,100924,,,D*75
$GPGGA,212159.500,4305.3031,N,07740.4443,W,2,07,1.17,157.2,M,-34.4,M,0000,0000*5B
lng=-77.674095, lat=43.088363, altitude=157.30, speed=20.34, satellites=7, angle=45.0800, fixquality=2
$GPRMC,212159.750,A,4305.3042,N,07740.4430,W,20.40,41.09,100924,,,D*73
$GPGGA,212200.000,4305.3054,N,07740.4418,W,2,07,1.17,157.1,M,-34.4,M,0000,0000*5F
lng=-77.674049, lat=43.088401, altitude=157.20, speed=20.40, satellites=7, angle=41.0900, fixquality=2
$GPRMC,212200.250,A,4305.3065,N,07740.4406,W,20.61,36.04,100924,,,D*77
$GPGGA,212200.500,4305.3078,N,07740.4396,W,2,07,1.17,156.8,M,-34.4,M,0000,0000*5D
lng=-77.674003, lat=43.088443, altitude=157.10, speed=20.61, satellites=7, angle=36.0400, fixquality=2
$GPRMC,212200.750,A,4305.3091,N,07740.4386,W,20.84,30.42,100924,,,D*79
$GPGGA,212201.000,4305.3105,N,07740.4377,W,2,07,1.17,156.6,M,-34.4,M,0000,0000*53
lng=-77.673973, lat=43.088485, altitude=156.80, speed=20.84, satellites=7, angle=30.4200, fixquality=2
$GPRMC,212201.250,A,4305.3120,N,07740.4369,W,21.86,23.84,100924,,,D*7C
$GPGGA,212201.500,4305.3136,N,07740.4362,W,2,06,1.21,156.2,M,-34.4,M,0000,0000*52
lng=-77.673950, lat=43.088535, altitude=156.60, speed=21.86, satellites=7, angle=23.8400, fixquality=2
$GPRMC,212201.750,A,4305.3152,N,07740.4356,W,22.58,16.59,100924,,,D*76
$GPGGA,212202.000,4305.3168,N,07740.4351,W,2,07,1.17,155.9,M,-34.4,M,0000,0000*53
lng=-77.673927, lat=43.088588, altitude=156.20, speed=22.58, satellites=6, angle=16.5900, fixquality=2
$GPRMC,212202.250,A,4305.3184,N,07740.4347,W,22.66,9.51,100924,,,D*40
$GPGGA,212202.500,4305.3200,N,07740.4344,W,2,07,1.17,155.7,M,-34.4,M,0000,0000*51
lng=-77.673912, lat=43.088638, altitude=155.90, speed=22.66, satellites=7, angle=9.5100, fixquality=2
$GPRMC,212202.750,A,4305.3216,N,07740.4343,W,22.93,5.84,100924,,,D*47
$GPGGA,212203.000,4305.3232,N,07740.4341,W,2,07,1.17,155.5,M,-34.4,M,0000,0000*53
lng=-77.673904, lat=43.088695, altitude=155.70, speed=22.93, satellites=7, angle=5.8400, fixquality=2
$GPRMC,212203.250,A,4305.3249,N,07740.4341,W,23.35,2.50,100924,,,D*48
$GPGGA,212203.500,4305.3266,N,07740.4340,W,2,07,1.17,155.2,M,-34.4,M,0000,0000*51
lng=-77.673904, lat=43.088745, altitude=155.50, speed=23.35, satellites=7, angle=2.5000, fixquality=2
$GPRMC,212203.750,A,4305.3283,N,07740.4339,W,23.94,1.68,100924,,,D*47
