Vers 72
USE_SERIAL_FEEDBACK=true
DEVELOPMENT_MODE=false
USE_RMC_ONLY=false

$GPRMC,142041.000,A,4308.3005,N,07726.2593,W,0.22,225.77,050924,,,A*71
$GPGGA,142041.250,4308.3004,N,07726.2593,W,1,03,3.42,184.3,M,-34.4,M,,*5C
lng=-77.437652, lat=43.138339, altitude=184.30, speed=0.22, satellites=3, angle=225.7700, fixquality=1
$GPRMC,142041.500,A,4308.3003,N,07726.2592,W,0.28,195.12,050924,,,A*72
$GPGGA,142041.750,4308.3003,N,07726.2592,W,1,03,3.42,184.3,M,-34.4,M,,*5F
lng=-77.437652, lat=43.138339, altitude=184.30, speed=0.28, satellites=3, angle=195.1200, fixquality=1
$GPGGA,142053.000,4308.2990,N,07726.2590,W,1,03,3.44,184.3,M,-34.4,M,,*58
$GPRMC,142053.000,A,4308.2990,N,07726.2590,W,0.10,211.68,050924,,,A*7D
lng=-77.437644, lat=43.138313, altitude=184.30, speed=0.10, satellites=3, angle=211.5200, fixquality=1
$GPGGA,142053.250,4308.2990,N,07726.2590,W,1,03,3.44,184.3,M,-34.4,M,,*5F
$GPRMC,142053.250,A,4308.2990,N,07726.2590,W,0.12,192.84,050924,,,A*72
lng=-77.437644, lat=43.138313, altitude=184.30, speed=0.10, satellites=3, angle=211.6800, fixquality=1
$GPGGA,142102.750,4308.2986,N,07726.2601,W,1,03,3.45,184.3,M,-34.4,M,,*52
$GPRMC,142102.750,A,4308.2986,N,07726.2601,W,0.11,206.03,050924,,,A*7C
lng=-77.437667, lat=43.138313, altitude=184.30, speed=0.16, satellites=3, angle=196.3800, fixquality=1
$GPGGA,142103.000,4308.2987,N,07726.2601,W,1,03,3.45,184.3,M,-34.4,M,,*50
$GPRMC,142103.000,A,4308.2987,N,07726.2601,W,0.06,188.25,050924,,,A*79
lng=-77.437667, lat=43.138313, altitude=184.30, speed=0.11, satellites=3, angle=206.0300, fixquality=1
$GPGGA,142109.250,4308.2990,N,07726.2610,W,1,03,3.46,184.6,M,-34.4,M,,*5D
$GPRMC,142109.250,A,4308.2990,N,07726.2610,W,0.05,280.21,050924,,,A*7E
lng=-77.437690, lat=43.138313, altitude=184.60, speed=0.05, satellites=3, angle=246.9600, fixquality=1
$GPGGA,142109.500,4308.2990,N,07726.2610,W,1,03,3.46,184.6,M,-34.4,M,,*5F
$GPRMC,142109.500,A,4308.2990,N,07726.2610,W,0.03,281.36,050924,,,A*7D
lng=-77.437690, lat=43.138313, altitude=184.60, speed=0.05, satellites=3, angle=280.2100, fixquality=1
$GPGGA,142117.750,4308.2991,N,07726.2604,W,1,03,3.47,185.1,M,-34.4,M,,*54
$GPRMC,142117.750,A,4308.2991,N,07726.2604,W,0.14,64.56,050924,,,A*48
lng=-77.437667, lat=43.138320, altitude=185.10, speed=0.12, satellites=3, angle=69.4500, fixquality=1
$GPGGA,142118.000,4308.2991,N,07726.2604,W,1,03,3.48,185.1,M,-34.4,M,,*56
$GPRMC,142118.000,A,4308.2991,N,07726.2604,W,0.13,74.30,050924,,,A*43
lng=-77.437667, lat=43.138320, altitude=185.10, speed=0.14, satellites=3, angle=64.5600, fixquality=1
$GPGGA,142138.750,4308.3008,N,07726.2597,W,1,05,2.78,185.0,M,-34.4,M,,*52
$GPRMC,142138.750,A,4308.3008,N,07726.2597,W,2.28,22.10,050924,$GPGGA,142139.000,4308.3010,N,07726.2596,W,1,05,2.78,185.0,M,-34.4,M,,*59
lng=-77.437660, lat=43.138347, altitude=185.00, speed=1.71, satellites=5, angle=19.2800, fixquality=1
$GPRMC,142139.250,A,4308.3013,N,07726.2596,W,3.27,15.73,050924,,,A*49
$GPGGA,142139.500,4308.3017,N,07726.2596,W,1,05,2.78,185.0,M,-34.4,M,,*5B
lng=-77.437660, lat=43.138355, altitude=185.00, speed=3.27, satellites=5, angle=15.7300, fixquality=1
$GPRMC,142139.750,A,4308.3020,N,07726.2595,W,3.99,8.85,050924,,,A*7F
$GPGGA,142140.000,4308.3023,N,07726.2595,W,1,05,3.25,185.0,M,-34.4,M,,*5D
lng=-77.437652, lat=43.138362, altitude=185.00, speed=3.99, satellites=5, angle=8.8500, fixquality=1
$GPRMC,142140.250,A,4308.3026,N,07726.2594,W,4.06,9.11,050924,,,A*7E
$GPGGA,142140.500,4308.3029,N,07726.2593,W,1,05,3.25,184.9,M,-34.4,M,,*5C
lng=-77.437652, lat=43.138378, altitude=185.00, speed=4.06, satellites=5, angle=9.1100, fixquality=1
$GPRMC,142140.750,A,4308.3031,N,07726.2592,W,3.92,14.10,050924,,,A*4C
$GPGGA,142141.000,4308.3034,N,07726.2591,W,1,05,3.25,184.8,M,-34.4,M,,*57
lng=-77.437652, lat=43.138385, altitude=184.90, speed=3.92, satellites=5, angle=14.1000, fixquality=1
$GPRMC,142141.250,A,4308.3039,N,07726.2591,W,4.64,8.20,050924,,,A*73
$GPGGA,142141.500,4308.3042,N,07726.2590,W,1,05,3.25,184.7,M,-34.4,M,,*5D
lng=-77.437652, lat=43.138393, altitude=184.80, speed=4.64, satellites=5, angle=8.2000, fixquality=1
$GPRMC,142141.750,A,4308.3045,N,07726.2589,W,4.38,9.97,050924,,,A*70
$GPGGA,142142.000,4308.3049,N,07726.2589,W,1,05,3.25,184.5,M,-34.4,M,,*5A
lng=-77.437644, lat=43.138412, altitude=184.70, speed=4.38, satellites=5, angle=9.9700, fixquality=1
$GPRMC,142142.250,A,4308.3053,N,07726.2589,W,4.66,6.84,050924,,,A*77
$GPGGA,142142.500,4308.3056,N,07726.2588,W,1,05,3.26,184.4,M,-34.4,M,,*52
lng=-77.437644, lat=43.138420, altitude=184.50, speed=4.66, satellites=5, angle=6.8400, fixquality=1
$GPRMC,142142.750,A,4308.3060,N,07726.2589,W,4.81,2.84,050924,,,A*7F
$GPGGA,142143.000,4308.3064,N,07726.2589,W,1,05,3.25,184.3,M,-34.4,M,,*52
lng=-77.437644, lat=43.138435, altitude=184.40, speed=4.81, satellites=5, angle=2.8400, fixquality=1
$GPRMC,142143.250,A,4308.3067,N,07726.2589,W,4.49,359.76,050924,,,A*78
$GPGGA,142143.500,4308.3069,N,07726.2588,W,1,05,3.26,184.2,M,-34.4,M,,*59
lng=-77.437644, lat=43.138442, altitude=184.30, speed=4.49, satellites=5, angle=359.7600, fixquality=1
$GPRMC,142143.750,A,4308.3071,N,07726.2588,W,3.67,357.13,050924,,,A*7D
$GPGGA,142144.000,4308.3073,N,07726.2588,W,1,05,3.26,184.1,M,-34.4,M,,*53
lng=-77.437644, lat=43.138450, altitude=184.20, speed=3.67, satellites=5, angle=357.1300, fixquality=1
$GPRMC,142144.250,A,4308.3075,N,07726.2589,W,3.16,355.02,050924,,,A*7E
$GPGGA,142144.500,4308.3078,N,07726.2589,W,1,05,3.26,184.0,M,-34.4,M,,*5D
lng=-77.437644, lat=43.138462, altitude=184.10, speed=3.16, satellites=5, angle=355.0200, fixquality=1
$GPRMC,142144.750,A,4308.3080,N,07726.2589,W,3.23,357.56,050924,,,A*74
$GPGGA,142145.000,4308.3083,N,07726.2589,W,1,05,3.25,184.0,M,-34.4,M,,*5E
lng=-77.437644, lat=43.138469, altitude=184.00, speed=3.23, satellites=5, angle=357.5600, fixquality=1
$GPRMC,142145.250,A,4308.3086,N,07726.2589,W,3.82,2.77,050924,,,A*7D
$GPGGA,142145.500,4308.3088,N,07726.2587,W,1,05,3.25,184.0,M,-34.4,M,,*5E
lng=-77.437644, lat=43.138477, altitude=184.00, speed=3.82, satellites=5, angle=2.7700, fixquality=1
$GPRMC,142145.750,A,4308.3091,N,07726.2587,W,3.98,6.68,050924,,,A*71
$GPGGA,142146.000,4308.3094,N,07726.2586,W,1,05,3.26,183.9,M,-34.4,M,,*59
lng=-77.437644, lat=43.138484, altitude=184.00, speed=3.98, satellites=5, angle=6.6800, fixquality=1
$GPRMC,142146.250,A,4308.3097,N,07726.2584,W,4.34,14.07,050924,,,A*49
$GPGGA,142146.500,4308.3100,N,07726.2583,W,1,05,3.25,183.8,M,-34.4,M,,*57
lng=-77.437637, lat=43.138492, altitude=183.90, speed=4.34, satellites=5, angle=14.0700, fixquality=1
$GPRMC,142146.750,A,4308.3104,N,07726.2582,W,4.52,14.44,050924,,,A*46
$GPGGA,142147.000,4308.3107,N,07726.2581,W,1,05,3.26,183.8,M,-34.4,M,,*55
lng=-77.437637, lat=43.138507, altitude=183.80, speed=4.52, satellites=5, angle=14.4400, fixquality=1
$GPRMC,142147.250,A,4308.3110,N,07726.2580,W,4.62,16.40,050924,,,A*40
$GPGGA,142147.500,4308.3113,N,07726.2578,W,1,05,3.26,183.8,M,-34.4,M,,*53
lng=-77.437629, lat=43.138515, altitude=183.80, speed=4.62, satellites=5, angle=16.4000, fixquality=1
$GPRMC,142147.750,A,4308.3116,N,07726.2577,W,4.20,21.56,050924,,,A*4E
$GPGGA,142148.000,4308.3117,N,07726.2574,W,1,05,3.26,183.9,M,-34.4,M,,*50
lng=-77.437629, lat=43.138526, altitude=183.80, speed=4.20, satellites=5, angle=21.5600, fixquality=1
$GPRMC,142148.250,A,4308.3117,N,07726.2571,W,3.07,37.51,050924,,,A*41
$GPGGA,142148.500,4308.3118,N,07726.2569,W,1,05,2.78,183.9,M,-34.4,M,,*5C
lng=-77.437622, lat=43.138526, altitude=183.90, speed=3.07, satellites=5, angle=37.5100, fixquality=1
$GPRMC,142148.750,A,4308.3119,N,07726.2567,W,2.07,44.94,050924,,,A*41
$GPGGA,142149.000,4308.3120,N,07726.2567,W,1,05,2.78,183.9,M,-34.4,M,,*5D
lng=-77.437614, lat=43.138534, altitude=183.90, speed=2.07, satellites=5, angle=44.9400, fixquality=1
$GPGGA,142150.750,4308.3125,N,07726.2583,W,1,05,2.79,183.7,M,-34.4,M,,*57
$GPRMC,142150.750,A,4308.3125,N,07726.2583,W,1.84,275.89,050924,,,A*79
lng=-77.437637, lat=43.138542, altitude=183.70, speed=1.60, satellites=5, angle=276.6500, fixquality=1
$GPGGA,142151.000,4308.3125,N,07726.2586,W,1,05,2.78,183.7,M,-34.4,M,,*50
$GPRMC,142151.000,A,4308.3125,N,07726.2586,W,2.05,273.46,050924,,,A*70
lng=-77.437644, lat=43.138542, altitude=183.70, speed=1.84, satellites=5, angle=275.8900, fixquality=1
$GPRMC,142151.250,A,4308.3126,N,07726.2589,W,2.72,265.69,050924,,,A*71
$GPGGA,142151.500,4308.3126,N,07726.2593,W,1,05,2.79,183.6,M,-34.4,M,,*52
lng=-77.437644, lat=43.138542, altitude=183.70, speed=2.72, satellites=5, angle=265.6900, fixquality=1
$GPRMC,142151.750,A,4308.3126,N,07726.2597,W,3.98,259.22,050924,,,A*7E
$GPGGA,142152.000,4308.3127,N,07726.2603,W,1,05,3.26,183.5,M,-34.4,M,,*57
lng=-77.437660, lat=43.138542, altitude=183.60, speed=3.98, satellites=5, angle=259.2200, fixquality=1
$GPRMC,142152.250,A,4308.3128,N,07726.2611,W,5.69,265.15,050924,,,A*78
$GPGGA,142152.500,4308.3129,N,07726.2620,W,1,05,3.26,183.4,M,-34.4,M,,*5C
lng=-77.437690, lat=43.138549, altitude=183.50, speed=5.69, satellites=5, angle=265.1500, fixquality=1
$GPRMC,142152.750,A,4308.3130,N,07726.2628,W,7.08,269.05,050924,,,A*76
$GPGGA,142153.000,4308.3132,N,07726.2639,W,1,05,3.26,183.4,M,-34.4,M,,*5A
lng=-77.437713, lat=43.138549, altitude=183.40, speed=7.08, satellites=5, angle=269.0500, fixquality=1
$GPRMC,142153.250,A,4308.3133,N,07726.2649,W,8.84,270.04,050924,,,A*74
$GPGGA,142153.500,4308.3134,N,07726.2660,W,1,05,3.26,183.3,M,-34.4,M,,*52
lng=-77.437751, lat=43.138557, altitude=183.40, speed=8.84, satellites=5, angle=270.0400, fixquality=1
$GPRMC,142153.750,A,4308.3135,N,07726.2672,W,10.59,270.22,050924,,,A*42
$GPGGA,142154.000,4308.3136,N,07726.2684,W,1,05,2.79,183.2,M,-34.4,M,,*52
lng=-77.437782, lat=43.138557, altitude=183.30, speed=10.59, satellites=5, angle=270.2200, fixquality=1
$GPRMC,142154.250,A,4308.3137,N,07726.2696,W,11.53,271.35,050924,,,A*44
$GPGGA,142154.500,4308.3139,N,07726.2709,W,1,05,3.26,183.0,M,-34.4,M,,*55
lng=-77.437828, lat=43.138557, altitude=183.20, speed=11.53, satellites=5, angle=271.3500, fixquality=1
$GPRMC,142154.750,A,4308.3141,N,07726.2723,W,12.85,272.94,050924,,,A*4F
$GPGGA,142155.000,4308.3143,N,07726.2737,W,1,05,2.79,183.0,M,-34.4,M,,*5A
lng=-77.437873, lat=43.138565, altitude=183.00, speed=12.85, satellites=5, angle=272.9400, fixquality=1
$GPRMC,142155.250,A,4308.3144,N,07726.2750,W,13.30,273.88,050924,,,A*49
$GPGGA,142155.500,4308.3145,N,07726.2763,W,1,05,2.79,182.9,M,-34.4,M,,*50
lng=-77.437911, lat=43.138572, altitude=183.00, speed=13.30, satellites=5, angle=273.8800, fixquality=1
$GPRMC,142155.750,A,4308.3146,N,07726.2777,W,13.57,274.64,050924,,,A*4F
$GPGGA,142156.000,4308.3149,N,07726.2792,W,1,05,2.79,182.8,M,-34.4,M,,*55
lng=-77.437965, lat=43.138572, altitude=182.90, speed=13.57, satellites=5, angle=274.6400, fixquality=1
$GPRMC,142156.250,A,4308.3155,N,07726.2808,W,14.39,279.20,050924,,,A*4E
$GPGGA,142156.500,4308.3163,N,07726.2827,W,1,05,3.26,182.6,M,-34.4,M,,*5C
lng=-77.438011, lat=43.138591, altitude=182.80, speed=14.39, satellites=5, angle=279.2000, fixquality=1
$GPRMC,142156.750,A,4308.3169,N,07726.2844,W,15.63,284.30,050924,,,A*41
$GPGGA,142157.000,4308.3177,N,07726.2863,W,1,05,2.79,182.7,M,-34.4,M,,*57
lng=-77.438072, lat=43.138614, altitude=182.60, speed=15.63, satellites=5, angle=284.3000, fixquality=1
$GPRMC,142157.250,A,4308.3192,N,07726.2886,W,17.73,291.98,050924,,,A*4A
$GPGGA,142157.500,4308.3201,N,07726.2906,W,1,05,2.79,182.7,M,-34.4,M,,*52
lng=-77.438140, lat=43.138656, altitude=182.70, speed=17.73, satellites=5, angle=291.9800, fixquality=1
$GPRMC,142157.750,A,4308.3211,N,07726.2926,W,18.97,294.78,050924,,,A*42
$GPGGA,142158.000,4308.3223,N,07726.2952,W,1,05,2.79,182.7,M,-34.4,M,,*59
lng=-77.438209, lat=43.138687, altitude=182.70, speed=18.97, satellites=5, angle=294.7800, fixquality=1
$GPRMC,142158.250,A,4308.3237,N,07726.2980,W,22.43,295.82,050924,,,A*44
$GPGGA,142158.500,4308.3248,N,07726.3004,W,1,05,3.26,182.8,M,-34.4,M,,*5E
lng=-77.438301, lat=43.138729, altitude=182.70, speed=22.43, satellites=5, angle=295.8200, fixquality=1
$GPRMC,142158.750,A,4308.3258,N,07726.3027,W,23.64,297.27,050924,,,A*44
$GPGGA,142159.000,4308.3270,N,07726.3050,W,1,05,3.26,182.8,M,-34.4,M,,*50
lng=-77.438377, lat=43.138759, altitude=182.80, speed=23.64, satellites=5, angle=297.2700, fixquality=1
$GPRMC,142159.250,A,4308.3282,N,07726.3073,W,24.67,299.28,050924,,,A*43
$GPGGA,142159.500,4308.3295,N,07726.3097,W,1,05,2.79,182.9,M,-34.4,M,,*5F
lng=-77.438453, lat=43.138801, altitude=182.80, speed=24.67, satellites=5, angle=299.2800, fixquality=1
$GPRMC,142159.750,A,4308.3306,N,07726.3119,W,25.40,300.86,050924,,,A*47
$GPGGA,142200.000,4308.3319,N,07726.3142,W,1,05,2.79,183.0,M,-34.4,M,,*51
lng=-77.438529, lat=43.138843, altitude=182.90, speed=25.40, satellites=5, angle=300.8600, fixquality=1
$GPRMC,142200.250,A,4308.3355,N,07726.3198,W,26.00,303.01,050924,,,A*49
$GPGGA,142200.500,4308.3377,N,07726.3235,W,1,06,1.48,180.6,M,-34.4,M,,*58
lng=-77.438667, lat=43.138923, altitude=183.00, speed=26.00, satellites=5, angle=303.0100, fixquality=1
$GPRMC,142200.750,A,4308.3396,N,07726.3268,W,28.90,304.01,050924,,,A*4F
$GPGGA,142201.000,4308.3413,N,07726.3298,W,1,06,1.35,179.4,M,-34.4,M,,*50
lng=-77.438774, lat=43.138988, altitude=180.60, speed=28.90, satellites=6, angle=304.0100, fixquality=1
$GPRMC,142201.250,A,4308.3429,N,07726.3327,W,28.95,303.54,050924,,,A*40
$GPGGA,142201.500,4308.3444,N,07726.3354,W,1,06,1.48,178.7,M,-34.4,M,,*5E
lng=-77.438873, lat=43.139045, altitude=179.40, speed=28.95, satellites=6, angle=303.5400, fixquality=1
$GPRMC,142201.750,A,4308.3457,N,07726.3381,W,28.97,303.37,050924,,,A*47
$GPGGA,142202.000,4308.3471,N,07726.3406,W,1,06,1.35,178.2,M,-34.4,M,,*51
lng=-77.438964, lat=43.139095, altitude=178.70, speed=28.97, satellites=6, angle=303.3700, fixquality=1
$GPRMC,142202.250,A,4308.3484,N,07726.3432,W,28.75,303.43,050924,,,A*4F
$GPGGA,142202.500,4308.3496,N,07726.3456,W,1,06,1.48,177.9,M,-34.4,M,,*56
lng=-77.439056, lat=43.139144, altitude=178.20, speed=28.75, satellites=6, angle=303.4300, fixquality=1
$GPRMC,142202.750,A,4308.3509,N,07726.3479,W,28.14,303.90,050924,,,A*48
$GPGGA,142203.000,4308.3521,N,07726.3502,W,1,06,1.48,177.5,M,-34.4,M,,*53
lng=-77.439125, lat=43.139183, altitude=177.90, speed=28.14, satellites=6, angle=303.9000, fixquality=1
$GPRMC,142203.250,A,4308.3533,N,07726.3524,W,27.22,304.62,050924,,,A*4C
$GPGGA,142203.500,4308.3546,N,07726.3546,W,1,06,1.48,177.2,M,-34.4,M,,*50
lng=-77.439208, lat=43.139225, altitude=177.50, speed=27.22, satellites=6, angle=304.6200, fixquality=1
$GPRMC,142203.750,A,4308.3558,N,07726.3567,W,26.54,306.35,050924,,,A*43
$GPGGA,142204.000,4308.3570,N,07726.3588,W,1,06,1.35,177.0,M,-34.4,M,,*5D
lng=-77.439285, lat=43.139266, altitude=177.20, speed=26.54, satellites=6, angle=306.3500, fixquality=1
$GPRMC,142204.250,A,4308.3583,N,07726.3607,W,25.81,310.04,050924,,,A*4C
$GPGGA,142204.500,4308.3595,N,07726.3626,W,1,06,1.48,176.9,M,-34.4,M,,*56
lng=-77.439346, lat=43.139305, altitude=177.00, speed=25.81, satellites=6, angle=310.0400, fixquality=1
$GPRMC,142204.750,A,4308.3608,N,07726.3644,W,24.90,312.49,050924,,,A*44
$GPGGA,142205.000,4308.3620,N,07726.3660,W,1,06,1.48,176.7,M,-34.4,M,,*53
lng=-77.439407, lat=43.139347, altitude=176.90, speed=24.90, satellites=6, angle=312.4900, fixquality=1
$GPRMC,142205.250,A,4308.3634,N,07726.3675,W,24.74,317.21,050924,,,A*4C
$GPGGA,142205.500,4308.3647,N,07726.3690,W,1,06,1.48,176.6,M,-34.4,M,,*59
lng=-77.439460, lat=43.139389, altitude=176.70, speed=24.74, satellites=6, angle=317.2100, fixquality=1
$GPRMC,142205.750,A,4308.3661,N,07726.3703,W,24.39,321.97,050924,,,A*48
$GPGGA,142206.000,4308.3675,N,07726.3716,W,1,06,1.48,176.4,M,-34.4,M,,*53
lng=-77.439498, lat=43.139438, altitude=176.60, speed=24.39, satellites=6, angle=321.9700, fixquality=1
$GPRMC,142206.250,A,4308.3689,N,07726.3729,W,24.08,326.16,050924,,,A*4C
$GPGGA,142206.500,4308.3704,N,07726.3740,W,1,06,1.48,176.3,M,-34.4,M,,*55
lng=-77.439552, lat=43.139484, altitude=176.40, speed=24.08, satellites=6, angle=326.1600, fixquality=1
$GPRMC,142206.750,A,4308.3721,N,07726.3750,W,24.39,330.92,050924,,,A*4D
$GPGGA,142207.000,4308.3737,N,07726.3760,W,1,06,1.35,176.2,M,-34.4,M,,*58
lng=-77.439582, lat=43.139533, altitude=176.30, speed=24.39, satellites=6, angle=330.9200, fixquality=1
$GPRMC,142207.250,A,4308.3752,N,07726.3768,W,24.69,335.04,050924,,,A*49
$GPGGA,142207.500,4308.3769,N,07726.3776,W,1,06,1.48,176.2,M,-34.4,M,,*5B
lng=-77.439613, lat=43.139583, altitude=176.20, speed=24.69, satellites=6, angle=335.0400, fixquality=1
$GPRMC,142207.750,A,4308.3785,N,07726.3781,W,24.45,339.61,050924,,,A*40
$GPGGA,142208.000,4308.3800,N,07726.3785,W,1,06,1.35,176.0,M,-34.4,M,,*55
lng=-77.439628, lat=43.139640, altitude=176.20, speed=24.45, satellites=6, angle=339.6100, fixquality=1
$GPRMC,142208.250,A,4308.3817,N,07726.3789,W,24.27,345.45,050924,,,A*4F
$GPGGA,142208.500,4308.3835,N,07726.3794,W,1,06,1.48,175.9,M,-34.4,M,,*56
lng=-77.439651, lat=43.139698, altitude=176.00, speed=24.27, satellites=6, angle=345.4500, fixquality=1
$GPRMC,142208.750,A,4308.3852,N,07726.3798,W,24.49,347.55,050924,,,A*40
$GPGGA,142209.000,4308.3871,N,07726.3802,W,1,06,1.48,176.0,M,-34.4,M,,*58
lng=-77.439666, lat=43.139755, altitude=175.90, speed=24.49, satellites=6, angle=347.5500, fixquality=1
$GPRMC,142209.250,A,4308.3889,N,07726.3803,W,25.88,352.29,050924,,,A*4C
$GPGGA,142209.500,4308.3907,N,07726.3803,W,1,06,1.48,175.7,M,-34.4,M,,*58
lng=-77.439674, lat=43.139812, altitude=176.00, speed=25.88, satellites=6, angle=352.2900, fixquality=1
$GPRMC,142209.750,A,4308.3925,N,07726.3804,W,26.29,357.17,050924,,,A*49
$GPGGA,142210.000,4308.3941,N,07726.3799,W,1,06,1.48,175.7,M,-34.4,M,,*5B
lng=-77.439674, lat=43.139877, altitude=175.70, speed=26.29, satellites=6, angle=357.1700, fixquality=1
$GPRMC,142210.250,A,4308.3959,N,07726.3796,W,25.48,4.85,050924,,,A*41
$GPGGA,142210.500,4308.3977,N,07726.3792,W,1,06,1.48,175.7,M,-34.4,M,,*50
lng=-77.439659, lat=43.139934, altitude=175.70, speed=25.48, satellites=6, angle=4.8500, fixquality=1
$GPRMC,142210.750,A,4308.3995,N,07726.3789,W,26.18,7.22,050924,,,A*42
$GPGGA,142211.000,4308.4013,N,07726.3785,W,1,06,1.48,175.7,M,-34.4,M,,*5E
lng=-77.439651, lat=43.139991, altitude=175.70, speed=26.18, satellites=6, angle=7.2200, fixquality=1
$GPRMC,142211.250,A,4308.4032,N,07726.3780,W,26.36,8.29,050924,,,A*44
$GPGGA,142211.500,4308.4052,N,07726.3775,W,1,06,1.48,175.6,M,-34.4,M,,*50
lng=-77.439628, lat=43.140056, altitude=175.70, speed=26.36, satellites=6, angle=8.2900, fixquality=1
$GPRMC,142211.750,A,4308.4072,N,07726.3771,W,28.49,9.17,050924,,,A*41
$GPGGA,142212.000,4308.4092,N,07726.3766,W,1,06,1.48,175.6,M,-34.4,M,,*58
lng=-77.439613, lat=43.140121, altitude=175.60, speed=28.49, satellites=6, angle=9.1700, fixquality=1
$GPRMC,142212.250,A,4308.4112,N,07726.3761,W,29.01,9.11,050924,,,A*4A
$GPGGA,142212.500,4308.4132,N,07726.3757,W,1,06,1.48,175.5,M,-34.4,M,,*57
lng=-77.439598, lat=43.140186, altitude=175.60, speed=29.01, satellites=6, angle=9.1100, fixquality=1
$GPRMC,142212.750,A,4308.4152,N,07726.3752,W,29.27,9.20,050924,,,A*4D
$GPGGA,142213.000,4308.4172,N,07726.3747,W,1,06,1.48,175.5,M,-34.4,M,,*56
lng=-77.439582, lat=43.140251, altitude=175.50, speed=29.27, satellites=6, angle=9.2000, fixquality=1
$GPRMC,142213.250,A,4308.4193,N,07726.3742,W,29.34,9.73,050924,,,A*41
$GPGGA,142213.500,4308.4213,N,07726.3737,W,1,06,1.48,175.5,M,-34.4,M,,*50
lng=-77.439567, lat=43.140323, altitude=175.50, speed=29.34, satellites=6, angle=9.7300, fixquality=1
$GPRMC,142213.750,A,4308.4233,N,07726.3732,W,29.11,9.75,050924,,,A*4B
$GPGGA,142214.000,4308.4252,N,07726.3727,W,1,06,1.48,175.4,M,-34.4,M,,*57
lng=-77.439552, lat=43.140388, altitude=175.50, speed=29.11, satellites=6, angle=9.7500, fixquality=1
$GPRMC,142214.250,A,4308.4272,N,07726.3722,W,28.45,9.28,050924,,,A*45
$GPGGA,142214.500,4308.4291,N,07726.3717,W,1,06,1.48,175.3,M,-34.4,M,,*59
lng=-77.439537, lat=43.140453, altitude=175.40, speed=28.45, satellites=6, angle=9.2800, fixquality=1
$GPRMC,142214.750,A,4308.4310,N,07726.3712,W,28.22,9.53,050924,,,A*4B
$GPGGA,142215.000,4308.4329,N,07726.3707,W,1,06,1.48,175.4,M,-34.4,M,,*59
lng=-77.439521, lat=43.140518, altitude=175.30, speed=28.22, satellites=6, angle=9.5300, fixquality=1
$GPRMC,142215.250,A,4308.4348,N,07726.3702,W,27.94,9.98,050924,,,A*46
$GPGGA,142215.500,4308.4366,N,07726.3698,W,1,06,1.48,175.4,M,-34.4,M,,*50
lng=-77.439498, lat=43.140575, altitude=175.40, speed=27.94, satellites=6, angle=9.9800, fixquality=1
$GPRMC,142215.750,A,4308.4384,N,07726.3693,W,27.74,10.02,050924,,,A*7F
$GPGGA,142216.000,4308.4402,N,07726.3689,W,1,06,1.35,175.4,M,-34.4,M,,*59
lng=-77.439483, lat=43.140640, altitude=175.40, speed=27.74, satellites=6, angle=10.0200, fixquality=1
$GPRMC,142216.250,A,4308.4420,N,07726.3685,W,27.48,9.61,050924,,,A*45
$GPGGA,142216.500,4308.4438,N,07726.3680,W,1,06,1.48,175.3,M,-34.4,M,,*51
lng=-77.439476, lat=43.140697, altitude=175.40, speed=27.48, satellites=6, angle=9.6100, fixquality=1
$GPRMC,142216.750,A,4308.4455,N,07726.3676,W,25.54,9.36,050924,,,A*43
$GPGGA,142217.000,4308.4471,N,07726.3671,W,1,06,1.35,175.3,M,-34.4,M,,*5C
lng=-77.439460, lat=43.140754, altitude=175.30, speed=25.54, satellites=6, angle=9.3600, fixquality=1
$GPRMC,142217.250,A,4308.4487,N,07726.3668,W,23.93,8.88,050924,,,A*4E
$GPGGA,142217.500,4308.4502,N,07726.3664,W,1,06,1.48,175.2,M,-34.4,M,,*53
lng=-77.439445, lat=43.140811, altitude=175.30, speed=23.93, satellites=6, angle=8.8800, fixquality=1
$GPRMC,142217.750,A,4308.4516,N,07726.3660,W,22.37,8.54,050924,,,A*44
$GPGGA,142218.000,4308.4530,N,07726.3656,W,1,06,1.48,175.1,M,-34.4,M,,*5A
lng=-77.439437, lat=43.140861, altitude=175.20, speed=22.37, satellites=6, angle=8.5400, fixquality=1
$GPRMC,142218.250,A,4308.4542,N,07726.3651,W,20.15,9.69,050924,,,A*40
$GPGGA,142218.500,4308.4553,N,07726.3646,W,1,07,1.42,175.1,M,-34.4,M,,*50
lng=-77.439422, lat=43.140903, altitude=175.10, speed=20.15, satellites=6, angle=9.6900, fixquality=1
$GPRMC,142218.750,A,4308.4564,N,07726.3642,W,17.87,10.00,050924,,,A*7B
$GPGGA,142219.000,4308.4573,N,07726.3638,W,1,07,1.42,175.0,M,-34.4,M,,*5E
lng=-77.439407, lat=43.140941, altitude=175.10, speed=17.87, satellites=7, angle=10.0000, fixquality=1
$GPRMC,142219.250,A,4308.4581,N,07726.3635,W,14.32,10.19,050924,,,A*71
$GPGGA,142219.500,4308.4586,N,07726.3629,W,1,07,1.42,175.0,M,-34.4,M,,*51
lng=-77.439384, lat=43.140968, altitude=175.00, speed=14.32, satellites=7, angle=10.1900, fixquality=1
$GPRMC,142219.750,A,4308.4591,N,07726.3622,W,11.37,10.58,050924,,,A*76
$GPGGA,142220.000,4308.4594,N,07726.3615,W,1,07,1.42,174.8,M,-34.4,M,,*5B
lng=-77.439369, lat=43.140983, altitude=175.00, speed=11.37, satellites=7, angle=10.5800, fixquality=1
$GPRMC,142220.250,A,4308.4597,N,07726.3612,W,7.16,7.03,050924,,,A*70
$GPGGA,142220.500,4308.4599,N,07726.3608,W,1,07,1.42,174.3,M,-34.4,M,,*54
lng=-77.439353, lat=43.140991, altitude=174.80, speed=7.16, satellites=7, angle=7.0300, fixquality=1
$GPRMC,142220.750,A,4308.4601,N,07726.3606,W,4.35,359.61,050924,,,A*72
$GPGGA,142221.000,4308.4601,N,07726.3606,W,1,07,1.42,173.8,M,-34.4,M,,*50
lng=-77.439346, lat=43.140998, altitude=174.30, speed=4.35, satellites=7, angle=359.6100, fixquality=1
$GPRMC,142221.250,A,4308.4600,N,07726.3605,W,0.11,359.61,050924,,,A*76
$GPGGA,142221.500,4308.4598,N,07726.3604,W,1,07,1.42,173.2,M,-34.4,M,,*5E
lng=-77.439338, lat=43.140998, altitude=173.80, speed=0.11, satellites=7, angle=359.6100, fixquality=1
$GPGGA,142223.250,4308.4587,N,07726.3603,W,1,07,1.27,171.6,M,-34.4,M,,*52
$GPRMC,142223.250,A,4308.4587,N,07726.3603,W,0.14,359.61,050924,,,A*7B
lng=-77.439338, lat=43.140975, altitude=171.60, speed=0.12, satellites=7, angle=359.6100, fixquality=1
$GPGGA,142223.500,4308.4586,N,07726.3603,W,1,07,1.27,171.4,M,-34.4,M,,*53
$GPRMC,142223.500,A,4308.4586,N,07726.3603,W,0.12,359.61,050924,,,A*7E
lng=-77.439338, lat=43.140975, altitude=171.40, speed=0.14, satellites=7, angle=359.6100, fixquality=1
$GPRMC,142229.250,A,4308.4594,N,07726.3605,W,3.69,345.86,050924,,,A*78
$GPGGA,142229.500,4308.4598,N,07726.3608,W,1,07,1.42,170.5,M,-34.4,M,,*5E
lng=-77.439338, lat=43.140991, altitude=170.60, speed=3.69, satellites=7, angle=345.8600, fixquality=1
$GPRMC,142229.750,A,4308.4603,N,07726.3609,W,5.04,339.78,050924,,,A*7B
$GPGGA,142230.000,4308.4606,N,07726.3612,W,1,07,1.42,170.3,M,-34.4,M,,*5A
lng=-77.439346, lat=43.141006, altitude=170.50, speed=5.04, satellites=7, angle=339.7800, fixquality=1
$GPRMC,142230.250,A,4308.4610,N,07726.3614,W,5.52,328.68,050924,,,A*7A
$GPGGA,142230.500,4308.4615,N,07726.3620,W,1,07,1.42,170.1,M,-34.4,M,,*5E
lng=-77.439353, lat=43.141014, altitude=170.30, speed=5.52, satellites=7, angle=328.6800, fixquality=1
$GPRMC,142230.750,A,4308.4620,N,07726.3627,W,7.71,315.80,050924,,,A*77
$GPGGA,142231.000,4308.4626,N,07726.3636,W,1,07,1.42,169.9,M,-34.4,M,,*5D
lng=-77.439376, lat=43.141033, altitude=170.10, speed=7.71, satellites=7, angle=315.8000, fixquality=1
$GPRMC,142231.250,A,4308.4631,N,07726.3645,W,10.08,304.21,050924,,,A*44
$GPGGA,142231.500,4308.4635,N,07726.3655,W,1,07,1.42,169.7,M,-34.4,M,,*51
lng=-77.439407, lat=43.141048, altitude=169.90, speed=10.08, satellites=7, angle=304.2100, fixquality=1
$GPRMC,142231.750,A,4308.4638,N,07726.3666,W,11.65,294.13,050924,,,A*4A
$GPGGA,142232.000,4308.4641,N,07726.3679,W,1,07,1.42,169.5,M,-34.4,M,,*58
lng=-77.439445, lat=43.141063, altitude=169.70, speed=11.65, satellites=7, angle=294.1300, fixquality=1
$GPRMC,142232.250,A,4308.4644,N,07726.3693,W,13.87,285.07,050924,,,A*46
$GPGGA,142232.500,4308.4646,N,07726.3708,W,1,07,1.42,169.2,M,-34.4,M,,*5A
lng=-77.439483, lat=43.141071, altitude=169.50, speed=13.87, satellites=7, angle=285.0700, fixquality=1
$GPRMC,142232.750,A,4308.4649,N,07726.3723,W,15.24,282.34,050924,,,A*4C
$GPGGA,142233.000,4308.4651,N,07726.3740,W,1,07,1.42,168.9,M,-34.4,M,,*5E
lng=-77.439537, lat=43.141078, altitude=169.20, speed=15.24, satellites=7, angle=282.3400, fixquality=1
$GPRMC,142233.250,A,4308.4653,N,07726.3757,W,17.30,276.80,050924,,,A*43
$GPGGA,142233.500,4308.4654,N,07726.3776,W,1,07,1.42,168.5,M,-34.4,M,,*57
lng=-77.439590, lat=43.141090, altitude=168.90, speed=17.30, satellites=7, angle=276.8000, fixquality=1
$GPRMC,142233.750,A,4308.4655,N,07726.3795,W,18.79,274.84,050924,,,A*4A
$GPGGA,142234.000,4308.4657,N,07726.3814,W,1,07,1.42,168.1,M,-34.4,M,,*59
lng=-77.439659, lat=43.141090, altitude=168.50, speed=18.79, satellites=7, angle=274.8400, fixquality=1
$GPRMC,142234.250,A,4308.4658,N,07726.3836,W,20.80,273.39,050924,,,A*4F
$GPGGA,142234.500,4308.4659,N,07726.3858,W,1,07,1.42,167.6,M,-34.4,M,,*52
lng=-77.439727, lat=43.141098, altitude=168.10, speed=20.80, satellites=7, angle=273.3900, fixquality=1
$GPRMC,142234.750,A,4308.4661,N,07726.3880,W,22.58,272.44,050924,,,A*41
$GPGGA,142235.000,4308.4663,N,07726.3904,W,1,07,1.42,167.1,M,-34.4,M,,*50
lng=-77.439804, lat=43.141105, altitude=167.60, speed=22.58, satellites=7, angle=272.4400, fixquality=1
$GPRMC,142235.250,A,4308.4666,N,07726.3928,W,24.48,273.88,050924,,,A*47
$GPGGA,142235.500,4308.4669,N,07726.3953,W,1,07,1.42,166.5,M,-34.4,M,,*58
lng=-77.439872, lat=43.141113, altitude=167.10, speed=24.48, satellites=7, angle=273.8800, fixquality=1
$GPRMC,142235.750,A,4308.4671,N,07726.3978,W,26.43,275.01,050924,,,A*4F
$GPGGA,142236.000,4308.4673,N,07726.4005,W,1,07,1.42,166.0,M,-34.4,M,,*5D
lng=-77.439964, lat=43.141120, altitude=166.50, speed=26.43, satellites=7, angle=275.0100, fixquality=1
$GPRMC,142236.250,A,4308.4676,N,07726.4033,W,28.81,276.02,050924,,,A*4F
$GPGGA,142236.500,4308.4680,N,07726.4061,W,1,07,1.43,165.3,M,-34.4,M,,*57
lng=-77.440055, lat=43.141128, altitude=166.00, speed=28.81, satellites=7, angle=276.0200, fixquality=1
$GPRMC,142236.750,A,4308.4682,N,07726.4090,W,30.36,277.19,050924,,,A*46
$GPGGA,142237.000,4308.4686,N,07726.4120,W,1,07,1.27,164.8,M,-34.4,M,,*59
lng=-77.440155, lat=43.141136, altitude=165.30, speed=30.36, satellites=7, angle=277.1900, fixquality=1
$GPRMC,142237.250,A,4308.4689,N,07726.4151,W,32.27,278.90,050924,,,A*49
$GPGGA,142237.500,4308.4693,N,07726.4183,W,1,07,1.43,164.2,M,-34.4,M,,*59
lng=-77.440254, lat=43.141147, altitude=164.80, speed=32.27, satellites=7, angle=278.9000, fixquality=1
$GPRMC,142237.750,A,4308.4697,N,07726.4215,W,33.93,279.22,050924,,,A*46
$GPGGA,142238.000,4308.4701,N,07726.4247,W,1,07,1.42,163.7,M,-34.4,M,,*51
lng=-77.440353, lat=43.141162, altitude=164.20, speed=33.93, satellites=7, angle=279.2200, fixquality=1
$GPRMC,142238.250,A,4308.4705,N,07726.4280,W,34.59,279.68,050924,,,A*45
$GPGGA,142238.500,4308.4710,N,07726.4313,W,1,07,1.42,163.2,M,-34.4,M,,*51
lng=-77.440467, lat=43.141178, altitude=163.70, speed=34.59, satellites=7, angle=279.6800, fixquality=1
$GPRMC,142238.750,A,4308.4714,N,07726.4346,W,34.93,280.41,050924,,,A*40
$GPGGA,142239.000,4308.4719,N,07726.4378,W,1,07,1.42,162.7,M,-34.4,M,,*55
lng=-77.440574, lat=43.141185, altitude=163.20, speed=34.93, satellites=7, angle=280.4100, fixquality=1
$GPRMC,142239.250,A,4308.4724,N,07726.4411,W,34.43,280.92,050924,,,A*41
$GPGGA,142239.500,4308.4729,N,07726.4442,W,1,07,1.43,162.2,M,-34.4,M,,*59
lng=-77.440681, lat=43.141201, altitude=162.70, speed=34.43, satellites=7, angle=280.9200, fixquality=1
$GPRMC,142239.750,A,4308.4733,N,07726.4474,W,34.52,281.88,050924,,,A*4B
$GPGGA,142240.000,4308.4737,N,07726.4506,W,1,07,1.42,161.9,M,-34.4,M,,*55
lng=-77.440788, lat=43.141220, altitude=162.20, speed=34.52, satellites=7, angle=281.8800, fixquality=1
$GPRMC,142240.250,A,4308.4741,N,07726.4537,W,32.93,281.46,050924,,,A*4A
$GPGGA,142240.500,4308.4744,N,07726.4568,W,1,07,1.42,161.6,M,-34.4,M,,*53
lng=-77.440895, lat=43.141235, altitude=161.90, speed=32.93, satellites=7, angle=281.4600, fixquality=1
$GPRMC,142240.750,A,4308.4748,N,07726.4599,W,32.26,279.69,050924,,,A*46
$GPGGA,142241.000,4308.4751,N,07726.4629,W,1,07,1.43,161.4,M,-34.4,M,,*56
lng=-77.441001, lat=43.141242, altitude=161.60, speed=32.26, satellites=7, angle=279.6900, fixquality=1
$GPRMC,142241.250,A,4308.4754,N,07726.4659,W,31.73,278.95,050924,,,A*41
$GPGGA,142241.500,4308.4756,N,07726.4690,W,1,07,1.43,161.2,M,-34.4,M,,*50
lng=-77.441093, lat=43.141258, altitude=161.40, speed=31.73, satellites=7, angle=278.9500, fixquality=1
$GPRMC,142241.750,A,4308.4758,N,07726.4720,W,31.55,277.86,050924,,,A*4E
$GPGGA,142242.000,4308.4761,N,07726.4751,W,1,07,1.43,161.1,M,-34.4,M,,*5D
lng=-77.441200, lat=43.141258, altitude=161.20, speed=31.55, satellites=7, angle=277.8600, fixquality=1
$GPRMC,142242.250,A,4308.4763,N,07726.4782,W,31.52,277.61,050924,,,A*46
$GPGGA,142242.500,4308.4765,N,07726.4814,W,1,07,1.43,161.2,M,-34.4,M,,*51
lng=-77.441299, lat=43.141269, altitude=161.10, speed=31.52, satellites=7, angle=277.6100, fixquality=1
$GPRMC,142242.750,A,4308.4768,N,07726.4846,W,31.64,277.16,050924,,,A*4A
$GPGGA,142243.000,4308.4770,N,07726.4877,W,1,07,1.42,161.3,M,-34.4,M,,*54
lng=-77.441406, lat=43.141277, altitude=161.20, speed=31.64, satellites=7, angle=277.1600, fixquality=1
$GPRMC,142243.250,A,4308.4772,N,07726.4910,W,31.82,276.26,050924,,,A*4D
$GPGGA,142243.500,4308.4775,N,07726.4942,W,1,07,1.43,161.3,M,-34.4,M,,*52
lng=-77.441520, lat=43.141284, altitude=161.30, speed=31.82, satellites=7, angle=276.2600, fixquality=1
$GPRMC,142243.750,A,4308.4777,N,07726.4974,W,33.61,275.94,050924,,,A*4A
$GPGGA,142244.000,4308.4780,N,07726.5007,W,1,07,1.43,161.2,M,-34.4,M,,*52
lng=-77.441627, lat=43.141292, altitude=161.30, speed=33.61, satellites=7, angle=275.9400, fixquality=1
$GPRMC,142244.250,A,4308.4782,N,07726.5040,W,33.29,275.01,050924,,,A*4D
$GPGGA,142244.500,4308.4784,N,07726.5073,W,1,07,1.43,161.1,M,-34.4,M,,*53
lng=-77.441734, lat=43.141300, altitude=161.20, speed=33.29, satellites=7, angle=275.0100, fixquality=1
$GPRMC,142244.750,A,4308.4786,N,07726.5106,W,33.88,274.24,050924,,,A*42
$GPGGA,142245.000,4308.4788,N,07726.5140,W,1,07,1.27,160.9,M,-34.4,M,,*51
lng=-77.441848, lat=43.141307, altitude=161.10, speed=33.88, satellites=7, angle=274.2400, fixquality=1
$GPRMC,142245.250,A,4308.4790,N,07726.5174,W,35.67,274.46,050924,,,A*47
$GPGGA,142245.500,4308.4792,N,07726.5209,W,1,07,1.43,160.7,M,-34.4,M,,*5D
lng=-77.441963, lat=43.141315, altitude=160.90, speed=35.67, satellites=7, angle=274.4600, fixquality=1
$GPRMC,142245.750,A,4308.4794,N,07726.5243,W,36.21,274.39,050924,,,A*48
$GPGGA,142246.000,4308.4795,N,07726.5278,W,1,07,1.43,160.6,M,-34.4,M,,*5B
lng=-77.442070, lat=43.141323, altitude=160.70, speed=36.21, satellites=7, angle=274.3900, fixquality=1
$GPRMC,142246.250,A,4308.4797,N,07726.5313,W,36.75,273.89,050924,,,A*44
$GPGGA,142246.500,4308.4799,N,07726.5348,W,1,07,1.43,160.4,M,-34.4,M,,*52
lng=-77.442184, lat=43.141323, altitude=160.60, speed=36.75, satellites=7, angle=273.8900, fixquality=1
$GPRMC,142246.750,A,4308.4800,N,07726.5383,W,36.97,273.89,050924,,,A*45
$GPGGA,142247.000,4308.4802,N,07726.5419,W,1,07,1.43,160.1,M,-34.4,M,,*5D
lng=-77.442298, lat=43.141334, altitude=160.40, speed=36.97, satellites=7, angle=273.8900, fixquality=1
$GPRMC,142247.250,A,4308.4804,N,07726.5454,W,36.98,273.66,050924,,,A*46
$GPGGA,142247.500,4308.4806,N,07726.5489,W,1,07,1.43,159.9,M,-34.4,M,,*57
lng=-77.442420, lat=43.141342, altitude=160.10, speed=36.98, satellites=7, angle=273.6600, fixquality=1
$GPRMC,142247.750,A,4308.4808,N,07726.5524,W,36.97,273.82,050924,,,A*4C
$GPGGA,142248.000,4308.4809,N,07726.5559,W,1,07,1.43,159.7,M,-34.4,M,,*50
lng=-77.442535, lat=43.141349, altitude=159.90, speed=36.97, satellites=7, angle=273.8200, fixquality=1
$GPRMC,142248.250,A,4308.4810,N,07726.5595,W,36.98,273.32,050924,,,A*41
$GPGGA,142248.500,4308.4812,N,07726.5629,W,1,07,1.43,159.4,M,-34.4,M,,*58
lng=-77.442657, lat=43.141349, altitude=159.70, speed=36.98, satellites=7, angle=273.3200, fixquality=1
$GPRMC,142248.750,A,4308.4813,N,07726.5664,W,36.59,272.75,050924,,,A*45
$GPGGA,142249.000,4308.4814,N,07726.5699,W,1,07,1.43,159.1,M,-34.4,M,,*54
lng=-77.442771, lat=43.141357, altitude=159.40, speed=36.59, satellites=7, angle=272.7500, fixquality=1
$GPRMC,142249.250,A,4308.4816,N,07726.5733,W,36.21,273.13,050924,,,A*49
$GPGGA,142249.500,4308.4817,N,07726.5767,W,1,07,1.43,158.8,M,-34.4,M,,*5A
lng=-77.442886, lat=43.141357, altitude=159.10, speed=36.21, satellites=7, angle=273.1300, fixquality=1
$GPRMC,142249.750,A,4308.4819,N,07726.5802,W,35.97,273.25,050924,,,A*45
$GPGGA,142250.000,4308.4820,N,07726.5835,W,1,07,1.43,158.6,M,-34.4,M,,*55
lng=-77.443000, lat=43.141365, altitude=158.80, speed=35.97, satellites=7, angle=273.2500, fixquality=1
$GPRMC,142250.250,A,4308.4822,N,07726.5869,W,35.36,273.19,050924,,,A*49
$GPGGA,142250.500,4308.4823,N,07726.5902,W,1,07,1.43,158.3,M,-34.4,M,,*53
lng=-77.443115, lat=43.141372, altitude=158.60, speed=35.36, satellites=7, angle=273.1900, fixquality=1
$GPRMC,142250.750,A,4308.4825,N,07726.5935,W,35.06,273.30,050924,,,A*4B
$GPGGA,142251.000,4308.4826,N,07726.5968,W,1,07,1.27,158.0,M,-34.4,M,,*5F
lng=-77.443222, lat=43.141372, altitude=158.30, speed=35.06, satellites=7, angle=273.3000, fixquality=1
$GPRMC,142251.250,A,4308.4827,N,07726.6001,W,34.81,273.30,050924,,,A*4E
$GPGGA,142251.500,4308.4829,N,07726.6034,W,1,07,1.43,157.8,M,-34.4,M,,*53
lng=-77.443336, lat=43.141380, altitude=158.00, speed=34.81, satellites=7, angle=273.3000, fixquality=1
$GPRMC,142251.750,A,4308.4830,N,07726.6066,W,34.16,273.04,050924,,,A*45
$GPGGA,142252.000,4308.4831,N,07726.6098,W,1,07,1.43,157.6,M,-34.4,M,,*54
lng=-77.443443, lat=43.141380, altitude=157.80, speed=34.16, satellites=7, angle=273.0400, fixquality=1
$GPRMC,142252.250,A,4308.4831,N,07726.6130,W,33.89,272.03,050924,,,A*47
$GPGGA,142252.500,4308.4831,N,07726.6162,W,1,07,1.43,157.4,M,-34.4,M,,*57
lng=-77.443550, lat=43.141380, altitude=157.60, speed=33.89, satellites=7, angle=272.0300, fixquality=1
$GPRMC,142252.750,A,4308.4832,N,07726.6195,W,33.59,271.31,050924,,,A*41
$GPGGA,142253.000,4308.4831,N,07726.6227,W,1,07,1.27,157.6,M,-34.4,M,,*51
lng=-77.443656, lat=43.141391, altitude=157.40, speed=33.59, satellites=7, angle=271.3100, fixquality=1
$GPRMC,142253.250,A,4308.4831,N,07726.6259,W,33.22,270.57,050924,,,A*48
$GPGGA,142253.500,4308.4831,N,07726.6291,W,1,07,1.43,157.5,M,-34.4,M,,*58
lng=-77.443763, lat=43.141380, altitude=157.60, speed=33.22, satellites=7, angle=270.5700, fixquality=1
$GPRMC,142253.750,A,4308.4832,N,07726.6323,W,33.25,270.33,050924,,,A*47
$GPGGA,142254.000,4308.4831,N,07726.6356,W,1,07,1.43,157.3,M,-34.4,M,,*56
lng=-77.443870, lat=43.141391, altitude=157.50, speed=33.25, satellites=7, angle=270.3300, fixquality=1
$GPRMC,142254.250,A,4308.4831,N,07726.6388,W,33.35,269.54,050924,,,A*4F
$GPGGA,142254.500,4308.4830,N,07726.6421,W,1,07,1.43,157.1,M,-34.4,M,,*57
lng=-77.443977, lat=43.141380, altitude=157.30, speed=33.35, satellites=7, angle=269.5400, fixquality=1
$GPRMC,142254.750,A,4308.4829,N,07726.6455,W,34.78,268.80,050924,,,A*42
$GPGGA,142255.000,4308.4828,N,07726.6488,W,1,07,1.43,156.8,M,-34.4,M,,*51
lng=-77.444091, lat=43.141380, altitude=157.10, speed=34.78, satellites=7, angle=268.8000, fixquality=1
$GPRMC,142255.250,A,4308.4827,N,07726.6522,W,34.94,267.92,050924,,,A*47
$GPGGA,142255.500,4308.4826,N,07726.6556,W,1,07,1.43,156.5,M,-34.4,M,,*55
lng=-77.444206, lat=43.141380, altitude=156.80, speed=34.94, satellites=7, angle=267.9200, fixquality=1
$GPRMC,142255.750,A,4308.4824,N,07726.6590,W,35.60,267.18,050924,,,A*40
$GPGGA,142256.000,4308.4823,N,07726.6624,W,1,07,1.43,156.2,M,-34.4,M,,*57
lng=-77.444320, lat=43.141372, altitude=156.50, speed=35.60, satellites=7, angle=267.1800, fixquality=1
$GPRMC,142256.250,A,4308.4821,N,07726.6659,W,36.09,266.15,050924,,,A*45
$GPGGA,142256.500,4308.4819,N,07726.6694,W,1,07,1.43,155.9,M,-34.4,M,,*58
lng=-77.444435, lat=43.141365, altitude=156.20, speed=36.09, satellites=7, angle=266.1500, fixquality=1
$GPRMC,142256.750,A,4308.4816,N,07726.6728,W,36.17,265.79,050924,,,A*45
$GPGGA,142257.000,4308.4814,N,07726.6763,W,1,07,1.43,155.7,M,-34.4,M,,*56
lng=-77.444549, lat=43.141357, altitude=155.90, speed=36.17, satellites=7, angle=265.7900, fixquality=1
$GPRMC,142257.250,A,4308.4812,N,07726.6798,W,36.58,265.24,050924,,,A*4D
$GPGGA,142257.500,4308.4809,N,07726.6833,W,1,07,1.43,155.5,M,-34.4,M,,*57
lng=-77.444664, lat=43.141349, altitude=155.70, speed=36.58, satellites=7, angle=265.2400, fixquality=1
$GPRMC,142257.750,A,4308.4807,N,07726.6869,W,36.68,264.80,050924,,,A*41
$GPGGA,142258.000,4308.4804,N,07726.6904,W,1,07,1.43,155.5,M,-34.4,M,,*55
lng=-77.444786, lat=43.141342, altitude=155.50, speed=36.68, satellites=7, angle=264.8000, fixquality=1
$GPRMC,142258.250,A,4308.4802,N,07726.6939,W,36.87,264.84,050924,,,A*4F
$GPGGA,142258.500,4308.4800,N,07726.6975,W,1,07,1.43,155.4,M,-34.4,M,,*53
lng=-77.444900, lat=43.141334, altitude=155.50, speed=36.87, satellites=7, angle=264.8400, fixquality=1
$GPRMC,142258.750,A,4308.4798,N,07726.7010,W,36.99,265.10,050924,,,A*46
$GPGGA,142259.000,4308.4796,N,07726.7045,W,1,07,1.43,155.4,M,-34.4,M,,*5C
lng=-77.445022, lat=43.141334, altitude=155.40, speed=36.99, satellites=7, angle=265.1000, fixquality=1
$GPRMC,142259.250,A,4308.4793,N,07726.7080,W,36.71,264.98,050924,,,A*47
$GPGGA,142259.500,4308.4791,N,07726.7115,W,1,07,1.43,155.4,M,-34.4,M,,*5A
lng=-77.445137, lat=43.141323, altitude=155.40, speed=36.71, satellites=7, angle=264.9800, fixquality=1
$GPRMC,142259.750,A,4308.4789,N,07726.7151,W,36.92,265.25,050924,,,A*4E
$GPGGA,142300.000,4308.4787,N,07726.7187,W,1,07,1.43,155.4,M,-34.4,M,,*5E
lng=-77.445259, lat=43.141315, altitude=155.40, speed=36.92, satellites=7, angle=265.2500, fixquality=1
$GPRMC,142300.250,A,4308.4785,N,07726.7223,W,37.36,265.72,050924,,,A*41
$GPGGA,142300.500,4308.4783,N,07726.7259,W,1,07,1.43,155.4,M,-34.4,M,,*5F
lng=-77.445365, lat=43.141307, altitude=155.40, speed=37.36, satellites=7, angle=265.7200, fixquality=1
$GPRMC,142300.750,A,4308.4781,N,07726.7294,W,37.47,265.42,050924,,,A*49
$GPGGA,142301.000,4308.4779,N,07726.7329,W,1,07,1.43,155.6,M,-34.4,M,,*5A
lng=-77.445487, lat=43.141300, altitude=155.40, speed=37.47, satellites=7, angle=265.4200, fixquality=1
$GPRMC,142301.250,A,4308.4777,N,07726.7365,W,37.27,265.05,050924,,,A*4E
$GPGGA,142301.500,4308.4775,N,07726.7401,W,1,07,1.43,155.7,M,-34.4,M,,*5F
lng=-77.445602, lat=43.141292, altitude=155.60, speed=37.27, satellites=7, angle=265.0500, fixquality=1
$GPRMC,142301.750,A,4308.4773,N,07726.7437,W,37.50,265.07,050924,,,A*4D
$GPGGA,142302.000,4308.4772,N,07726.7473,W,1,07,1.43,155.8,M,-34.4,M,,*54
lng=-77.445724, lat=43.141292, altitude=155.70, speed=37.50, satellites=7, angle=265.0700, fixquality=1
$GPRMC,142302.250,A,4308.4769,N,07726.7509,W,37.58,265.68,050924,,,A*4D
$GPGGA,142302.500,4308.4768,N,07726.7545,W,1,07,1.43,155.9,M,-34.4,M,,*5F
lng=-77.445846, lat=43.141284, altitude=155.80, speed=37.58, satellites=7, angle=265.6800, fixquality=1
$GPRMC,142302.750,A,4308.4766,N,07726.7582,W,37.87,266.27,050924,,,A*4E
$GPGGA,142303.000,4308.4765,N,07726.7619,W,1,07,1.27,155.9,M,-34.4,M,,*5E
lng=-77.445968, lat=43.141277, altitude=155.90, speed=37.87, satellites=7, angle=266.2700, fixquality=1
$GPRMC,142303.250,A,4308.4763,N,07726.7655,W,38.17,266.55,050924,,,A*45
$GPGGA,142303.500,4308.4761,N,07726.7692,W,1,07,1.43,156.0,M,-34.4,M,,*54
lng=-77.446090, lat=43.141269, altitude=155.90, speed=38.17, satellites=7, angle=266.5500, fixquality=1
$GPRMC,142303.750,A,4308.4760,N,07726.7728,W,38.25,266.91,050924,,,A*41
$GPGGA,142304.000,4308.4758,N,07726.7764,W,1,07,1.43,156.1,M,-34.4,M,,*55
lng=-77.446212, lat=43.141269, altitude=156.00, speed=38.25, satellites=7, angle=266.9100, fixquality=1
$GPRMC,142304.250,A,4308.4756,N,07726.7800,W,38.17,266.50,050924,,,A*4F
$GPGGA,142304.500,4308.4754,N,07726.7837,W,1,07,1.43,156.2,M,-34.4,M,,*56
lng=-77.446327, lat=43.141258, altitude=156.10, speed=38.17, satellites=7, angle=266.5000, fixquality=1
$GPRMC,142304.750,A,4308.4752,N,07726.7873,W,38.10,266.15,050924,,,A*4C
$GPGGA,142305.000,4308.4750,N,07726.7909,W,1,07,1.43,156.2,M,-34.4,M,,*5A
lng=-77.446449, lat=43.141250, altitude=156.20, speed=38.10, satellites=7, angle=266.1500, fixquality=1
$GPRMC,142305.250,A,4308.4748,N,07726.7945,W,38.04,266.07,050924,,,A*41
$GPGGA,142305.500,4308.4746,N,07726.7981,W,1,07,1.43,156.1,M,-34.4,M,,*5B
lng=-77.446571, lat=43.141242, altitude=156.20, speed=38.04, satellites=7, angle=266.0700, fixquality=1
$GPRMC,142305.750,A,4308.4744,N,07726.8017,W,37.74,266.20,050924,,,A*44
$GPGGA,142306.000,4308.4742,N,07726.8053,W,1,07,1.43,156.0,M,-34.4,M,,*51
lng=-77.446693, lat=43.141242, altitude=156.10, speed=37.74, satellites=7, angle=266.2000, fixquality=1
$GPRMC,142306.250,A,4308.4740,N,07726.8089,W,37.74,266.23,050924,,,A*42
$GPGGA,142306.500,4308.4739,N,07726.8125,W,1,07,1.43,155.9,M,-34.4,M,,*52
lng=-77.446815, lat=43.141235, altitude=156.00, speed=37.74, satellites=7, angle=266.2300, fixquality=1
$GPRMC,142306.750,A,4308.4737,N,07726.8161,W,37.76,266.25,050924,,,A*44
$GPGGA,142307.000,4308.4735,N,07726.8197,W,1,07,1.43,155.8,M,-34.4,M,,*52
lng=-77.446929, lat=43.141227, altitude=155.90, speed=37.76, satellites=7, angle=266.2500, fixquality=1
$GPRMC,142307.250,A,4308.4732,N,07726.8232,W,37.54,265.12,050924,,,A*47
$GPGGA,142307.500,4308.4729,N,07726.8267,W,1,07,1.43,155.6,M,-34.4,M,,*58
lng=-77.447052, lat=43.141220, altitude=155.80, speed=37.54, satellites=7, angle=265.1200, fixquality=1
$GPRMC,142307.750,A,4308.4726,N,07726.8302,W,37.55,264.15,050924,,,A*42
$GPGGA,142308.000,4308.4724,N,07726.8337,W,1,07,1.43,155.5,M,-34.4,M,,*58
lng=-77.447166, lat=43.141212, altitude=155.60, speed=37.55, satellites=7, angle=264.1500, fixquality=1
$GPRMC,142308.250,A,4308.4721,N,07726.8372,W,37.41,264.19,050924,,,A*41
$GPGGA,142308.500,4308.4719,N,07726.8407,W,1,07,1.43,155.5,M,-34.4,M,,*57
lng=-77.447288, lat=43.141201, altitude=155.50, speed=37.41, satellites=7, angle=264.1900, fixquality=1
$GPRMC,142308.750,A,4308.4717,N,07726.8442,W,37.08,264.24,050924,,,A*46
$GPGGA,142309.000,4308.4715,N,07726.8476,W,1,07,1.43,155.4,M,-34.4,M,,*58
lng=-77.447402, lat=43.141193, altitude=155.50, speed=37.08, satellites=7, angle=264.2400, fixquality=1
$GPRMC,142309.250,A,4308.4713,N,07726.8512,W,37.14,264.72,050924,,,A*4C
$GPGGA,142309.500,4308.4710,N,07726.8547,W,1,07,1.43,155.2,M,-34.4,M,,*5D
lng=-77.447517, lat=43.141185, altitude=155.40, speed=37.14, satellites=7, angle=264.7200, fixquality=1
$GPRMC,142309.750,A,4308.4709,N,07726.8582,W,37.45,265.06,050924,,,A*4D
$GPGGA,142310.000,4308.4707,N,07726.8618,W,1,07,1.43,155.1,M,-34.4,M,,*5C
lng=-77.447639, lat=43.141178, altitude=155.20, speed=37.45, satellites=7, angle=265.0600, fixquality=1
$GPRMC,142310.250,A,4308.4705,N,07726.8654,W,37.80,264.89,050924,,,A*4B
$GPGGA,142310.500,4308.4703,N,07726.8689,W,1,07,1.43,154.9,M,-34.4,M,,*5C
lng=-77.447753, lat=43.141178, altitude=155.10, speed=37.80, satellites=7, angle=264.8900, fixquality=1
$GPRMC,142310.750,A,4308.4701,N,07726.8725,W,37.79,264.77,050924,,,A*4A
$GPGGA,142311.000,4308.4698,N,07726.8761,W,1,07,1.43,154.8,M,-34.4,M,,*5D
lng=-77.447875, lat=43.141170, altitude=154.90, speed=37.79, satellites=7, angle=264.7700, fixquality=1
$GPRMC,142311.250,A,4308.4696,N,07726.8797,W,37.84,264.89,050924,,,A*4B
$GPGGA,142311.500,4308.4694,N,07726.8833,W,1,07,1.43,154.8,M,-34.4,M,,*5C
lng=-77.447998, lat=43.141162, altitude=154.80, speed=37.84, satellites=7, angle=264.8900, fixquality=1
$GPRMC,142311.750,A,4308.4692,N,07726.8870,W,38.06,265.40,050924,,,A*4D
$GPGGA,142312.000,4308.4690,N,07726.8906,W,1,07,1.43,154.7,M,-34.4,M,,*56
lng=-77.448120, lat=43.141155, altitude=154.80, speed=38.06, satellites=7, angle=265.4000, fixquality=1
$GPRMC,142312.250,A,4308.4688,N,07726.8942,W,38.19,265.65,050924,,,A*49
$GPGGA,142312.500,4308.4685,N,07726.8979,W,1,07,1.43,154.6,M,-34.4,M,,*5E
lng=-77.448234, lat=43.141147, altitude=154.70, speed=38.19, satellites=7, angle=265.6500, fixquality=1
$GPRMC,142312.750,A,4308.4683,N,07726.9015,W,38.41,265.50,050924,,,A*46
$GPGGA,142313.000,4308.4681,N,07726.9051,W,1,07,1.43,154.5,M,-34.4,M,,*5F
lng=-77.448356, lat=43.141136, altitude=154.60, speed=38.41, satellites=7, angle=265.5000, fixquality=1
$GPRMC,142313.250,A,4308.4679,N,07726.9087,W,38.29,265.68,050924,,,A*49
$GPGGA,142313.500,4308.4677,N,07726.9124,W,1,07,1.43,154.4,M,-34.4,M,,*51
lng=-77.448478, lat=43.141128, altitude=154.50, speed=38.29, satellites=7, angle=265.6800, fixquality=1
$GPRMC,142313.750,A,4308.4675,N,07726.9160,W,38.19,265.33,050924,,,A*45
$GPGGA,142314.000,4308.4673,N,07726.9196,W,1,07,1.43,154.3,M,-34.4,M,,*59
lng=-77.448600, lat=43.141120, altitude=154.40, speed=38.19, satellites=7, angle=265.3300, fixquality=1
$GPRMC,142314.250,A,4308.4671,N,07726.9232,W,38.14,265.60,050924,,,A*4C
$GPGGA,142314.500,4308.4668,N,07726.9268,W,1,07,1.43,154.1,M,-34.4,M,,*56
lng=-77.448722, lat=43.141120, altitude=154.30, speed=38.14, satellites=7, angle=265.6000, fixquality=1
$GPRMC,142314.750,A,4308.4666,N,07726.9304,W,38.34,265.14,050924,,,A*4A
$GPGGA,142315.000,4308.4663,N,07726.9341,W,1,07,1.43,153.9,M,-34.4,M,,*5C
lng=-77.448837, lat=43.141113, altitude=154.10, speed=38.34, satellites=7, angle=265.1400, fixquality=1
$GPRMC,142315.250,A,4308.4661,N,07726.9378,W,38.80,264.54,050924,,,A*48
$GPGGA,142315.500,4308.4658,N,07726.9414,W,1,07,1.43,153.7,M,-34.4,M,,*58
lng=-77.448966, lat=43.141105, altitude=153.90, speed=38.80, satellites=7, angle=264.5400, fixquality=1
$GPRMC,142315.750,A,4308.4655,N,07726.9451,W,38.95,264.63,050924,,,A*46
$GPGGA,142316.000,4308.4653,N,07726.9487,W,1,07,1.43,153.6,M,-34.4,M,,*5E
lng=-77.449089, lat=43.141090, altitude=153.70, speed=38.95, satellites=7, angle=264.6300, fixquality=1
$GPRMC,142316.250,A,4308.4650,N,07726.9524,W,38.80,264.82,050924,,,A*4D
$GPGGA,142316.500,4308.4648,N,07726.9561,W,1,07,1.43,153.5,M,-34.4,M,,*5B
lng=-77.449211, lat=43.141078, altitude=153.60, speed=38.80, satellites=7, angle=264.8200, fixquality=1
$GPRMC,142316.750,A,4308.4645,N,07726.9597,W,39.05,264.68,050924,,,A*4C
$GPGGA,142317.000,4308.4642,N,07726.9634,W,1,07,1.43,153.5,M,-34.4,M,,*56
lng=-77.449325, lat=43.141071, altitude=153.50, speed=39.05, satellites=7, angle=264.6800, fixquality=1
$GPRMC,142317.250,A,4308.4640,N,07726.9671,W,39.13,264.49,050924,,,A*42
$GPGGA,142317.500,4308.4637,N,07726.9708,W,1,07,1.43,153.4,M,-34.4,M,,*5E
lng=-77.449455, lat=43.141063, altitude=153.50, speed=39.13, satellites=7, angle=264.4900, fixquality=1
$GPRMC,142317.750,A,4308.4634,N,07726.9745,W,38.94,264.50,050924,,,A*44
$GPGGA,142318.000,4308.4631,N,07726.9781,W,1,07,1.43,153.2,M,-34.4,M,,*55
lng=-77.449577, lat=43.141056, altitude=153.40, speed=38.94, satellites=7, angle=264.5000, fixquality=1
$GPRMC,142318.250,A,4308.4629,N,07726.9818,W,38.70,264.89,050924,,,A*4B
$GPGGA,142318.500,4308.4626,N,07726.9854,W,1,07,1.43,153.0,M,-34.4,M,,*53
lng=-77.449699, lat=43.141048, altitude=153.20, speed=38.70, satellites=7, angle=264.8900, fixquality=1
$GPRMC,142318.750,A,4308.4624,N,07726.9891,W,38.65,264.77,050924,,,A*47
$GPGGA,142319.000,4308.4621,N,07726.9927,W,1,07,1.43,152.8,M,-34.4,M,,*5C
lng=-77.449821, lat=43.141040, altitude=153.00, speed=38.65, satellites=7, angle=264.7700, fixquality=1
$GPRMC,142319.250,A,4308.4619,N,07726.9964,W,38.44,264.90,050924,,,A*4C
$GPGGA,142319.500,4308.4616,N,07727.0001,W,1,07,1.43,152.7,M,-34.4,M,,*57
lng=-77.449943, lat=43.141033, altitude=152.80, speed=38.44, satellites=7, angle=264.9000, fixquality=1
$GPRMC,142319.750,A,4308.4614,N,07727.0038,W,38.61,264.95,050924,,,A*4E
$GPGGA,142320.000,4308.4612,N,07727.0075,W,1,07,1.43,152.7,M,-34.4,M,,*5F
lng=-77.450065, lat=43.141025, altitude=152.70, speed=38.61, satellites=7, angle=264.9500, fixquality=1
$GPRMC,142320.250,A,4308.4610,N,07727.0112,W,38.80,265.15,050924,,,A*4A
$GPGGA,142320.500,4308.4607,N,07727.0150,W,1,07,1.43,152.8,M,-34.4,M,,*57
lng=-77.450187, lat=43.141014, altitude=152.70, speed=38.80, satellites=7, angle=265.1500, fixquality=1
$GPRMC,142320.750,A,4308.4605,N,07727.0187,W,39.08,265.36,050924,,,A*47
$GPGGA,142321.000,4308.4604,N,07727.0225,W,1,07,1.43,152.8,M,-34.4,M,,*51
lng=-77.450309, lat=43.141006, altitude=152.80, speed=39.08, satellites=7, angle=265.3600, fixquality=1
$GPRMC,142321.250,A,4308.4602,N,07727.0262,W,39.27,266.03,050924,,,A*44
$GPGGA,142321.500,4308.4600,N,07727.0299,W,1,07,1.43,152.8,M,-34.4,M,,*57
lng=-77.450439, lat=43.140998, altitude=152.80, speed=39.27, satellites=7, angle=266.0300, fixquality=1
$GPRMC,142321.750,A,4308.4599,N,07727.0335,W,39.37,266.66,050924,,,A*41
$GPGGA,142322.000,4308.4598,N,07727.0372,W,1,07,1.43,152.8,M,-34.4,M,,*57
lng=-77.450561, lat=43.140998, altitude=152.80, speed=39.37, satellites=7, angle=266.6600, fixquality=1
$GPRMC,142322.250,A,4308.4597,N,07727.0408,W,39.07,267.15,050924,,,A*46
$GPGGA,142322.500,4308.4596,N,07727.0444,W,1,07,1.43,152.7,M,-34.4,M,,*51
lng=-77.450683, lat=43.140991, altitude=152.80, speed=39.07, satellites=7, angle=267.1500, fixquality=1
$GPRMC,142322.750,A,4308.4596,N,07727.0480,W,38.15,268.24,050924,,,A*4D
$GPGGA,142323.000,4308.4596,N,07727.0516,W,1,07,1.43,152.9,M,-34.4,M,,*5D
lng=-77.450798, lat=43.140991, altitude=152.70, speed=38.15, satellites=7, angle=268.2400, fixquality=1
$GPRMC,142323.250,A,4308.4596,N,07727.0553,W,37.95,269.76,050924,,,A*47
$GPGGA,142323.500,4308.4597,N,07727.0590,W,1,07,1.43,153.4,M,-34.4,M,,*5B
lng=-77.450920, lat=43.140991, altitude=152.90, speed=37.95, satellites=7, angle=269.7600, fixquality=1
$GPRMC,142323.750,A,4308.4598,N,07727.0626,W,37.75,271.12,050924,,,A*48
$GPGGA,142324.000,4308.4599,N,07727.0663,W,1,07,1.43,153.5,M,-34.4,M,,*59
lng=-77.451042, lat=43.140998, altitude=153.40, speed=37.75, satellites=7, angle=271.1200, fixquality=1
$GPRMC,142324.250,A,4308.4600,N,07727.0699,W,37.81,272.19,050924,,,A*4F
$GPGGA,142324.500,4308.4602,N,07727.0735,W,1,07,1.43,153.5,M,-34.4,M,,*5F
lng=-77.451164, lat=43.140998, altitude=153.50, speed=37.81, satellites=7, angle=272.1900, fixquality=1
$GPRMC,142324.750,A,4308.4603,N,07727.0771,W,38.44,272.90,050924,,,A*49
$GPGGA,142325.000,4308.4605,N,07727.0808,W,1,07,1.43,153.6,M,-34.4,M,,*5E
lng=-77.451286, lat=43.141006, altitude=153.50, speed=38.44, satellites=7, angle=272.9000, fixquality=1
$GPRMC,142325.250,A,4308.4607,N,07727.0845,W,38.51,274.13,050924,,,A*48
$GPGGA,142325.500,4308.4609,N,07727.0882,W,1,07,1.43,153.7,M,-34.4,M,,*54
lng=-77.451408, lat=43.141014, altitude=153.60, speed=38.51, satellites=7, angle=274.1300, fixquality=1
$GPRMC,142325.750,A,4308.4612,N,07727.0919,W,38.79,275.14,050924,,,A*4D
$GPGGA,142326.000,4308.4615,N,07727.0956,W,1,07,1.43,153.8,M,-34.4,M,,*58
lng=-77.451530, lat=43.141025, altitude=153.70, speed=38.79, satellites=7, angle=275.1400, fixquality=1
$GPRMC,142326.250,A,4308.4618,N,07727.0993,W,38.93,276.22,050924,,,A*41
$GPGGA,142326.500,4308.4621,N,07727.1030,W,1,07,1.43,153.9,M,-34.4,M,,*53
lng=-77.451652, lat=43.141033, altitude=153.80, speed=38.93, satellites=7, angle=276.2200, fixquality=1
$GPRMC,142326.750,A,4308.4625,N,07727.1067,W,39.06,276.92,050924,,,A*4F
$GPGGA,142327.000,4308.4628,N,07727.1104,W,1,07,1.27,154.0,M,-34.4,M,,*54
lng=-77.451782, lat=43.141040, altitude=153.90, speed=39.06, satellites=7, angle=276.9200, fixquality=1
$GPRMC,142327.250,A,4308.4632,N,07727.1141,W,39.16,278.07,050924,,,A*4B
$GPGGA,142327.500,4308.4636,N,07727.1178,W,1,07,1.43,154.2,M,-34.4,M,,*55
lng=-77.451904, lat=43.141056, altitude=154.00, speed=39.16, satellites=7, angle=278.0700, fixquality=1
$GPRMC,142327.750,A,4308.4641,N,07727.1215,W,39.50,279.12,050924,,,A*4F
$GPGGA,142328.000,4308.4646,N,07727.1252,W,1,07,1.44,154.3,M,-34.4,M,,*55
lng=-77.452026, lat=43.141063, altitude=154.20, speed=39.50, satellites=7, angle=279.1200, fixquality=1
$GPRMC,142328.250,A,4308.4651,N,07727.1289,W,39.52,280.20,050924,,,A*44
$GPGGA,142328.500,4308.4655,N,07727.1326,W,1,07,1.43,154.3,M,-34.4,M,,*57
lng=-77.452148, lat=43.141090, altitude=154.30, speed=39.52, satellites=7, angle=280.2000, fixquality=1
$GPRMC,142328.750,A,4308.4660,N,07727.1362,W,39.55,280.43,050924,,,A*45
$GPGGA,142329.000,4308.4665,N,07727.1399,W,1,07,1.27,154.4,M,-34.4,M,,*51
lng=-77.452270, lat=43.141098, altitude=154.30, speed=39.55, satellites=7, angle=280.4300, fixquality=1
$GPRMC,142329.250,A,4308.4669,N,07727.1436,W,39.29,280.43,050924,,,A*45
$GPGGA,142329.500,4308.4674,N,07727.1472,W,1,07,1.43,154.5,M,-34.4,M,,*55
lng=-77.452392, lat=43.141113, altitude=154.40, speed=39.29, satellites=7, angle=280.4300, fixquality=1
$GPRMC,142329.750,A,4308.4678,N,07727.1509,W,39.02,280.02,050924,,,A*41
$GPGGA,142330.000,4308.4682,N,07727.1545,W,1,07,1.43,154.6,M,-34.4,M,,*57
lng=-77.452514, lat=43.141128, altitude=154.50, speed=39.02, satellites=7, angle=280.0200, fixquality=1
$GPRMC,142330.250,A,4308.4687,N,07727.1581,W,38.65,279.79,050924,,,A*46
$GPGGA,142330.500,4308.4691,N,07727.1617,W,1,07,1.43,154.6,M,-34.4,M,,*54
lng=-77.452636, lat=43.141147, altitude=154.60, speed=38.65, satellites=7, angle=279.7900, fixquality=1
$GPRMC,142330.750,A,4308.4696,N,07727.1653,W,38.63,280.24,050924,,,A*47
$GPGGA,142331.000,4308.4700,N,07727.1689,W,1,07,1.43,154.7,M,-34.4,M,,*5F
lng=-77.452758, lat=43.141162, altitude=154.60, speed=38.63, satellites=7, angle=280.2400, fixquality=1
$GPRMC,142331.250,A,4308.4704,N,07727.1725,W,38.71,280.36,050924,,,A*49
$GPGGA,142331.500,4308.4709,N,07727.1761,W,1,07,1.43,154.8,M,-34.4,M,,*5B
lng=-77.452873, lat=43.141170, altitude=154.70, speed=38.71, satellites=7, angle=280.3600, fixquality=1
$GPRMC,142331.750,A,4308.4714,N,07727.1797,W,38.75,280.65,050924,,,A*46
$GPGGA,142332.000,4308.4719,N,07727.1832,W,1,07,1.43,155.0,M,-34.4,M,,*5C
lng=-77.452995, lat=43.141185, altitude=154.80, speed=38.75, satellites=7, angle=280.6500, fixquality=1
$GPRMC,142332.250,A,4308.4723,N,07727.1868,W,38.69,281.00,050924,,,A*44
$GPGGA,142332.500,4308.4728,N,07727.1904,W,1,07,1.44,155.2,M,-34.4,M,,*5A
lng=-77.453117, lat=43.141201, altitude=155.00, speed=38.69, satellites=7, angle=281.0000, fixquality=1
$GPRMC,142332.750,A,4308.4733,N,07727.1940,W,38.50,280.63,050924,,,A*45
$GPGGA,142333.000,4308.4738,N,07727.1975,W,1,07,1.44,155.4,M,-34.4,M,,*5F
lng=-77.453231, lat=43.141220, altitude=155.20, speed=38.50, satellites=7, angle=280.6300, fixquality=1
$GPRMC,142333.250,A,4308.4742,N,07727.2011,W,38.13,279.90,050924,,,A*44
$GPGGA,142333.500,4308.4745,N,07727.2046,W,1,07,1.44,155.7,M,-34.4,M,,*59
lng=-77.453353, lat=43.141235, altitude=155.40, speed=38.13, satellites=7, angle=279.9000, fixquality=1
$GPRMC,142333.750,A,4308.4749,N,07727.2081,W,37.17,279.54,050924,,,A*40
$GPGGA,142334.000,4308.4754,N,07727.2112,W,1,07,1.27,156.0,M,-34.4,M,,*5A
lng=-77.453468, lat=43.141250, altitude=155.70, speed=37.17, satellites=7, angle=279.5400, fixquality=1
$GPRMC,142334.250,A,4308.4759,N,07727.2142,W,35.99,282.76,050924,,,A*4D
$GPGGA,142334.500,4308.4763,N,07727.2168,W,1,07,1.27,156.3,M,-34.4,M,,*55
lng=-77.453575, lat=43.141269, altitude=156.00, speed=35.99, satellites=7, angle=282.7600, fixquality=1
$GPRMC,142334.750,A,4308.4766,N,07727.2192,W,28.15,285.73,050924,,,A*43
$GPGGA,142335.000,4308.4769,N,07727.2213,W,1,07,1.27,156.4,M,-34.4,M,,*53
lng=-77.453651, lat=43.141277, altitude=156.30, speed=28.15, satellites=7, angle=285.7300, fixquality=1
$GPRMC,142335.250,A,4308.4771,N,07727.2230,W,22.75,286.86,050924,,,A*4F
$GPGGA,142335.500,4308.4773,N,07727.2245,W,1,07,1.44,156.6,M,-34.4,M,,*59
lng=-77.453720, lat=43.141284, altitude=156.40, speed=22.75, satellites=7, angle=286.8600, fixquality=1
$GPRMC,142335.750,A,4308.4775,N,07727.2260,W,19.40,285.55,050924,,,A*48
$GPGGA,142336.000,4308.4778,N,07727.2275,W,1,07,1.27,156.8,M,-34.4,M,,*5C
lng=-77.453765, lat=43.141292, altitude=156.60, speed=19.40, satellites=7, angle=285.5500, fixquality=1
$GPRMC,142336.250,A,4308.4781,N,07727.2289,W,17.51,287.14,050924,,,A*4B
$GPGGA,142336.500,4308.4783,N,07727.2302,W,1,07,1.27,157.0,M,-34.4,M,,*55
lng=-77.453819, lat=43.141300, altitude=156.80, speed=17.51, satellites=7, angle=287.1400, fixquality=1
$GPRMC,142336.750,A,4308.4785,N,07727.2316,W,16.52,285.42,050924,,,A*4E
$GPGGA,142337.000,4308.4787,N,07727.2328,W,1,07,1.28,157.2,M,-34.4,M,,*50
lng=-77.453857, lat=43.141307, altitude=157.00, speed=16.52, satellites=7, angle=285.4200, fixquality=1
$GPRMC,142337.250,A,4308.4788,N,07727.2340,W,16.37,284.02,050924,,,A*42
$GPGGA,142337.500,4308.4790,N,07727.2352,W,1,07,1.27,157.3,M,-34.4,M,,*50
lng=-77.453895, lat=43.141315, altitude=157.20, speed=16.37, satellites=7, angle=284.0200, fixquality=1
$GPRMC,142337.750,A,4308.4791,N,07727.2364,W,16.39,282.46,050924,,,A*41
$GPGGA,142338.000,4308.4793,N,07727.2376,W,1,07,1.27,157.4,M,-34.4,M,,*58
lng=-77.453941, lat=43.141315, altitude=157.30, speed=16.39, satellites=7, angle=282.4600, fixquality=1
$GPRMC,142338.250,A,4308.4795,N,07727.2390,W,16.41,281.30,050924,,,A*49
$GPGGA,142338.500,4308.4797,N,07727.2404,W,1,07,1.27,157.6,M,-34.4,M,,*59
lng=-77.453979, lat=43.141323, altitude=157.40, speed=16.41, satellites=7, angle=281.3000, fixquality=1
$GPRMC,142338.750,A,4308.4798,N,07727.2419,W,16.66,280.55,050924,,,A*40
$GPGGA,142339.000,4308.4799,N,07727.2434,W,1,07,1.27,157.8,M,-34.4,M,,*5E
lng=-77.454025, lat=43.141334, altitude=157.60, speed=16.66, satellites=7, angle=280.5500, fixquality=1
$GPRMC,142339.250,A,4308.4800,N,07727.2450,W,17.19,279.23,050924,,,A*49
$GPGGA,142339.500,4308.4801,N,07727.2466,W,1,07,1.27,158.0,M,-34.4,M,,*55
lng=-77.454086, lat=43.141334, altitude=157.80, speed=17.19, satellites=7, angle=279.2300, fixquality=1
$GPRMC,142339.750,A,4308.4802,N,07727.2483,W,17.75,278.45,050924,,,A*4B
$GPGGA,142340.000,4308.4803,N,07727.2500,W,1,07,1.27,158.2,M,-34.4,M,,*5F
lng=-77.454139, lat=43.141334, altitude=158.00, speed=17.75, satellites=7, angle=278.4500, fixquality=1
$GPRMC,142340.250,A,4308.4803,N,07727.2516,W,17.99,277.63,050924,,,A*45
$GPGGA,142340.500,4308.4804,N,07727.2532,W,1,07,1.28,158.4,M,-34.4,M,,*55
lng=-77.454193, lat=43.141342, altitude=158.20, speed=17.99, satellites=7, angle=277.6300, fixquality=1
$GPRMC,142340.750,A,4308.4805,N,07727.2549,W,18.05,276.82,050924,,,A*48
$GPGGA,142341.000,4308.4807,N,07727.2565,W,1,07,1.28,158.7,M,-34.4,M,,*53
lng=-77.454246, lat=43.141342, altitude=158.40, speed=18.05, satellites=7, angle=276.8200, fixquality=1
$GPRMC,142341.250,A,4308.4808,N,07727.2581,W,18.12,277.02,050924,,,A*4A
