Vers 72
USE_SERIAL_FEEDBACK=true
DEVELOPMENT_MODE=false
USE_RMC_ONLY=false

$GPRMC,142735.500,A,4308.3186,N,07726.2629,W,0.97,356.44,100924,,,A*77
$GPGGA,142735.750,4308.3186,N,07726.2630,W,1,05,2.50,165.7,M,-34.4,M,,*53
lng=-77.437713, lat=43.138637, altitude=170.20, speed=0.97, satellites=5, angle=356.4400, fixquality=1
$GPRMC,142736.000,A,4308.3185,N,07726.2631,W,0.87,333.84,100924,,,A*75
$GPGGA,142736.250,4308.3184,N,07726.2632,W,1,05,2.23,165.2,M,-34.4,M,,*54
lng=-77.437721, lat=43.138637, altitude=165.70, speed=0.87, satellites=5, angle=333.8400, fixquality=1
$GPGGA,142738.500,4308.3176,N,07726.2645,W,1,05,2.23,164.3,M,-34.4,M,,*55
$GPRMC,142738.500,A,4308.3176,N,07726.2645,W,2.53,256.10,100924,,,A*75
lng=-77.437744, lat=43.138622, altitude=164.30, speed=2.42, satellites=5, angle=256.5100, fixquality=1
$GPGGA,142738.750,4308.3175,N,07726.2647,W,1,05,2.23,164.2,M,-34.4,M,,*52
$GPRMC,142738.750,A,4308.3175,N,07726.2647,W,2.56,257.83,100924,,,A*7D
lng=-77.437744, lat=43.138622, altitude=164.20, speed=2.53, satellites=5, angle=256.1000, fixquality=1
$GPGGA,142739.000,4308.3174,N,07726.2648,W,1,05,2.23,164.1,M,-34.4,M,,*5C
$GPRMC,142739.000,A,4308.3174,N,07726.2648,W,2.57,258.54,100924,,,A*74
lng=-77.437744, lat=43.138622, altitude=164.10, speed=2.56, satellites=5, angle=257.8300, fixquality=1
$GPGGA,142739.250,4308.3174,N,07726.2650,W,1,05,2.23,164.2,M,-34.4,M,,*51
$GPRMC,142739.250,A,4308.3174,N,07726.2650,W,2.73,259.32,100924,,,A*7D
lng=-77.437751, lat=43.138622, altitude=164.20, speed=2.57, satellites=5, angle=258.5400, fixquality=1
$GPGGA,142739.500,4308.3173,N,07726.2652,W,1,05,2.23,164.1,M,-34.4,M,,*55
$GPRMC,142739.500,A,4308.3173,N,07726.2652,W,2.64,263.85,100924,,,A*79
lng=-77.437751, lat=43.138622, altitude=164.10, speed=2.73, satellites=5, angle=259.3200, fixquality=1
$GPGGA,142739.750,4308.3173,N,07726.2654,W,1,05,2.23,164.0,M,-34.4,M,,*55
$GPRMC,142739.750,A,4308.3173,N,07726.2654,W,2.77,264.39,100924,,,A*7A
lng=-77.437759, lat=43.138622, altitude=164.00, speed=2.64, satellites=5, angle=263.8500, fixquality=1
$GPGGA,142740.000,4308.3172,N,07726.2656,W,1,05,2.23,164.2,M,-34.4,M,,*58
$GPRMC,142740.000,A,4308.3172,N,07726.2656,W,2.61,263.96,100924,,,A*70
lng=-77.437759, lat=43.138622, altitude=164.20, speed=2.77, satellites=5, angle=264.3900, fixquality=1
$GPGGA,142740.250,4308.3172,N,07726.2658,W,1,05,2.23,164.3,M,-34.4,M,,*50
$GPRMC,142740.250,A,4308.3172,N,07726.2658,W,2.73,263.68,100924,,,A*7B
lng=-77.437759, lat=43.138622, altitude=164.30, speed=2.61, satellites=5, angle=263.9600, fixquality=1
$GPGGA,142740.500,4308.3172,N,07726.2660,W,1,05,2.23,164.4,M,-34.4,M,,*5E
$GPRMC,142740.500,A,4308.3172,N,07726.2660,W,2.59,266.37,100924$GPGGA,142740.750,4308.3172,N,07726.2662,W,1,05,2.23,164.6,M,-34.4,M,,*59
lng=-77.437767, lat=43.138622, altitude=164.40, speed=2.73, satellites=5, angle=263.6800, fixquality=1
$GPRMC,142741.000,A,4308.3171,N,07726.2664,W,2.63,266.46,100924,,,A*79
$GPGGA,142741.250,4308.3171,N,07726.2666,W,1,05,2.23,164.8,M,-34.4,M,,*54
lng=-77.437774, lat=43.138614, altitude=164.40, speed=2.63, satellites=5, angle=266.4600, fixquality=1
$GPRMC,142741.500,A,4308.3171,N,07726.2668,W,2.58,269.36,100924,,,A*70
$GPGGA,142741.750,4308.3170,N,07726.2670,W,1,05,2.23,164.7,M,-34.4,M,,*58
lng=-77.437774, lat=43.138614, altitude=164.80, speed=2.58, satellites=5, angle=269.3600, fixquality=1
$GPRMC,142742.000,A,4308.3170,N,07726.2671,W,2.39,266.45,100924,,,A*73
$GPGGA,142742.250,4308.3169,N,07726.2673,W,1,05,2.23,164.6,M,-34.4,M,,*54
lng=-77.437782, lat=43.138614, altitude=164.70, speed=2.39, satellites=5, angle=266.4500, fixquality=1
$GPGGA,142743.750,4308.3167,N,07726.2684,W,1,05,2.23,164.0,M,-34.4,M,,*50
$GPRMC,142743.750,A,4308.3167,N,07726.2684,W,2.33,274.17,100924,,,A*72
lng=-77.437812, lat=43.138614, altitude=164.00, speed=2.29, satellites=5, angle=270.9800, fixquality=1
$GPGGA,142744.000,4308.3167,N,07726.2686,W,1,05,2.23,163.9,M,-34.4,M,,*59
$GPRMC,142744.000,A,4308.3167,N,07726.2686,W,2.28,271.55,100924,,,A*7C
lng=-77.437812, lat=43.138614, altitude=163.90, speed=2.33, satellites=5, angle=274.1700, fixquality=1
$GPGGA,142751.000,4308.3165,N,07726.2699,W,1,05,2.23,162.4,M,-34.4,M,,*5D
$GPRMC,142751.000,A,4308.3165,N,07726.2699,W,0.90,273.77,100924,,,A*77
lng=-77.437835, lat=43.138607, altitude=162.40, speed=0.67, satellites=5, angle=277.7100, fixquality=1
$GPGGA,142751.250,4308.3166,N,07726.2702,W,1,05,2.23,162.4,M,-34.4,M,,*5A
$GPRMC,142751.250,A,4308.3166,N,07726.2702,W,1.17,272.13,100924,,,A*7D
lng=-77.437835, lat=43.138607, altitude=162.40, speed=0.90, satellites=5, angle=273.7700, fixquality=1
$GPGGA,142752.000,4308.3166,N,07726.2714,W,1,05,2.23,162.1,M,-34.4,M,,*5C
$GPRMC,142752.000,A,4308.3166,N,07726.2714,W,2.25,267.58,100924$GPGGA,142752.250,4308.3166,N,07726.2718,W,1,05,2.23,162.0,M,-34.4,M,,*56
lng=-77.437858, lat=43.138607, altitude=162.10, speed=1.91, satellites=5, angle=268.9700, fixquality=1
$GPRMC,142752.500,A,4308.3166,N,07726.2723,W,3.83,265.94,100924,,,A*79
$GPGGA,142752.750,4308.3166,N,07726.2727,W,1,05,2.23,161.9,M,-34.4,M,,*55
lng=-77.437873, lat=43.138607, altitude=162.10, speed=3.83, satellites=5, angle=265.9400, fixquality=1
$GPRMC,142753.000,A,4308.3167,N,07726.2732,W,4.55,271.62,100924,,,A*7C
$GPGGA,142753.250,4308.3167,N,07726.2737,W,1,05,2.48,161.7,M,-34.4,M,,*52
lng=-77.437889, lat=43.138614, altitude=161.90, speed=4.55, satellites=5, angle=271.6200, fixquality=1
$GPRMC,142753.500,A,4308.3168,N,07726.2743,W,5.33,272.37,100924,,,A*72
$GPGGA,142753.750,4308.3168,N,07726.2749,W,1,05,2.48,161.6,M,-34.4,M,,*50
lng=-77.437904, lat=43.138614, altitude=161.70, speed=5.33, satellites=5, angle=272.3700, fixquality=1
$GPRMC,142754.000,A,4308.3168,N,07726.2755,W,6.35,272.34,100924,,,A*71
$GPGGA,142754.250,4308.3170,N,07726.2763,W,1,05,2.48,161.5,M,-34.4,M,,*50
lng=-77.437919, lat=43.138614, altitude=161.60, speed=6.35, satellites=5, angle=272.3400, fixquality=1
$GPRMC,142754.500,A,4308.3171,N,07726.2772,W,7.98,277.51,100924,,,A*79
$GPGGA,142754.750,4308.3174,N,07726.2781,W,1,05,2.48,161.5,M,-34.4,M,,*5D
lng=-77.437957, lat=43.138614, altitude=161.50, speed=7.98, satellites=5, angle=277.5100, fixquality=1
$GPRMC,142755.000,A,4308.3175,N,07726.2790,W,9.34,278.72,100924,,,A*73
$GPGGA,142755.250,4308.3176,N,07726.2801,W,1,05,2.48,161.6,M,-34.4,M,,*5F
lng=-77.437980, lat=43.138622, altitude=161.50, speed=9.34, satellites=5, angle=278.7200, fixquality=1
$GPRMC,142755.500,A,4308.3179,N,07726.2812,W,10.96,278.25,100924,,,A*4D
$GPGGA,142755.750,4308.3181,N,07726.2824,W,1,05,2.23,161.8,M,-34.4,M,,*56
lng=-77.438018, lat=43.138629, altitude=161.60, speed=10.96, satellites=5, angle=278.2500, fixquality=1
$GPRMC,142756.000,A,4308.3183,N,07726.2836,W,11.92,278.35,100924,,,A*4C
$GPGGA,142756.250,4308.3185,N,07726.2849,W,1,05,2.23,162.0,M,-34.4,M,,*54
lng=-77.438064, lat=43.138637, altitude=161.80, speed=11.92, satellites=5, angle=278.3500, fixquality=1
$GPRMC,142756.500,A,4308.3188,N,07726.2861,W,12.58,279.04,100924,,,A*46
$GPGGA,142756.750,4308.3191,N,07726.2875,W,1,05,2.48,162.0,M,-34.4,M,,*56
lng=-77.438102, lat=43.138648, altitude=162.00, speed=12.58, satellites=5, angle=279.0400, fixquality=1
$GPRMC,142757.000,A,4308.3193,N,07726.2888,W,13.20,280.48,100924,,,A*4F
$GPGGA,142757.250,4308.3196,N,07726.2901,W,1,05,2.23,162.0,M,-34.4,M,,*5A
lng=-77.438140, lat=43.138656, altitude=162.00, speed=13.20, satellites=5, angle=280.4800, fixquality=1
$GPRMC,142757.500,A,4308.3199,N,07726.2915,W,13.82,282.17,100924,,,A*45
$GPGGA,142757.750,4308.3203,N,07726.2930,W,1,05,2.23,162.0,M,-34.4,M,,*52
lng=-77.438194, lat=43.138664, altitude=162.00, speed=13.82, satellites=5, angle=282.1700, fixquality=1
$GPRMC,142758.000,A,4308.3207,N,07726.2946,W,14.72,283.60,100924,,,A*44
$GPGGA,142758.250,4308.3213,N,07726.2963,W,1,05,2.23,161.8,M,-34.4,M,,*54
lng=-77.438240, lat=43.138679, altitude=162.00, speed=14.72, satellites=5, angle=283.6000, fixquality=1
$GPRMC,142758.500,A,4308.3217,N,07726.2980,W,15.81,285.03,100924,,,A*44
$GPGGA,142758.750,4308.3223,N,07726.2999,W,1,05,2.23,161.7,M,-34.4,M,,*58
lng=-77.438301, lat=43.138694, altitude=161.80, speed=15.81, satellites=5, angle=285.0300, fixquality=1
$GPRMC,142759.000,A,4308.3228,N,07726.3016,W,17.04,286.35,100924,,,A*42
$GPGGA,142759.250,4308.3233,N,07726.3034,W,1,05,2.23,161.6,M,-34.4,M,,*53
lng=-77.438362, lat=43.138713, altitude=161.70, speed=17.04, satellites=5, angle=286.3500, fixquality=1
$GPRMC,142759.500,A,4308.3238,N,07726.3052,W,18.00,287.56,100924,,,A*49
$GPGGA,142759.750,4308.3245,N,07726.3072,W,1,05,2.22,161.6,M,-34.4,M,,*54
lng=-77.438423, lat=43.138729, altitude=161.60, speed=18.00, satellites=5, angle=287.5600, fixquality=1
$GPRMC,142800.000,A,4308.3253,N,07726.3091,W,19.13,290.63,100924,,,A*4E
$GPGGA,142800.250,4308.3270,N,07726.3118,W,1,06,1.53,162.2,M,-34.4,M,,*58
lng=-77.438484, lat=43.138751, altitude=161.60, speed=19.13, satellites=5, angle=290.6300, fixquality=1
$GPRMC,142800.500,A,4308.3286,N,07726.3145,W,21.31,294.89,100924,,,A*40
$GPGGA,142800.750,4308.3302,N,07726.3171,W,1,06,1.54,163.0,M,-34.4,M,,*52
lng=-77.438575, lat=43.138809, altitude=162.20, speed=21.31, satellites=6, angle=294.8900, fixquality=1
$GPRMC,142801.000,A,4308.3326,N,07726.3204,W,24.55,299.87,100924,,,A*4D
$GPGGA,142801.250,4308.3341,N,07726.3229,W,1,06,1.53,163.4,M,-34.4,M,,*5C
lng=-77.438674, lat=43.138874, altitude=163.00, speed=24.55, satellites=6, angle=299.8700, fixquality=1
$GPRMC,142801.500,A,4308.3355,N,07726.3254,W,25.44,301.21,100924,,,A*44
$GPGGA,142801.750,4308.3372,N,07726.3281,W,1,06,1.54,163.7,M,-34.4,M,,*5F
lng=-77.438751, lat=43.138923, altitude=163.40, speed=25.44, satellites=6, angle=301.2100, fixquality=1
$GPRMC,142802.000,A,4308.3387,N,07726.3306,W,27.00,303.54,100924,,,A*49
$GPGGA,142802.250,4308.3402,N,07726.3331,W,1,06,1.53,164.1,M,-34.4,M,,*55
lng=-77.438842, lat=43.138980, altitude=163.70, speed=27.00, satellites=6, angle=303.5400, fixquality=1
$GPRMC,142802.500,A,4308.3416,N,07726.3355,W,27.50,304.56,100924,,,A*45
$GPGGA,142802.750,4308.3429,N,07726.3379,W,1,06,1.54,164.5,M,-34.4,M,,*56
lng=-77.438926, lat=43.139030, altitude=164.10, speed=27.50, satellites=6, angle=304.5600, fixquality=1
$GPRMC,142803.000,A,4308.3442,N,07726.3402,W,27.52,304.76,100924,,,A*45
$GPGGA,142803.250,4308.3454,N,07726.3425,W,1,06,1.53,164.6,M,-34.4,M,,*52
lng=-77.439002, lat=43.139072, altitude=164.50, speed=27.52, satellites=6, angle=304.7600, fixquality=1
$GPRMC,142803.500,A,4308.3465,N,07726.3447,W,27.07,304.27,100924,,,A*40
$GPGGA,142803.750,4308.3477,N,07726.3469,W,1,06,1.54,164.8,M,-34.4,M,,*57
lng=-77.439079, lat=43.139110, altitude=164.60, speed=27.07, satellites=6, angle=304.2700, fixquality=1
$GPRMC,142804.000,A,4308.3489,N,07726.3490,W,26.46,305.28,100924,,,A*40
$GPGGA,142804.250,4308.3501,N,07726.3510,W,1,06,1.54,165.0,M,-34.4,M,,*53
lng=-77.439155, lat=43.139152, altitude=164.80, speed=26.46, satellites=6, angle=305.2800, fixquality=1
$GPRMC,142804.500,A,4308.3512,N,07726.3529,W,25.69,308.27,100924,,,A*49
$GPGGA,142804.750,4308.3524,N,07726.3547,W,1,06,1.54,165.2,M,-34.4,M,,*51
lng=-77.439216, lat=43.139183, altitude=165.00, speed=25.69, satellites=6, angle=308.2700, fixquality=1
$GPRMC,142805.000,A,4308.3535,N,07726.3565,W,25.02,310.66,100924,,,A*41
$GPGGA,142805.250,4308.3546,N,07726.3582,W,1,06,1.53,165.3,M,-34.4,M,,*5E
lng=-77.439277, lat=43.139225, altitude=165.20, speed=25.02, satellites=6, angle=310.6600, fixquality=1
$GPRMC,142805.500,A,4308.3558,N,07726.3598,W,24.30,314.36,100924,,,A*4C
$GPGGA,142805.750,4308.3570,N,07726.3614,W,1,06,1.54,165.4,M,-34.4,M,,*52
lng=-77.439331, lat=43.139266, altitude=165.30, speed=24.30, satellites=6, angle=314.3600, fixquality=1
$GPRMC,142806.000,A,4308.3583,N,07726.3629,W,24.05,317.92,100924,,,A*4E
$GPGGA,142806.250,4308.3596,N,07726.3644,W,1,06,1.54,165.6,M,-34.4,M,,*5B
lng=-77.439376, lat=43.139305, altitude=165.40, speed=24.05, satellites=6, angle=317.9200, fixquality=1
$GPRMC,142806.500,A,4308.3611,N,07726.3658,W,24.02,322.55,100924,,,A*4F
$GPGGA,142806.750,4308.3625,N,07726.3670,W,1,06,1.54,165.8,M,-34.4,M,,*5C
lng=-77.439430, lat=43.139354, altitude=165.60, speed=24.02, satellites=6, angle=322.5500, fixquality=1
$GPRMC,142807.000,A,4308.3639,N,07726.3682,W,23.56,327.19,100924,,,A*4D
$GPGGA,142807.250,4308.3654,N,07726.3694,W,1,06,1.54,165.9,M,-34.4,M,,*55
lng=-77.439468, lat=43.139396, altitude=165.80, speed=23.56, satellites=6, angle=327.1900, fixquality=1
$GPRMC,142807.500,A,4308.3670,N,07726.3704,W,23.54,332.29,100924,,,A*4F
$GPGGA,142807.750,4308.3685,N,07726.3714,W,1,06,1.54,166.1,M,-34.4,M,,*5E
lng=-77.439506, lat=43.139453, altitude=165.90, speed=23.54, satellites=6, angle=332.2900, fixquality=1
$GPRMC,142808.000,A,4308.3699,N,07726.3724,W,23.15,334.55,100924,,,A*48
$GPGGA,142808.250,4308.3713,N,07726.3733,W,1,06,1.53,166.2,M,-34.4,M,,*5B
lng=-77.439544, lat=43.139503, altitude=166.10, speed=23.15, satellites=6, angle=334.5500, fixquality=1
$GPRMC,142808.500,A,4308.3729,N,07726.3741,W,22.69,337.65,100924,,,A*4E
$GPGGA,142808.750,4308.3745,N,07726.3747,W,1,06,1.54,166.3,M,-34.4,M,,*58
lng=-77.439567, lat=43.139549, altitude=166.20, speed=22.69, satellites=6, angle=337.6500, fixquality=1
$GPRMC,142809.000,A,4308.3760,N,07726.3754,W,22.98,341.67,100924,,,A*4E
$GPGGA,142809.250,4308.3776,N,07726.3759,W,1,06,1.54,166.5,M,-34.4,M,,*55
lng=-77.439590, lat=43.139598, altitude=166.30, speed=22.98, satellites=6, angle=341.6700, fixquality=1
$GPRMC,142809.500,A,4308.3791,N,07726.3763,W,22.76,345.79,100924,,,A*4A
$GPGGA,142809.750,4308.3807,N,07726.3767,W,1,06,1.54,166.6,M,-34.4,M,,*57
lng=-77.439605, lat=43.139648, altitude=166.50, speed=22.76, satellites=6, angle=345.7900, fixquality=1
$GPRMC,142810.000,A,4308.3824,N,07726.3771,W,23.21,348.74,100924,,,A*46
$GPGGA,142810.250,4308.3840,N,07726.3774,W,1,06,1.54,166.7,M,-34.4,M,,*5A
lng=-77.439613, lat=43.139705, altitude=166.60, speed=23.21, satellites=6, angle=348.7400, fixquality=1
$GPRMC,142810.500,A,4308.3856,N,07726.3773,W,23.21,354.16,100924,,,A*4D
$GPGGA,142810.750,4308.3873,N,07726.3773,W,1,06,1.54,166.9,M,-34.4,M,,*56
lng=-77.439620, lat=43.139762, altitude=166.70, speed=23.21, satellites=6, angle=354.1600, fixquality=1
$GPRMC,142811.000,A,4308.3890,N,07726.3772,W,23.51,358.11,100924,,,A*4E
$GPGGA,142811.250,4308.3911,N,07726.3769,W,1,06,1.54,167.1,M,-34.4,M,,*55
lng=-77.439620, lat=43.139820, altitude=166.90, speed=23.51, satellites=6, angle=358.1100, fixquality=1
$GPRMC,142811.500,A,4308.3929,N,07726.3767,W,25.03,2.67,100924,,,A*40
$GPGGA,142811.750,4308.3947,N,07726.3764,W,1,06,1.54,167.2,M,-34.4,M,,*5D
lng=-77.439605, lat=43.139884, altitude=167.10, speed=25.03, satellites=6, angle=2.6700, fixquality=1
$GPRMC,142812.000,A,4308.3965,N,07726.3761,W,25.09,4.76,100924,,,A*44
$GPGGA,142812.250,4308.3983,N,07726.3757,W,1,06,1.54,167.3,M,-34.4,M,,*52
lng=-77.439598, lat=43.139942, altitude=167.20, speed=25.09, satellites=6, angle=4.7600, fixquality=1
$GPRMC,142812.500,A,4308.4001,N,07726.3754,W,25.30,6.91,100924,,,A*4A
$GPGGA,142812.750,4308.4019,N,07726.3750,W,1,06,1.54,167.4,M,-34.4,M,,*5A
lng=-77.439590, lat=43.139999, altitude=167.30, speed=25.30, satellites=6, angle=6.9100, fixquality=1
$GPRMC,142813.000,A,4308.4036,N,07726.3747,W,25.25,8.35,100924,,,A*4C
$GPGGA,142813.250,4308.4053,N,07726.3743,W,1,06,1.54,167.5,M,-34.4,M,,*53
lng=-77.439575, lat=43.140064, altitude=167.40, speed=25.25, satellites=6, angle=8.3500, fixquality=1
$GPRMC,142813.500,A,4308.4070,N,07726.3739,W,25.04,9.18,100924,,,A*4F
$GPGGA,142813.750,4308.4087,N,07726.3735,W,1,06,1.54,167.5,M,-34.4,M,,*5E
lng=-77.439567, lat=43.140121, altitude=167.50, speed=25.04, satellites=6, angle=9.1800, fixquality=1
$GPRMC,142814.000,A,4308.4103,N,07726.3731,W,24.98,9.79,100924,,,A*43
$GPGGA,142814.250,4308.4120,N,07726.3727,W,1,06,1.54,167.5,M,-34.4,M,,*53
lng=-77.439552, lat=43.140171, altitude=167.50, speed=24.98, satellites=6, angle=9.7900, fixquality=1
$GPRMC,142814.500,A,4308.4137,N,07726.3722,W,24.76,10.08,100924,,,A*7D
$GPGGA,142814.750,4308.4154,N,07726.3718,W,1,06,1.54,167.6,M,-34.4,M,,*5A
lng=-77.439537, lat=43.140224, altitude=167.50, speed=24.76, satellites=6, angle=10.0800, fixquality=1
$GPRMC,142815.000,A,4308.4171,N,07726.3714,W,24.67,10.50,100924,,,A*73
$GPGGA,142815.250,4308.4188,N,07726.3709,W,1,06,1.54,167.7,M,-34.4,M,,*5E
lng=-77.439529, lat=43.140281, altitude=167.60, speed=24.67, satellites=6, angle=10.5000, fixquality=1
$GPRMC,142815.500,A,4308.4204,N,07726.3704,W,24.44,10.49,100924,,,A*7F
$GPGGA,142815.750,4308.4221,N,07726.3700,W,1,06,1.54,167.8,M,-34.4,M,,*5D
lng=-77.439506, lat=43.140338, altitude=167.70, speed=24.44, satellites=6, angle=10.4900, fixquality=1
$GPRMC,142816.000,A,4308.4238,N,07726.3695,W,24.37,10.33,100924,,,A*76
$GPGGA,142816.250,4308.4255,N,07726.3691,W,1,06,1.54,167.9,M,-34.4,M,,*50
lng=-77.439491, lat=43.140396, altitude=167.80, speed=24.37, satellites=6, angle=10.3300, fixquality=1
$GPRMC,142816.500,A,4308.4272,N,07726.3686,W,24.25,9.90,100924,,,A*4D
$GPGGA,142816.750,4308.4288,N,07726.3682,W,1,06,1.54,168.1,M,-34.4,M,,*50
lng=-77.439476, lat=43.140453, altitude=167.90, speed=24.25, satellites=6, angle=9.9000, fixquality=1
$GPRMC,142817.000,A,4308.4304,N,07726.3679,W,23.92,9.56,100924,,,A*48
$GPGGA,142817.250,4308.4321,N,07726.3675,W,1,06,1.54,168.2,M,-34.4,M,,*5D
lng=-77.439460, lat=43.140502, altitude=168.10, speed=23.92, satellites=6, angle=9.5600, fixquality=1
$GPRMC,142817.500,A,4308.4338,N,07726.3670,W,23.27,9.54,100924,,,A*47
$GPGGA,142817.750,4308.4355,N,07726.3666,W,1,06,1.54,168.3,M,-34.4,M,,*58
lng=-77.439453, lat=43.140560, altitude=168.20, speed=23.27, satellites=6, angle=9.5400, fixquality=1
$GPRMC,142818.000,A,4308.4371,N,07726.3662,W,22.93,9.00,100924,,,A*4C
$GPGGA,142818.250,4308.4388,N,07726.3659,W,1,07,1.42,168.4,M,-34.4,M,,*5F
lng=-77.439437, lat=43.140617, altitude=168.30, speed=22.93, satellites=6, angle=9.0000, fixquality=1
$GPRMC,142818.500,A,4308.4404,N,07726.3655,W,21.86,8.81,100924,,,A*47
$GPGGA,142818.750,4308.4420,N,07726.3651,W,1,07,1.42,168.3,M,-34.4,M,,*50
lng=-77.439430, lat=43.140674, altitude=168.40, speed=21.86, satellites=7, angle=8.8100, fixquality=1
$GPRMC,142819.000,A,4308.4435,N,07726.3647,W,20.61,9.00,100924,,,A*42
$GPGGA,142819.250,4308.4450,N,07726.3644,W,1,07,1.42,168.2,M,-34.4,M,,*56
lng=-77.439414, lat=43.140724, altitude=168.30, speed=20.61, satellites=7, angle=9.0000, fixquality=1
$GPRMC,142819.500,A,4308.4463,N,07726.3641,W,19.15,9.40,100924,,,A*4F
$GPGGA,142819.750,4308.4476,N,07726.3637,W,1,07,1.42,168.1,M,-34.4,M,,*50
lng=-77.439407, lat=43.140769, altitude=168.20, speed=19.15, satellites=7, angle=9.4000, fixquality=1
$GPRMC,142820.000,A,4308.4488,N,07726.3634,W,17.20,10.25,100924,,,A*74
$GPGGA,142820.250,4308.4498,N,07726.3632,W,1,07,1.42,168.0,M,-34.4,M,,*5B
lng=-77.439384, lat=43.140811, altitude=168.10, speed=17.20, satellites=7, angle=10.2500, fixquality=1
$GPRMC,142820.500,A,4308.4507,N,07726.3629,W,14.34,12.35,100924,,,A*7E
$GPGGA,142820.750,4308.4515,N,07726.3626,W,1,07,1.42,168.0,M,-34.4,M,,*5F
lng=-77.439376, lat=43.140846, altitude=168.00, speed=14.34, satellites=7, angle=12.3500, fixquality=1
$GPRMC,142821.000,A,4308.4522,N,07726.3623,W,11.89,13.47,100924,,,A*70
$GPGGA,142821.250,4308.4528,N,07726.3621,W,1,06,1.54,168.1,M,-34.4,M,,*55
lng=-77.439369, lat=43.140869, altitude=168.00, speed=11.89, satellites=7, angle=13.4700, fixquality=1
$GPRMC,142821.500,A,4308.4534,N,07726.3619,W,8.95,12.35,100924,,,A*4A
$GPGGA,142821.750,4308.4540,N,07726.3617,W,1,07,1.42,168.1,M,-34.4,M,,*5D
lng=-77.439361, lat=43.140892, altitude=168.10, speed=8.95, satellites=6, angle=12.3500, fixquality=1
$GPRMC,142822.000,A,4308.4547,N,07726.3615,W,7.71,8.54,100924,,,A*7D
$GPGGA,142822.250,4308.4552,N,07726.3613,W,1,07,1.42,168.3,M,-34.4,M,,*5E
lng=-77.439353, lat=43.140911, altitude=168.10, speed=7.71, satellites=7, angle=8.5400, fixquality=1
$GPRMC,142822.500,A,4308.4558,N,07726.3612,W,7.21,2.81,100924,,,A*76
$GPGGA,142822.750,4308.4563,N,07726.3612,W,1,07,1.42,168.6,M,-34.4,M,,*5D
lng=-77.439353, lat=43.140926, altitude=168.30, speed=7.21, satellites=7, angle=2.8100, fixquality=1
$GPRMC,142823.000,A,4308.4569,N,07726.3611,W,7.17,356.40,100924,,,A*79
$GPGGA,142823.250,4308.4575,N,07726.3613,W,1,07,1.42,168.7,M,-34.4,M,,*5E
lng=-77.439353, lat=43.140949, altitude=168.60, speed=7.17, satellites=7, angle=356.4000, fixquality=1
$GPRMC,142823.500,A,4308.4582,N,07726.3615,W,8.14,342.73,100924,,,A*74
$GPGGA,142823.750,4308.4588,N,07726.3619,W,1,07,1.42,168.8,M,-34.4,M,,*5C
lng=-77.439353, lat=43.140968, altitude=168.70, speed=8.14, satellites=7, angle=342.7300, fixquality=1
$GPRMC,142824.000,A,4308.4594,N,07726.3623,W,9.16,332.40,100924,,,A*70
$GPGGA,142824.250,4308.4599,N,07726.3628,W,1,07,1.42,168.9,M,-34.4,M,,*5D
lng=-77.439369, lat=43.140991, altitude=168.80, speed=9.16, satellites=7, angle=332.4000, fixquality=1
$GPRMC,142824.500,A,4308.4605,N,07726.3634,W,9.97,319.13,100924,,,A*7E
$GPGGA,142824.750,4308.4611,N,07726.3641,W,1,07,1.42,168.8,M,-34.4,M,,*55
lng=-77.439384, lat=43.141006, altitude=168.90, speed=9.97, satellites=7, angle=319.1300, fixquality=1
$GPRMC,142825.000,A,4308.4617,N,07726.3650,W,11.33,312.70,100924,,,A*42
$GPGGA,142825.250,4308.4622,N,07726.3658,W,1,07,1.42,168.7,M,-34.4,M,,*56
lng=-77.439422, lat=43.141033, altitude=168.80, speed=11.33, satellites=7, angle=312.7000, fixquality=1
$GPRMC,142825.500,A,4308.4628,N,07726.3669,W,12.44,306.41,100924,,,A*45
$GPGGA,142825.750,4308.4634,N,07726.3681,W,1,07,1.38,168.6,M,-34.4,M,,*5C
lng=-77.439445, lat=43.141048, altitude=168.70, speed=12.44, satellites=7, angle=306.4100, fixquality=1
$GPRMC,142826.000,A,4308.4638,N,07726.3695,W,14.44,297.61,100924,,,A*4C
$GPGGA,142826.250,4308.4642,N,07726.3709,W,1,07,1.38,168.4,M,-34.4,M,,*58
lng=-77.439491, lat=43.141063, altitude=168.60, speed=14.44, satellites=7, angle=297.6100, fixquality=1
$GPRMC,142826.500,A,4308.4644,N,07726.3725,W,16.39,286.05,100924,,,A*42
$GPGGA,142826.750,4308.4647,N,07726.3741,W,1,07,1.42,168.2,M,-34.4,M,,*5F
lng=-77.439544, lat=43.141071, altitude=168.40, speed=16.39, satellites=7, angle=286.0500, fixquality=1
$GPRMC,142827.000,A,4308.4650,N,07726.3758,W,17.65,281.64,100924,,,A*41
$GPGGA,142827.250,4308.4655,N,07726.3775,W,1,07,1.42,168.0,M,-34.4,M,,*5D
lng=-77.439598, lat=43.141078, altitude=168.20, speed=17.65, satellites=7, angle=281.6400, fixquality=1
$GPRMC,142827.500,A,4308.4658,N,07726.3794,W,19.36,278.18,100924,,,A*49
$GPGGA,142827.750,4308.4661,N,07726.3814,W,1,07,1.42,167.8,M,-34.4,M,,*50
lng=-77.439659, lat=43.141098, altitude=168.00, speed=19.36, satellites=7, angle=278.1800, fixquality=1
$GPRMC,142828.000,A,4308.4663,N,07726.3833,W,20.41,276.21,100924,,,A*47
$GPGGA,142828.250,4308.4665,N,07726.3854,W,1,07,1.42,167.7,M,-34.4,M,,*55
lng=-77.439720, lat=43.141105, altitude=167.80, speed=20.41, satellites=7, angle=276.2100, fixquality=1
$GPRMC,142828.500,A,4308.4666,N,07726.3874,W,21.24,275.02,100924,,,A*44
$GPGGA,142828.750,4308.4667,N,07726.3895,W,1,06,1.43,167.5,M,-34.4,M,,*5D
lng=-77.439788, lat=43.141113, altitude=167.70, speed=21.24, satellites=7, angle=275.0200, fixquality=1
$GPRMC,142829.000,A,4308.4668,N,07726.3915,W,21.50,274.64,100924,,,A*4A
$GPGGA,142829.250,4308.4669,N,07726.3936,W,1,07,1.42,167.4,M,-34.4,M,,*5E
lng=-77.439857, lat=43.141113, altitude=167.50, speed=21.50, satellites=6, angle=274.6400, fixquality=1
$GPRMC,142829.500,A,4308.4670,N,07726.3957,W,21.68,274.85,100924,,,A*44
$GPGGA,142829.750,4308.4671,N,07726.3978,W,1,07,1.42,167.1,M,-34.4,M,,*5D
lng=-77.439926, lat=43.141113, altitude=167.40, speed=21.68, satellites=7, angle=274.8500, fixquality=1
$GPRMC,142830.000,A,4308.4672,N,07726.3998,W,21.57,275.42,100924,,,A*4E
$GPGGA,142830.250,4308.4673,N,07726.4019,W,1,07,1.42,166.9,M,-34.4,M,,*52
lng=-77.439994, lat=43.141120, altitude=167.10, speed=21.57, satellites=7, angle=275.4200, fixquality=1
$GPRMC,142830.500,A,4308.4674,N,07726.4040,W,21.59,276.81,100924,,,A*44
$GPGGA,142830.750,4308.4676,N,07726.4062,W,1,06,1.43,166.6,M,-34.4,M,,*51
lng=-77.440063, lat=43.141120, altitude=166.90, speed=21.59, satellites=7, angle=276.8100, fixquality=1
$GPRMC,142831.000,A,4308.4677,N,07726.4083,W,21.51,277.36,100924,,,A*49
$GPGGA,142831.250,4308.4678,N,07726.4103,W,1,07,1.42,166.4,M,-34.4,M,,*5F
lng=-77.440139, lat=43.141128, altitude=166.60, speed=21.51, satellites=6, angle=277.3600, fixquality=1
$GPRMC,142831.500,A,4308.4680,N,07726.4124,W,21.07,278.33,100924,,,A*41
$GPGGA,142831.750,4308.4682,N,07726.4144,W,1,07,1.42,166.1,M,-34.4,M,,*59
lng=-77.440208, lat=43.141128, altitude=166.40, speed=21.07, satellites=7, angle=278.3300, fixquality=1
$GPRMC,142832.000,A,4308.4684,N,07726.4164,W,20.68,278.55,100924,,,A*4F
$GPGGA,142832.250,4308.4686,N,07726.4183,W,1,07,1.42,165.8,M,-34.4,M,,*5A
lng=-77.440277, lat=43.141136, altitude=166.10, speed=20.68, satellites=7, angle=278.5500, fixquality=1
$GPRMC,142832.500,A,4308.4688,N,07726.4202,W,19.48,280.15,100924,,,A*4E
$GPGGA,142832.750,4308.4691,N,07726.4219,W,1,07,1.42,165.6,M,-34.4,M,,*57
lng=-77.440338, lat=43.141147, altitude=165.80, speed=19.48, satellites=7, angle=280.1500, fixquality=1
$GPRMC,142833.000,A,4308.4693,N,07726.4236,W,18.25,280.56,100924,,,A*4A
$GPGGA,142833.250,4308.4695,N,07726.4252,W,1,07,1.42,165.4,M,-34.4,M,,*5A
lng=-77.440399, lat=43.141155, altitude=165.60, speed=18.25, satellites=7, angle=280.5600, fixquality=1
$GPRMC,142833.500,A,4308.4697,N,07726.4267,W,16.14,281.13,100924,,,A*43
$GPGGA,142833.750,4308.4698,N,07726.4279,W,1,07,1.42,165.3,M,-34.4,M,,*5C
lng=-77.440444, lat=43.141162, altitude=165.40, speed=16.14, satellites=7, angle=281.1300, fixquality=1
$GPRMC,142834.000,A,4308.4699,N,07726.4291,W,13.25,279.98,100924,,,A*45
$GPGGA,142834.250,4308.4699,N,07726.4299,W,1,07,1.42,165.1,M,-34.4,M,,*53
lng=-77.440483, lat=43.141162, altitude=165.30, speed=13.25, satellites=7, angle=279.9800, fixquality=1
$GPRMC,142834.500,A,4308.4699,N,07726.4307,W,9.12,278.41,100924,,,A*74
$GPGGA,142834.750,4308.4699,N,07726.4313,W,1,07,1.42,164.9,M,-34.4,M,,*5C
lng=-77.440513, lat=43.141162, altitude=165.10, speed=9.12, satellites=7, angle=278.4100, fixquality=1
$GPRMC,142835.000,A,4308.4699,N,07726.4318,W,6.38,276.94,100924,,,A*7F
$GPGGA,142835.250,4308.4699,N,07726.4321,W,1,07,1.42,164.7,M,-34.4,M,,*57
lng=-77.440528, lat=43.141162, altitude=164.90, speed=6.38, satellites=7, angle=276.9400, fixquality=1
$GPRMC,142835.500,A,4308.4698,N,07726.4324,W,3.18,271.09,100924,,,A*70
$GPGGA,142835.750,4308.4697,N,07726.4326,W,1,07,1.38,164.2,M,-34.4,M,,*53
lng=-77.440544, lat=43.141162, altitude=164.70, speed=3.18, satellites=7, angle=271.0900, fixquality=1
$GPRMC,142836.000,A,4308.4696,N,07726.4328,W,1.61,271.09,100924,,,A*78
$GPGGA,142836.250,4308.4696,N,07726.4329,W,1,07,1.38,163.9,M,-34.4,M,,*57
lng=-77.440544, lat=43.141162, altitude=164.20, speed=1.61, satellites=7, angle=271.0900, fixquality=1
$GPGGA,142839.750,4308.4697,N,07726.4313,W,1,07,1.38,162.9,M,-34.4,M,,*54
$GPRMC,142839.750,A,4308.4697,N,07726.4313,W,0.75,106.17,100924,,,A*74
lng=-77.440521, lat=43.141162, altitude=162.90, speed=0.82, satellites=7, angle=271.0900, fixquality=1
$GPGGA,142840.000,4308.4697,N,07726.4312,W,1,07,1.38,162.9,M,-34.4,M,,*59
$GPRMC,142840.000,A,4308.4697,N,07726.4312,W,0.73,104.10,100924,,,A*7A
lng=-77.440521, lat=43.141162, altitude=162.90, speed=0.75, satellites=7, angle=106.1700, fixquality=1
$GPRMC,142845.750,A,4308.4698,N,07726.4312,W,3.06,291.61,100924,,,A*7A
$GPGGA,142846.000,4308.4699,N,07726.4318,W,1,07,1.38,162.5,M,-34.4,M,,*57
lng=-77.440521, lat=43.141162, altitude=162.50, speed=3.06, satellites=7, angle=291.6100, fixquality=1
$GPRMC,142846.250,A,4308.4702,N,07726.4326,W,6.42,290.58,100924,,,A*77
$GPGGA,142846.500,4308.4706,N,07726.4337,W,1,07,1.38,162.6,M,-34.4,M,,*5B
lng=-77.440544, lat=43.141170, altitude=162.50, speed=6.42, satellites=7, angle=290.5800, fixquality=1
$GPRMC,142846.750,A,4308.4710,N,07726.4350,W,10.35,292.02,100924,,,A*4A
$GPGGA,142847.000,4308.4713,N,07726.4363,W,1,07,1.38,162.6,M,-34.4,M,,*5A
lng=-77.440582, lat=43.141185, altitude=162.60, speed=10.35, satellites=7, angle=292.0200, fixquality=1
$GPRMC,142847.250,A,4308.4717,N,07726.4379,W,12.70,288.11,100924,,,A*48
$GPGGA,142847.500,4308.4720,N,07726.4396,W,1,07,1.42,162.5,M,-34.4,M,,*5B
lng=-77.440635, lat=43.141193, altitude=162.60, speed=12.70, satellites=7, angle=288.1100, fixquality=1
$GPRMC,142847.750,A,4308.4722,N,07726.4415,W,14.78,283.62,100924,,,A*47
$GPGGA,142848.000,4308.4725,N,07726.4434,W,1,07,1.42,162.4,M,-34.4,M,,*5A
lng=-77.440689, lat=43.141201, altitude=162.50, speed=14.78, satellites=7, angle=283.6200, fixquality=1
$GPRMC,142848.250,A,4308.4727,N,07726.4453,W,16.93,280.21,100924,,,A*49
$GPGGA,142848.500,4308.4729,N,07726.4473,W,1,07,1.42,162.3,M,-34.4,M,,*57
lng=-77.440757, lat=43.141212, altitude=162.40, speed=16.93, satellites=7, angle=280.2100, fixquality=1
$GPRMC,142848.750,A,4308.4731,N,07726.4493,W,19.15,278.36,100924,,,A*47
$GPGGA,142849.000,4308.4734,N,07726.4514,W,1,07,1.38,162.3,M,-34.4,M,,*52
lng=-77.440818, lat=43.141220, altitude=162.30, speed=19.15, satellites=7, angle=278.3600, fixquality=1
$GPRMC,142849.250,A,4308.4735,N,07726.4536,W,20.76,276.88,100924,,,A*4D
$GPGGA,142849.500,4308.4736,N,07726.4559,W,1,07,1.42,162.1,M,-34.4,M,,*53
lng=-77.440895, lat=43.141227, altitude=162.30, speed=20.76, satellites=7, angle=276.8800, fixquality=1
$GPRMC,142849.750,A,4308.4738,N,07726.4582,W,22.52,275.34,100924,,,A*4A
$GPGGA,142850.000,4308.4739,N,07726.4606,W,1,07,1.42,162.0,M,-34.4,M,,*59
lng=-77.440963, lat=43.141227, altitude=162.10, speed=22.52, satellites=7, angle=275.3400, fixquality=1
$GPRMC,142850.250,A,4308.4740,N,07726.4631,W,24.45,274.41,100924,,,A*40
$GPGGA,142850.500,4308.4741,N,07726.4658,W,1,07,1.42,162.0,M,-34.4,M,,*58
lng=-77.441047, lat=43.141235, altitude=162.00, speed=24.45, satellites=7, angle=274.4100, fixquality=1
$GPRMC,142850.750,A,4308.4743,N,07726.4685,W,27.15,273.49,100924,,,A*40
$GPGGA,142851.000,4308.4744,N,07726.4714,W,1,07,1.38,161.9,M,-34.4,M,,*57
lng=-77.441139, lat=43.141235, altitude=162.00, speed=27.15, satellites=7, angle=273.4900, fixquality=1
$GPRMC,142851.250,A,4308.4745,N,07726.4744,W,29.66,272.89,100924,,,A*49
$GPGGA,142851.500,4308.4746,N,07726.4775,W,1,07,1.42,161.9,M,-34.4,M,,*5A
lng=-77.441246, lat=43.141242, altitude=161.90, speed=29.66, satellites=7, angle=272.8900, fixquality=1
$GPRMC,142851.750,A,4308.4747,N,07726.4807,W,31.43,272.24,100924,,,A*4F
$GPGGA,142852.000,4308.4748,N,07726.4839,W,1,07,1.42,161.8,M,-34.4,M,,*54
lng=-77.441337, lat=43.141242, altitude=161.90, speed=31.43, satellites=7, angle=272.2400, fixquality=1
$GPRMC,142852.250,A,4308.4749,N,07726.4873,W,33.35,271.76,100924,,,A*43
$GPGGA,142852.500,4308.4751,N,07726.4908,W,1,07,1.42,161.9,M,-34.4,M,,*5B
lng=-77.441452, lat=43.141250, altitude=161.80, speed=33.35, satellites=7, angle=271.7600, fixquality=1
$GPRMC,142852.750,A,4308.4752,N,07726.4943,W,35.28,271.69,100924,,,A*4A
$GPGGA,142853.000,4308.4753,N,07726.4979,W,1,07,1.42,161.9,M,-34.4,M,,*5B
lng=-77.441566, lat=43.141250, altitude=161.90, speed=35.28, satellites=7, angle=271.6900, fixquality=1
$GPRMC,142853.250,A,4308.4755,N,07726.5016,W,37.36,272.44,100924,,,A*40
$GPGGA,142853.500,4308.4758,N,07726.5055,W,1,07,1.42,162.1,M,-34.4,M,,*58
lng=-77.441688, lat=43.141258, altitude=161.90, speed=37.36, satellites=7, angle=272.4400, fixquality=1
$GPRMC,142853.750,A,4308.4760,N,07726.5094,W,39.64,273.30,100924,,,A*42
$GPGGA,142854.000,4308.4762,N,07726.5134,W,1,07,1.38,162.2,M,-34.4,M,,*5B
lng=-77.441818, lat=43.141269, altitude=162.10, speed=39.64, satellites=7, angle=273.3000, fixquality=1
$GPRMC,142854.250,A,4308.4764,N,07726.5174,W,41.16,273.71,100924,,,A*44
$GPGGA,142854.500,4308.4767,N,07726.5215,W,1,07,1.42,162.2,M,-34.4,M,,*56
lng=-77.441963, lat=43.141277, altitude=162.20, speed=41.16, satellites=7, angle=273.7100, fixquality=1
$GPRMC,142854.750,A,4308.4769,N,07726.5255,W,41.77,274.22,100924,,,A*4A
$GPGGA,142855.000,4308.4771,N,07726.5296,W,1,07,1.42,162.2,M,-34.4,M,,*5E
lng=-77.442092, lat=43.141284, altitude=162.20, speed=41.77, satellites=7, angle=274.2200, fixquality=1
$GPRMC,142855.250,A,4308.4773,N,07726.5337,W,42.06,273.36,100924,,,A*47
$GPGGA,142855.500,4308.4774,N,07726.5379,W,1,07,1.42,162.2,M,-34.4,M,,*5E
lng=-77.442230, lat=43.141292, altitude=162.20, speed=42.06, satellites=7, angle=273.3600, fixquality=1
$GPRMC,142855.750,A,4308.4776,N,07726.5420,W,42.61,273.09,100924,,,A*4B
$GPGGA,142856.000,4308.4779,N,07726.5463,W,1,07,1.38,162.2,M,-34.4,M,,*54
lng=-77.442367, lat=43.141292, altitude=162.20, speed=42.61, satellites=7, angle=273.0900, fixquality=1
$GPRMC,142856.250,A,4308.4781,N,07726.5505,W,43.27,273.66,100924,,,A*49
$GPGGA,142856.500,4308.4783,N,07726.5547,W,1,07,1.42,162.4,M,-34.4,M,,*58
lng=-77.442504, lat=43.141300, altitude=162.20, speed=43.27, satellites=7, angle=273.6600, fixquality=1
$GPRMC,142856.750,A,4308.4786,N,07726.5589,W,43.80,274.08,100924,,,A*4D
$GPGGA,142857.000,4308.4788,N,07726.5632,W,1,07,1.42,162.5,M,-34.4,M,,*57
lng=-77.442649, lat=43.141307, altitude=162.40, speed=43.80, satellites=7, angle=274.0800, fixquality=1
$GPRMC,142857.250,A,4308.4790,N,07726.5674,W,44.24,274.28,100924,,,A*44
$GPGGA,142857.500,4308.4793,N,07726.5717,W,1,07,1.42,162.7,M,-34.4,M,,*5C
lng=-77.442787, lat=43.141315, altitude=162.50, speed=44.24, satellites=7, angle=274.2800, fixquality=1
$GPRMC,142857.750,A,4308.4795,N,07726.5759,W,44.44,274.07,100924,,,A*41
$GPGGA,142858.000,4308.4797,N,07726.5802,W,1,07,1.42,162.8,M,-34.4,M,,*56
lng=-77.442924, lat=43.141323, altitude=162.70, speed=44.44, satellites=7, angle=274.0700, fixquality=1
$GPRMC,142858.250,A,4308.4799,N,07726.5844,W,44.38,273.67,100924,,,A*4E
$GPGGA,142858.500,4308.4801,N,07726.5886,W,1,07,1.42,162.9,M,-34.4,M,,*5E
lng=-77.443077, lat=43.141334, altitude=162.80, speed=44.38, satellites=7, angle=273.6700, fixquality=1
$GPRMC,142858.750,A,4308.4803,N,07726.5929,W,44.32,273.55,100924,,,A*46
$GPGGA,142859.000,4308.4805,N,07726.5971,W,1,07,1.38,163.0,M,-34.4,M,,*52
lng=-77.443214, lat=43.141342, altitude=162.90, speed=44.32, satellites=7, angle=273.5500, fixquality=1
$GPRMC,142859.250,A,4308.4806,N,07726.6013,W,44.32,272.94,100924,,,A*48
$GPGGA,142859.500,4308.4807,N,07726.6056,W,1,07,1.42,163.2,M,-34.4,M,,*55
lng=-77.443351, lat=43.141342, altitude=163.00, speed=44.32, satellites=7, angle=272.9400, fixquality=1
$GPRMC,142859.750,A,4308.4808,N,07726.6099,W,44.59,271.97,100924,,,A*4C
$GPGGA,142900.000,4308.4808,N,07726.6141,W,1,07,1.42,163.4,M,-34.4,M,,*53
lng=-77.443496, lat=43.141349, altitude=163.20, speed=44.59, satellites=7, angle=271.9700, fixquality=1
$GPRMC,142900.250,A,4308.4808,N,07726.6183,W,44.26,271.03,100924,,,A*4B
$GPGGA,142900.500,4308.4808,N,07726.6224,W,1,07,1.42,163.5,M,-34.4,M,,*57
lng=-77.443634, lat=43.141349, altitude=163.40, speed=44.26, satellites=7, angle=271.0300, fixquality=1
$GPRMC,142900.750,A,4308.4807,N,07726.6266,W,43.80,270.41,100924,,,A*45
$GPGGA,142901.000,4308.4807,N,07726.6307,W,1,07,1.38,163.6,M,-34.4,M,,*52
lng=-77.443771, lat=43.141342, altitude=163.50, speed=43.80, satellites=7, angle=270.4100, fixquality=1
$GPRMC,142901.250,A,4308.4806,N,07726.6348,W,43.43,269.72,100924,,,A*4A
$GPGGA,142901.500,4308.4806,N,07726.6389,W,1,07,1.42,163.8,M,-34.4,M,,*53
lng=-77.443916, lat=43.141342, altitude=163.60, speed=43.43, satellites=7, angle=269.7200, fixquality=1
$GPRMC,142901.750,A,4308.4805,N,07726.6430,W,43.16,269.07,100924,,,A*46
$GPGGA,142902.000,4308.4804,N,07726.6470,W,1,07,1.42,163.9,M,-34.4,M,,*57
lng=-77.444053, lat=43.141342, altitude=163.80, speed=43.16, satellites=7, angle=269.0700, fixquality=1
$GPRMC,142902.250,A,4308.4803,N,07726.6510,W,42.52,268.46,100924,,,A*40
$GPGGA,142902.500,4308.4802,N,07726.6551,W,1,07,1.42,164.0,M,-34.4,M,,*58
lng=-77.444183, lat=43.141342, altitude=163.90, speed=42.52, satellites=7, angle=268.4600, fixquality=1
$GPRMC,142902.750,A,4308.4801,N,07726.6591,W,42.41,268.09,100924,,,A*47
$GPGGA,142903.000,4308.4800,N,07726.6631,W,1,07,1.38,164.1,M,-34.4,M,,*57
lng=-77.444320, lat=43.141334, altitude=164.00, speed=42.41, satellites=7, angle=268.0900, fixquality=1
$GPRMC,142903.250,A,4308.4798,N,07726.6671,W,42.14,267.24,100924,,,A*41
$GPGGA,142903.500,4308.4797,N,07726.6711,W,1,07,1.42,164.2,M,-34.4,M,,*5E
lng=-77.444450, lat=43.141334, altitude=164.10, speed=42.14, satellites=7, angle=267.2400, fixquality=1
$GPRMC,142903.750,A,4308.4795,N,07726.6749,W,41.96,266.08,100924,,,A*45
$GPGGA,142904.000,4308.4793,N,07726.6788,W,1,07,1.42,164.3,M,-34.4,M,,*59
lng=-77.444580, lat=43.141323, altitude=164.20, speed=41.96, satellites=7, angle=266.0800, fixquality=1
$GPRMC,142904.250,A,4308.4791,N,07726.6827,W,41.69,265.77,100924,,,A*4F
$GPGGA,142904.500,4308.4789,N,07726.6866,W,1,07,1.42,164.4,M,-34.4,M,,*5F
lng=-77.444709, lat=43.141315, altitude=164.30, speed=41.69, satellites=7, angle=265.7700, fixquality=1
$GPRMC,142904.750,A,4308.4787,N,07726.6905,W,41.45,265.55,100924,,,A*42
$GPGGA,142905.000,4308.4785,N,07726.6943,W,1,07,1.42,164.5,M,-34.4,M,,*50
lng=-77.444839, lat=43.141307, altitude=164.40, speed=41.45, satellites=7, angle=265.5500, fixquality=1
$GPRMC,142905.250,A,4308.4783,N,07726.6981,W,41.15,265.38,100924,,,A*40
$GPGGA,142905.500,4308.4780,N,07726.7018,W,1,07,1.42,164.6,M,-34.4,M,,*55
lng=-77.444969, lat=43.141307, altitude=164.50, speed=41.15, satellites=7, angle=265.3800, fixquality=1
$GPRMC,142905.750,A,4308.4778,N,07726.7056,W,39.97,265.19,100924,,,A*45
$GPGGA,142906.000,4308.4776,N,07726.7093,W,1,07,1.42,164.6,M,-34.4,M,,*59
lng=-77.445091, lat=43.141300, altitude=164.60, speed=39.97, satellites=7, angle=265.1900, fixquality=1
$GPRMC,142906.250,A,4308.4774,N,07726.7130,W,38.57,265.13,100924,,,A*49
$GPGGA,142906.500,4308.4771,N,07726.7166,W,1,07,1.42,164.8,M,-34.4,M,,*5E
lng=-77.445213, lat=43.141292, altitude=164.60, speed=38.57, satellites=7, angle=265.1300, fixquality=1
$GPRMC,142906.750,A,4308.4769,N,07726.7202,W,37.85,265.14,100924,,,A*45
$GPGGA,142907.000,4308.4767,N,07726.7237,W,1,07,1.42,165.0,M,-34.4,M,,*53
lng=-77.445335, lat=43.141284, altitude=164.80, speed=37.85, satellites=7, angle=265.1400, fixquality=1
$GPRMC,142907.250,A,4308.4765,N,07726.7273,W,37.53,265.31,100924,,,A*47
$GPGGA,142907.500,4308.4763,N,07726.7308,W,1,07,1.42,165.1,M,-34.4,M,,*5E
lng=-77.445457, lat=43.141277, altitude=165.00, speed=37.53, satellites=7, angle=265.3100, fixquality=1
$GPRMC,142907.750,A,4308.4761,N,07726.7343,W,36.64,265.50,100924,,,A*46
$GPGGA,142908.000,4308.4759,N,07726.7378,W,1,07,1.38,165.3,M,-34.4,M,,*55
lng=-77.445571, lat=43.141269, altitude=165.10, speed=36.64, satellites=7, angle=265.5000, fixquality=1
$GPRMC,142908.250,A,4308.4757,N,07726.7412,W,36.03,265.37,100924,,,A*4A
$GPGGA,142908.500,4308.4756,N,07726.7445,W,1,07,1.42,165.4,M,-34.4,M,,*5C
lng=-77.445686, lat=43.141258, altitude=165.30, speed=36.03, satellites=7, angle=265.3700, fixquality=1
$GPRMC,142908.750,A,4308.4754,N,07726.7479,W,35.32,265.52,100924,,,A*43
$GPGGA,142909.000,4308.4752,N,07726.7511,W,1,07,1.42,165.5,M,-34.4,M,,*5D
lng=-77.445800, lat=43.141258, altitude=165.40, speed=35.32, satellites=7, angle=265.5200, fixquality=1
$GPRMC,142909.250,A,4308.4750,N,07726.7544,W,34.67,265.30,100924,,,A*49
$GPGGA,142909.500,4308.4748,N,07726.7577,W,1,07,1.42,165.7,M,-34.4,M,,*51
lng=-77.445907, lat=43.141250, altitude=165.50, speed=34.67, satellites=7, angle=265.3000, fixquality=1
$GPRMC,142909.750,A,4308.4746,N,07726.7609,W,34.27,264.99,100924,,,A*47
$GPGGA,142910.000,4308.4744,N,07726.7642,W,1,07,1.42,166.0,M,-34.4,M,,*51
lng=-77.446014, lat=43.141242, altitude=165.70, speed=34.27, satellites=7, angle=264.9900, fixquality=1
$GPRMC,142910.250,A,4308.4743,N,07726.7674,W,33.90,265.38,100924,,,A*44
$GPGGA,142910.500,4308.4741,N,07726.7706,W,1,07,1.42,166.3,M,-34.4,M,,*53
lng=-77.446128, lat=43.141235, altitude=166.00, speed=33.90, satellites=7, angle=265.3800, fixquality=1
$GPRMC,142910.750,A,4308.4740,N,07726.7738,W,33.46,266.29,100924,,,A*43
$GPGGA,142911.000,4308.4738,N,07726.7770,W,1,07,1.38,166.7,M,-34.4,M,,*51
lng=-77.446235, lat=43.141235, altitude=166.30, speed=33.46, satellites=7, angle=266.2900, fixquality=1
$GPRMC,142911.250,A,4308.4736,N,07726.7801,W,33.21,265.85,100924,,,A*47
$GPGGA,142911.500,4308.4735,N,07726.7832,W,1,07,1.42,167.0,M,-34.4,M,,*5B
lng=-77.446334, lat=43.141227, altitude=166.70, speed=33.21, satellites=7, angle=265.8500, fixquality=1
$GPRMC,142911.750,A,4308.4733,N,07726.7863,W,32.10,265.63,100924,,,A*48
$GPGGA,142912.000,4308.4732,N,07726.7895,W,1,07,1.42,167.3,M,-34.4,M,,*54
lng=-77.446434, lat=43.141220, altitude=167.00, speed=32.10, satellites=7, angle=265.6300, fixquality=1
$GPRMC,142912.250,A,4308.4730,N,07726.7926,W,32.54,265.33,100924,,,A*48
$GPGGA,142912.500,4308.4728,N,07726.7957,W,1,07,1.42,167.4,M,-34.4,M,,*52
lng=-77.446540, lat=43.141220, altitude=167.30, speed=32.54, satellites=7, angle=265.3300, fixquality=1
$GPRMC,142912.750,A,4308.4727,N,07726.7989,W,32.82,266.10,100924,,,A*47
$GPGGA,142913.000,4308.4726,N,07726.8021,W,1,07,1.38,167.6,M,-34.4,M,,*50
lng=-77.446647, lat=43.141212, altitude=167.40, speed=32.82, satellites=7, angle=266.1000, fixquality=1
$GPRMC,142913.250,A,4308.4725,N,07726.8053,W,33.06,266.18,100924,,,A*45
$GPGGA,142913.500,4308.4723,N,07726.8085,W,1,07,1.42,167.6,M,-34.4,M,,*53
lng=-77.446754, lat=43.141212, altitude=167.60, speed=33.06, satellites=7, angle=266.1800, fixquality=1
$GPRMC,142913.750,A,4308.4722,N,07726.8118,W,34.40,266.03,100924,,,A*46
$GPGGA,142914.000,4308.4720,N,07726.8151,W,1,07,1.42,167.5,M,-34.4,M,,*59
lng=-77.446868, lat=43.141201, altitude=167.60, speed=34.40, satellites=7, angle=266.0300, fixquality=1
$GPRMC,142914.250,A,4308.4718,N,07726.8185,W,34.54,265.78,100924,,,A*43
$GPGGA,142914.500,4308.4716,N,07726.8218,W,1,07,1.42,167.4,M,-34.4,M,,*56
lng=-77.446975, lat=43.141193, altitude=167.50, speed=34.54, satellites=7, angle=265.7800, fixquality=1
$GPRMC,142914.750,A,4308.4715,N,07726.8252,W,35.10,265.53,100924,,,A*4A
$GPGGA,142915.000,4308.4713,N,07726.8286,W,1,07,1.42,167.4,M,-34.4,M,,*50
lng=-77.447090, lat=43.141193, altitude=167.40, speed=35.10, satellites=7, angle=265.5300, fixquality=1
$GPRMC,142915.250,A,4308.4711,N,07726.8320,W,35.30,265.65,100924,,,A*49
$GPGGA,142915.500,4308.4710,N,07726.8354,W,1,07,1.42,167.4,M,-34.4,M,,*58
lng=-77.447196, lat=43.141185, altitude=167.40, speed=35.30, satellites=7, angle=265.6500, fixquality=1
$GPRMC,142915.750,A,4308.4708,N,07726.8389,W,35.59,265.83,100924,,,A*40
$GPGGA,142916.000,4308.4706,N,07726.8423,W,1,07,1.42,167.4,M,-34.4,M,,*5E
lng=-77.447311, lat=43.141178, altitude=167.40, speed=35.59, satellites=7, angle=265.8300, fixquality=1
$GPRMC,142916.250,A,4308.4704,N,07726.8458,W,36.79,265.57,100924,,,A*49
$GPGGA,142916.500,4308.4703,N,07726.8493,W,1,07,1.42,167.5,M,-34.4,M,,*54
lng=-77.447425, lat=43.141170, altitude=167.40, speed=36.79, satellites=7, angle=265.5700, fixquality=1
$GPRMC,142916.750,A,4308.4701,N,07726.8528,W,36.86,265.48,100924,,,A*41
$GPGGA,142917.000,4308.4699,N,07726.8563,W,1,07,1.42,167.6,M,-34.4,M,,*5F
lng=-77.447547, lat=43.141170, altitude=167.50, speed=36.86, satellites=7, angle=265.4800, fixquality=1
$GPRMC,142917.250,A,4308.4697,N,07726.8598,W,37.09,265.56,100924,,,A*49
$GPGGA,142917.500,4308.4695,N,07726.8634,W,1,07,1.42,167.7,M,-34.4,M,,*56
lng=-77.447662, lat=43.141162, altitude=167.60, speed=37.09, satellites=7, angle=265.5600, fixquality=1
$GPRMC,142917.750,A,4308.4693,N,07726.8669,W,37.21,265.44,100924,,,A*4C
$GPGGA,142918.000,4308.4691,N,07726.8704,W,1,07,1.42,167.7,M,-34.4,M,,*5A
lng=-77.447776, lat=43.141155, altitude=167.70, speed=37.21, satellites=7, angle=265.4400, fixquality=1
$GPRMC,142918.250,A,4308.4689,N,07726.8740,W,37.46,265.78,100924,,,A*49
$GPGGA,142918.500,4308.4687,N,07726.8775,W,1,07,1.42,167.7,M,-34.4,M,,*5E
lng=-77.447898, lat=43.141147, altitude=167.70, speed=37.46, satellites=7, angle=265.7800, fixquality=1
$GPRMC,142918.750,A,4308.4685,N,07726.8811,W,37.70,265.85,100924,,,A*4C
$GPGGA,142919.000,4308.4683,N,07726.8847,W,1,07,1.42,167.9,M,-34.4,M,,*5E
lng=-77.448013, lat=43.141136, altitude=167.70, speed=37.70, satellites=7, angle=265.8500, fixquality=1
$GPRMC,142919.250,A,4308.4681,N,07726.8883,W,38.04,265.53,100924,,,A*40
$GPGGA,142919.500,4308.4678,N,07726.8919,W,1,07,1.42,167.9,M,-34.4,M,,*55
lng=-77.448135, lat=43.141136, altitude=167.90, speed=38.04, satellites=7, angle=265.5300, fixquality=1
$GPRMC,142919.750,A,4308.4676,N,07726.8956,W,38.13,265.20,100924,,,A*46
$GPGGA,142920.000,4308.4673,N,07726.8993,W,1,07,1.42,167.9,M,-34.4,M,,*53
lng=-77.448257, lat=43.141128, altitude=167.90, speed=38.13, satellites=7, angle=265.2000, fixquality=1
$GPRMC,142920.250,A,4308.4670,N,07726.9030,W,39.11,264.66,100924,,,A*47
$GPGGA,142920.500,4308.4668,N,07726.9068,W,1,07,1.42,168.0,M,-34.4,M,,*56
lng=-77.448379, lat=43.141113, altitude=167.90, speed=39.11, satellites=7, angle=264.6600, fixquality=1
$GPRMC,142920.750,A,4308.4665,N,07726.9105,W,39.34,264.86,100924,,,A*48
$GPGGA,142921.000,4308.4662,N,07726.9143,W,1,07,1.38,168.0,M,-34.4,M,,*5D
lng=-77.448509, lat=43.141105, altitude=168.00, speed=39.34, satellites=7, angle=264.8600, fixquality=1
$GPRMC,142921.250,A,4308.4660,N,07726.9180,W,39.43,264.72,100924,,,A*4F
$GPGGA,142921.500,4308.4657,N,07726.9218,W,1,07,1.42,168.0,M,-34.4,M,,*5E
lng=-77.448631, lat=43.141098, altitude=168.00, speed=39.43, satellites=7, angle=264.7200, fixquality=1
$GPRMC,142921.750,A,4308.4654,N,07726.9256,W,39.63,264.43,100924,,,A*45
$GPGGA,142922.000,4308.4652,N,07726.9293,W,1,07,1.38,167.9,M,-34.4,M,,*55
lng=-77.448760, lat=43.141090, altitude=168.00, speed=39.63, satellites=7, angle=264.4300, fixquality=1
$GPRMC,142922.250,A,4308.4649,N,07726.9331,W,39.72,264.29,100924,,,A*43
$GPGGA,142922.500,4308.4646,N,07726.9369,W,1,07,1.42,167.8,M,-34.4,M,,*5D
lng=-77.448883, lat=43.141078, altitude=167.90, speed=39.72, satellites=7, angle=264.2900, fixquality=1
$GPRMC,142922.750,A,4308.4643,N,07726.9406,W,39.84,264.56,100924,,,A*4E
$GPGGA,142923.000,4308.4640,N,07726.9444,W,1,07,1.42,167.7,M,-34.4,M,,*58
lng=-77.449005, lat=43.141071, altitude=167.80, speed=39.84, satellites=7, angle=264.5600, fixquality=1
$GPRMC,142923.250,A,4308.4638,N,07726.9482,W,40.24,264.64,100924,,,A*4F
$GPGGA,142923.500,4308.4635,N,07726.9520,W,1,07,1.42,167.6,M,-34.4,M,,*5D
lng=-77.449134, lat=43.141063, altitude=167.70, speed=40.24, satellites=7, angle=264.6400, fixquality=1
$GPRMC,142923.750,A,4308.4633,N,07726.9559,W,40.35,264.75,100924,,,A*46
$GPGGA,142924.000,4308.4630,N,07726.9597,W,1,07,1.42,167.5,M,-34.4,M,,*55
lng=-77.449264, lat=43.141056, altitude=167.60, speed=40.35, satellites=7, angle=264.7500, fixquality=1
$GPRMC,142924.250,A,4308.4627,N,07726.9635,W,40.49,264.99,100924,,,A*41
$GPGGA,142924.500,4308.4625,N,07726.9674,W,1,07,1.42,167.3,M,-34.4,M,,*5C
lng=-77.449386, lat=43.141048, altitude=167.50, speed=40.49, satellites=7, angle=264.9900, fixquality=1
$GPRMC,142924.750,A,4308.4623,N,07726.9712,W,40.71,265.47,100924,,,A*4D
$GPGGA,142925.000,4308.4620,N,07726.9751,W,1,07,1.42,167.2,M,-34.4,M,,*5A
lng=-77.449516, lat=43.141040, altitude=167.30, speed=40.71, satellites=7, angle=265.4700, fixquality=1
$GPRMC,142925.250,A,4308.4618,N,07726.9790,W,41.22,265.68,100924,,,A*41
$GPGGA,142925.500,4308.4616,N,07726.9830,W,1,07,1.42,167.1,M,-34.4,M,,*51
lng=-77.449653, lat=43.141033, altitude=167.20, speed=41.22, satellites=7, angle=265.6800, fixquality=1
$GPRMC,142925.750,A,4308.4613,N,07726.9869,W,41.41,265.45,100924,,,A*4C
$GPGGA,142926.000,4308.4611,N,07726.9908,W,1,07,1.42,166.9,M,-34.4,M,,*53
lng=-77.449783, lat=43.141025, altitude=167.10, speed=41.41, satellites=7, angle=265.4500, fixquality=1
$GPRMC,142926.250,A,4308.4608,N,07726.9947,W,41.39,265.00,100924,,,A*43
$GPGGA,142926.500,4308.4605,N,07726.9986,W,1,07,1.42,166.7,M,-34.4,M,,*5B
lng=-77.449913, lat=43.141014, altitude=166.90, speed=41.39, satellites=7, angle=265.0000, fixquality=1
$GPRMC,142926.750,A,4308.4603,N,07727.0025,W,41.15,264.90,100924,,,A*4E
$GPGGA,142927.000,4308.4601,N,07727.0064,W,1,07,1.42,166.7,M,-34.4,M,,*56
lng=-77.450042, lat=43.141006, altitude=166.70, speed=41.15, satellites=7, angle=264.9000, fixquality=1
$GPRMC,142927.250,A,4308.4598,N,07727.0103,W,40.81,265.04,100924,,,A*4E
$GPGGA,142927.500,4308.4596,N,07727.0141,W,1,07,1.42,166.6,M,-34.4,M,,*59
lng=-77.450172, lat=43.140998, altitude=166.70, speed=40.81, satellites=7, angle=265.0400, fixquality=1
$GPRMC,142927.750,A,4308.4594,N,07727.0180,W,40.73,265.61,100924,,,A*42
$GPGGA,142928.000,4308.4593,N,07727.0218,W,1,07,1.42,166.5,M,-34.4,M,,*5A
lng=-77.450302, lat=43.140991, altitude=166.60, speed=40.73, satellites=7, angle=265.6100, fixquality=1
$GPRMC,142928.250,A,4308.4591,N,07727.0257,W,40.51,266.36,100924,,,A*45
$GPGGA,142928.500,4308.4590,N,07727.0295,W,1,07,1.42,166.5,M,-34.4,M,,*59
lng=-77.450431, lat=43.140983, altitude=166.50, speed=40.51, satellites=7, angle=266.3600, fixquality=1
$GPRMC,142928.750,A,4308.4589,N,07727.0333,W,40.06,267.04,100924,,,A*48
$GPGGA,142929.000,4308.4588,N,07727.0370,W,1,07,1.38,166.5,M,-34.4,M,,*53
lng=-77.450553, lat=43.140983, altitude=166.50, speed=40.06, satellites=7, angle=267.0400, fixquality=1
$GPRMC,142929.250,A,4308.4587,N,07727.0407,W,39.21,267.51,100924,,,A*49
$GPGGA,142929.500,4308.4586,N,07727.0444,W,1,07,1.42,166.4,M,-34.4,M,,*54
lng=-77.450675, lat=43.140975, altitude=166.50, speed=39.21, satellites=7, angle=267.5100, fixquality=1
$GPRMC,142929.750,A,4308.4585,N,07727.0479,W,37.93,268.38,100924,,,A*40
$GPGGA,142930.000,4308.4585,N,07727.0514,W,1,07,1.42,166.4,M,-34.4,M,,*5E
lng=-77.450798, lat=43.140975, altitude=166.40, speed=37.93, satellites=7, angle=268.3800, fixquality=1
$GPRMC,142930.250,A,4308.4584,N,07727.0549,W,36.93,269.18,100924,,,A*4C
$GPGGA,142930.500,4308.4585,N,07727.0583,W,1,07,1.42,166.3,M,-34.4,M,,*52
lng=-77.450912, lat=43.140975, altitude=166.40, speed=36.93, satellites=7, angle=269.1800, fixquality=1
$GPRMC,142930.750,A,4308.4585,N,07727.0616,W,35.43,270.54,100924,,,A*4F
$GPGGA,142931.000,4308.4586,N,07727.0648,W,1,07,1.38,166.2,M,-34.4,M,,*5D
lng=-77.451026, lat=43.140975, altitude=166.30, speed=35.43, satellites=7, angle=270.5400, fixquality=1
$GPRMC,142931.250,A,4308.4586,N,07727.0679,W,34.83,271.62,100924,,,A*48
$GPGGA,142931.500,4308.4588,N,07727.0710,W,1,07,1.42,166.3,M,-34.4,M,,*56
lng=-77.451133, lat=43.140975, altitude=166.20, speed=34.83, satellites=7, angle=271.6200, fixquality=1
$GPRMC,142931.750,A,4308.4589,N,07727.0739,W,32.07,272.27,100924,,,A*4F
$GPGGA,142932.000,4308.4589,N,07727.0768,W,1,07,1.42,166.3,M,-34.4,M,,*5E
lng=-77.451225, lat=43.140983, altitude=166.30, speed=32.07, satellites=7, angle=272.2700, fixquality=1
$GPRMC,142932.250,A,4308.4590,N,07727.0795,W,30.02,271.95,100924,,,A*4A
$GPGGA,142932.500,4308.4591,N,07727.0822,W,1,07,1.42,166.3,M,-34.4,M,,*53
lng=-77.451324, lat=43.140983, altitude=166.30, speed=30.02, satellites=7, angle=271.9500, fixquality=1
$GPRMC,142932.750,A,4308.4592,N,07727.0847,W,27.81,272.62,100924,,,A*4B
$GPGGA,142933.000,4308.4593,N,07727.0872,W,1,07,1.42,166.2,M,-34.4,M,,*51
lng=-77.451408, lat=43.140983, altitude=166.30, speed=27.81, satellites=7, angle=272.6200, fixquality=1
$GPRMC,142933.250,A,4308.4595,N,07727.0895,W,25.61,274.31,100924,,,A*4B
$GPGGA,142933.500,4308.4596,N,07727.0916,W,1,07,1.42,166.0,M,-34.4,M,,*50
lng=-77.451492, lat=43.140991, altitude=166.20, speed=25.61, satellites=7, angle=274.3100, fixquality=1
$GPRMC,142933.750,A,4308.4597,N,07727.0937,W,23.10,274.54,100924,,,A*46
$GPGGA,142934.000,4308.4598,N,07727.0957,W,1,07,1.42,165.8,M,-34.4,M,,*52
lng=-77.451560, lat=43.140991, altitude=166.00, speed=23.10, satellites=7, angle=274.5400, fixquality=1
$GPRMC,142934.250,A,4308.4599,N,07727.0975,W,20.74,275.11,100924,,,A*4D
$GPGGA,142934.500,4308.4600,N,07727.0992,W,1,07,1.42,165.4,M,-34.4,M,,*50
lng=-77.451629, lat=43.140998, altitude=165.80, speed=20.74, satellites=7, angle=275.1100, fixquality=1
$GPRMC,142934.750,A,4308.4601,N,07727.1007,W,18.09,275.68,100924,,,A*48
$GPGGA,142935.000,4308.4602,N,07727.1023,W,1,07,1.42,165.2,M,-34.4,M,,*52
lng=-77.451675, lat=43.140998, altitude=165.40, speed=18.09, satellites=7, angle=275.6800, fixquality=1
$GPRMC,142935.250,A,4308.4602,N,07727.1037,W,16.16,274.30,100924,,,A*40
$GPGGA,142935.500,4308.4602,N,07727.1044,W,1,07,1.42,165.0,M,-34.4,M,,*54
lng=-77.451728, lat=43.140998, altitude=165.20, speed=16.16, satellites=7, angle=274.3000, fixquality=1
$GPRMC,142935.750,A,4308.4603,N,07727.1051,W,13.26,274.31,100924,,,A*43
$GPGGA,142936.000,4308.4604,N,07727.1058,W,1,07,1.42,164.6,M,-34.4,M,,*5E
lng=-77.451751, lat=43.141006, altitude=165.00, speed=13.26, satellites=7, angle=274.3100, fixquality=1
$GPRMC,142936.250,A,4308.4604,N,07727.1065,W,10.72,273.78,100924,,,A*4D
$GPGGA,142936.500,4308.4605,N,07727.1072,W,1,07,1.42,164.4,M,-34.4,M,,*50
lng=-77.451774, lat=43.141006, altitude=164.60, speed=10.72, satellites=7, angle=273.7800, fixquality=1
$GPRMC,142936.750,A,4308.4605,N,07727.1078,W,8.71,272.26,100924,,,A*75
$GPGGA,142937.000,4308.4606,N,07727.1085,W,1,07,1.42,164.4,M,-34.4,M,,*5F
lng=-77.451797, lat=43.141006, altitude=164.40, speed=8.71, satellites=7, angle=272.2600, fixquality=1
$GPRMC,142937.250,A,4308.4607,N,07727.1090,W,7.00,273.77,100924,,,A*79
$GPGGA,142937.500,4308.4608,N,07727.1094,W,1,07,1.42,164.3,M,-34.4,M,,*53
lng=-77.451812, lat=43.141014, altitude=164.40, speed=7.00, satellites=7, angle=273.7700, fixquality=1
$GPRMC,142937.750,A,4308.4609,N,07727.1098,W,4.98,276.84,100924,,,A*71
$GPGGA,142938.000,4308.4610,N,07727.1101,W,1,07,1.42,164.1,M,-34.4,M,,*5F
lng=-77.451828, lat=43.141014, altitude=164.30, speed=4.98, satellites=7, angle=276.8400, fixquality=1
$GPRMC,142938.250,A,4308.4610,N,07727.1103,W,3.50,277.85,100924,,,A*73
$GPGGA,142938.500,4308.4612,N,07727.1104,W,1,07,1.38,164.0,M,-34.4,M,,*51
lng=-77.451835, lat=43.141014, altitude=164.10, speed=3.50, satellites=7, angle=277.8500, fixquality=1
$GPRMC,142938.750,A,4308.4612,N,07727.1105,W,1.91,277.85,100924,,,A*7D
$GPGGA,142939.000,4308.4613,N,07727.1106,W,1,07,1.38,164.1,M,-34.4,M,,*57
lng=-77.451835, lat=43.141025, altitude=164.00, speed=1.91, satellites=7, angle=277.8500, fixquality=1
$GPGGA,142940.500,4308.4617,N,07727.1111,W,1,07,1.38,163.9,M,-34.4,M,,*51
$GPRMC,142940.500,A,4308.4617,N,07727.1111,W,1.39,277.85,100924,,,A*77
lng=-77.451858, lat=43.141033, altitude=163.90, speed=1.35, satellites=7, angle=277.8500, fixquality=1
$GPGGA,142940.750,4308.4619,N,07727.1114,W,1,07,1.38,163.9,M,-34.4,M,,*5D
$GPRMC,142940.750,A,4308.4619,N,07727.1114,W,2.12,277.85,100924,,,A*71
lng=-77.451858, lat=43.141033, altitude=163.90, speed=1.39, satellites=7, angle=277.8500, fixquality=1
$GPRMC,142941.000,A,4308.4619,N,07727.1117,W,3.04,280.30,100924,,,A*71
$GPGGA,142941.250,4308.4620,N,07727.1119,W,1,07,1.38,163.9,M,-34.4,M,,*5E
lng=-77.451866, lat=43.141033, altitude=163.80, speed=3.04, satellites=7, angle=280.3000, fixquality=1
$GPRMC,142941.500,A,4308.4621,N,07727.1122,W,3.75,277.70,100924,,,A*73
$GPGGA,142941.750,4308.4622,N,07727.1125,W,1,07,1.38,163.8,M,-34.4,M,,*57
lng=-77.451873, lat=43.141033, altitude=163.90, speed=3.75, satellites=7, angle=277.7000, fixquality=1
$GPRMC,142942.000,A,4308.4623,N,07727.1129,W,4.67,279.80,100924,,,A*79
$GPGGA,142942.250,4308.4624,N,07727.1133,W,1,07,1.42,163.8,M,-34.4,M,,*5D
lng=-77.451881, lat=43.141040, altitude=163.80, speed=4.67, satellites=7, angle=279.8000, fixquality=1
$GPRMC,142942.500,A,4308.4625,N,07727.1137,W,6.06,278.66,100924,,,A*79
$GPGGA,142942.750,4308.4626,N,07727.1143,W,1,07,1.42,163.9,M,-34.4,M,,*5C
lng=-77.451896, lat=43.141040, altitude=163.80, speed=6.06, satellites=7, angle=278.6600, fixquality=1
$GPRMC,142943.000,A,4308.4627,N,07727.1150,W,8.49,279.02,100924,,,A*78
$GPGGA,142943.250,4308.4628,N,07727.1156,W,1,07,1.42,163.9,M,-34.4,M,,*52
lng=-77.451919, lat=43.141048, altitude=163.90, speed=8.49, satellites=7, angle=279.0200, fixquality=1
$GPRMC,142943.500,A,4308.4630,N,07727.1163,W,11.06,278.43,100924,,,A*4C
$GPGGA,142943.750,4308.4632,N,07727.1173,W,1,07,1.42,164.0,M,-34.4,M,,*55
lng=-77.451934, lat=43.141048, altitude=163.90, speed=11.06, satellites=7, angle=278.4300, fixquality=1
$GPRMC,142944.000,A,4308.4634,N,07727.1183,W,13.47,279.03,100924,,,A*46
$GPGGA,142944.250,4308.4636,N,07727.1194,W,1,07,1.42,164.2,M,-34.4,M,,*58
lng=-77.451972, lat=43.141056, altitude=164.00, speed=13.47, satellites=7, angle=279.0300, fixquality=1
$GPRMC,142944.500,A,4308.4637,N,07727.1207,W,15.50,278.20,100924,,,A*4F
$GPGGA,142944.750,4308.4639,N,07727.1223,W,1,07,1.42,164.3,M,-34.4,M,,*5C
lng=-77.452011, lat=43.141063, altitude=164.20, speed=15.50, satellites=7, angle=278.2000, fixquality=1
$GPRMC,142945.000,A,4308.4641,N,07727.1239,W,17.37,277.86,100924,,,A*47
$GPGGA,142945.250,4308.4643,N,07727.1256,W,1,07,1.42,164.5,M,-34.4,M,,*51
lng=-77.452064, lat=43.141063, altitude=164.30, speed=17.37, satellites=7, angle=277.8600, fixquality=1
$GPRMC,142945.500,A,4308.4646,N,07727.1275,W,19.64,278.57,100924,,,A*46
$GPGGA,142945.750,4308.4649,N,07727.1294,W,1,07,1.42,164.7,M,-34.4,M,,*52
lng=-77.452125, lat=43.141071, altitude=164.50, speed=19.64, satellites=7, angle=278.5700, fixquality=1
$GPRMC,142946.000,A,4308.4652,N,07727.1314,W,21.46,278.39,100924,,,A*40
$GPGGA,142946.250,4308.4655,N,07727.1335,W,1,07,1.42,164.8,M,-34.4,M,,*5C
lng=-77.452186, lat=43.141090, altitude=164.70, speed=21.46, satellites=7, angle=278.3900, fixquality=1
$GPRMC,142946.500,A,4308.4657,N,07727.1357,W,23.65,278.80,100924,,,A*46
$GPGGA,142946.750,4308.4661,N,07727.1379,W,1,07,1.42,164.8,M,-34.4,M,,*56
lng=-77.452262, lat=43.141098, altitude=164.80, speed=23.65, satellites=7, angle=278.8000, fixquality=1
$GPRMC,142947.000,A,4308.4664,N,07727.1403,W,25.69,279.75,100924,,,A*45
$GPGGA,142947.250,4308.4667,N,07727.1427,W,1,07,1.42,164.9,M,-34.4,M,,*59
lng=-77.452339, lat=43.141105, altitude=164.80, speed=25.69, satellites=7, angle=279.7500, fixquality=1
$GPRMC,142947.500,A,4308.4670,N,07727.1452,W,27.74,279.82,100924,,,A*47
$GPGGA,142947.750,4308.4674,N,07727.1478,W,1,07,1.42,164.9,M,-34.4,M,,*54
lng=-77.452415, lat=43.141113, altitude=164.90, speed=27.74, satellites=7, angle=279.8200, fixquality=1
$GPRMC,142948.000,A,4308.4678,N,07727.1505,W,29.45,279.49,100924,,,A*4D
$GPGGA,142948.250,4308.4681,N,07727.1533,W,1,07,1.42,164.9,M,-34.4,M,,*5A
lng=-77.452507, lat=43.141128, altitude=164.90, speed=29.45, satellites=7, angle=279.4900, fixquality=1
$GPRMC,142948.500,A,4308.4685,N,07727.1562,W,30.29,279.43,100924,,,A*43
$GPGGA,142948.750,4308.4689,N,07727.1591,W,1,07,1.42,164.8,M,-34.4,M,,*5E
lng=-77.452606, lat=43.141136, altitude=164.90, speed=30.29, satellites=7, angle=279.4300, fixquality=1
$GPRMC,142949.000,A,4308.4693,N,07727.1621,W,32.71,279.36,100924,,,A*49
$GPGGA,142949.250,4308.4697,N,07727.1651,W,1,07,1.42,164.8,M,-34.4,M,,*5A
lng=-77.452705, lat=43.141155, altitude=164.80, speed=32.71, satellites=7, angle=279.3600, fixquality=1
$GPRMC,142949.500,A,4308.4700,N,07727.1682,W,33.35,278.69,100924,,,A*44
$GPGGA,142949.750,4308.4704,N,07727.1714,W,1,07,1.42,164.6,M,-34.4,M,,*5A
lng=-77.452796, lat=43.141170, altitude=164.80, speed=33.35, satellites=7, angle=278.6900, fixquality=1
$GPRMC,142950.000,A,4308.4708,N,07727.1747,W,35.58,279.53,100924,,,A*4C
$GPGGA,142950.250,4308.4713,N,07727.1780,W,1,07,1.42,164.5,M,-34.4,M,,*5F
lng=-77.452911, lat=43.141178, altitude=164.60, speed=35.58, satellites=7, angle=279.5300, fixquality=1
$GPRMC,142950.500,A,4308.4717,N,07727.1815,W,37.21,279.62,100924,,,A*41
$GPGGA,142950.750,4308.4721,N,07727.1850,W,1,07,1.42,164.5,M,-34.4,M,,*59
lng=-77.453025, lat=43.141193, altitude=164.50, speed=37.21, satellites=7, angle=279.6200, fixquality=1
$GPRMC,142951.000,A,4308.4726,N,07727.1886,W,38.43,279.29,100924,,,A*49
$GPGGA,142951.250,4308.4730,N,07727.1922,W,1,07,1.42,164.5,M,-34.4,M,,*59
lng=-77.453140, lat=43.141212, altitude=164.50, speed=38.43, satellites=7, angle=279.2900, fixquality=1
$GPRMC,142951.500,A,4308.4735,N,07727.1959,W,39.68,279.91,100924,,,A*46
$GPGGA,142951.750,4308.4739,N,07727.1996,W,1,07,1.42,164.5,M,-34.4,M,,*5A
