Vers 72
USE_SERIAL_FEEDBACK=true
DEVELOPMENT_MODE=false
USE_RMC_ONLY=false

$GPRMC,135300.250,A,4308.2959,N,07726.2657,W,0.21,250.87,060924,,,A*77
$GPGGA,135300.500,4308.2957,N,07726.2659,W,1,04,2.05,213.0,M,-34.4,M,,*58
lng=-77.437759, lat=43.138263, altitude=183.60, speed=0.21, satellites=4, angle=250.8700, fixquality=1
$GPRMC,135300.750,A,4308.2954,N,07726.2661,W,0.26,242.22,060924,,,A*71
$GPGGA,135301.000,4308.2951,N,07726.2662,W,1,04,2.05,216.2,M,-34.4,M,,*55
lng=-77.437767, lat=43.138256, altitude=213.00, speed=0.26, satellites=4, angle=242.2200, fixquality=1
$GPGGA,135302.250,4308.2941,N,07726.2667,W,1,04,2.05,222.1,M,-34.4,M,,*51
$GPRMC,135302.250,A,4308.2941,N,07726.2667,W,0.02,247.02,060924,,,A*75
lng=-77.437774, lat=43.138233, altitude=222.10, speed=0.04, satellites=4, angle=270.0500, fixquality=1
$GPGGA,135302.500,4308.2940,N,07726.2668,W,1,04,2.05,222.6,M,-34.4,M,,*5A
$GPRMC,135302.500,A,4308.2940,N,07726.2668,W,0.05,164.91,060924,,,A*76
lng=-77.437774, lat=43.138233, altitude=222.60, speed=0.02, satellites=4, angle=247.0200, fixquality=1
$GPGGA,135308.000,4308.2938,N,07726.2679,W,1,04,2.05,224.9,M,-34.4,M,,*53
$GPRMC,135308.000,A,4308.2938,N,07726.2679,W,0.10,306.93,060924,,,A*76
lng=-77.437797, lat=43.138233, altitude=224.90, speed=0.03, satellites=4, angle=292.6800, fixquality=1
$GPGGA,135308.250,4308.2939,N,07726.2679,W,1,04,2.05,224.8,M,-34.4,M,,*54
$GPRMC,135308.250,A,4308.2939,N,07726.2679,W,0.11,305.42,060924,,,A*7E
lng=-77.437797, lat=43.138233, altitude=224.80, speed=0.10, satellites=4, angle=306.9300, fixquality=1
$GPGGA,135313.500,4308.2952,N,07726.2680,W,1,04,2.05,219.1,M,-34.4,M,,*50
$GPRMC,135313.500,A,4308.2952,N,07726.2680,W,0.09,115.65,060924,,,A*72
lng=-77.437797, lat=43.138256, altitude=219.10, speed=0.14, satellites=4, angle=97.6000, fixquality=1
$GPGGA,135313.750,4308.2952,N,07726.2681,W,1,04,2.05,219.0,M,-34.4,M,,*57
$GPRMC,135313.750,A,4308.2952,N,07726.2681,W,0.04,135.66,060924,,,A*78
lng=-77.437797, lat=43.138256, altitude=219.00, speed=0.09, satellites=4, angle=115.6500, fixquality=1
$GPGGA,135316.000,4308.2967,N,07726.2682,W,1,04,2.05,211.4,M,-34.4,M,,*59
$GPRMC,135316.000,A,4308.2967,N,07726.2682,W,0.30,317.59,060924,,,A*73
lng=-77.437797, lat=43.138282, altitude=211.40, speed=0.28, satellites=4, angle=317.1400, fixquality=1
$GPGGA,135316.250,4308.2968,N,07726.2682,W,1,04,2.05,210.8,M,-34.4,M,,*5C
$GPRMC,135316.250,A,4308.2968,N,07726.2682,W,0.25,314.27,060924,,,A*75
lng=-77.437797, lat=43.138282, altitude=210.80, speed=0.30, satellites=4, angle=317.5900, fixquality=1
$GPGGA,135319.250,4308.2981,N,07726.2681,W,1,04,2.05,203.7,M,-34.4,M,,*5A
$GPRMC,135319.250,A,4308.2981,N,07726.2681,W,0.22,330.21,060924$GPGGA,135319.500,4308.2981,N,07726.2680,W,1,04,2.05,203.3,M,-34.4,M,,*5D
lng=-77.437797, lat=43.138305, altitude=203.70, speed=0.22, satellites=4, angle=332.6700, fixquality=1
$GPRMC,135319.750,A,4308.2982,N,07726.2679,W,0.14,350.54,060924,,,A*79
$GPGGA,135320.000,4308.2983,N,07726.2680,W,1,04,6.58,202.5,M,-34.4,M,,*5B
lng=-77.437797, lat=43.138305, altitude=203.70, speed=0.14, satellites=4, angle=350.5400, fixquality=1
$GPGGA,135326.000,4308.2996,N,07726.2678,W,1,04,2.05,193.5,M,-34.4,M,,*59
$GPRMC,135326.000,A,4308.2996,N,07726.2678,W,0.08,294.90,060924,,,A*7F
lng=-77.437789, lat=43.138328, altitude=193.50, speed=0.13, satellites=4, angle=284.1600, fixquality=1
$GPGGA,135326.250,4308.2996,N,07726.2677,W,1,04,2.05,193.1,M,-34.4,M,,*55
$GPRMC,135326.250,A,4308.2996,N,07726.2677,W,0.06,293.46,060924,,,A*75
lng=-77.437789, lat=43.138328, altitude=193.10, speed=0.08, satellites=4, angle=294.9000, fixquality=1
$GPGGA,135331.250,4308.3011,N,07726.2672,W,1,04,2.05,183.8,M,-34.4,M,,*59
$GPRMC,135331.250,A,4308.3011,N,07726.2672,W,0.06,231.31,060924,,,A*79
lng=-77.437782, lat=43.138355, altitude=183.80, speed=0.04, satellites=4, angle=235.6700, fixquality=1
$GPGGA,135331.500,4308.3011,N,07726.2672,W,1,04,2.05,183.6,M,-34.4,M,,*55
$GPRMC,135331.500,A,4308.3011,N,07726.2672,W,0.08,220.13,060924,,,A*75
lng=-77.437782, lat=43.138355, altitude=183.60, speed=0.06, satellites=4, angle=231.3100, fixquality=1
$GPGGA,135347.750,4308.3024,N,07726.2658,W,1,04,2.05,172.0,M,-34.4,M,,*55
$GPRMC,135347.750,A,4308.3024,N,07726.2658,W,0.30,93.43,060924,,,A*49
lng=-77.437759, lat=43.138370, altitude=172.00, speed=0.27, satellites=4, angle=91.0700, fixquality=1
$GPGGA,135348.000,4308.3024,N,07726.2657,W,1,04,2.05,171.8,M,-34.4,M,,*5C
$GPRMC,135348.000,A,4308.3024,N,07726.2657,W,0.31,96.73,060924,,,A*4C
lng=-77.437759, lat=43.138370, altitude=171.80, speed=0.30, satellites=4, angle=93.4300, fixquality=1
$GPGGA,135404.750,4308.3029,N,07726.2644,W,1,05,1.69,169.1,M,-34.4,M,,*56
$GPRMC,135404.750,A,4308.3029,N,07726.2644,W,0.30,88.80,060924,$GPGGA,135405.000,4308.3029,N,07726.2644,W,1,05,1.69,169.1,M,-34.4,M,,*55
lng=-77.437736, lat=43.138378, altitude=169.10, speed=0.31, satellites=5, angle=88.7800, fixquality=1
$GPRMC,135405.250,A,4308.3029,N,07726.2644,W,0.33,88.60,060924,,,A*45
$GPGGA,135405.500,4308.3029,N,07726.2643,W,1,05,1.69,169.1,M,-34.4,M,,*57
lng=-77.437736, lat=43.138378, altitude=169.10, speed=0.33, satellites=5, angle=88.6000, fixquality=1
$GPGGA,135419.500,4308.3031,N,07726.2629,W,1,05,1.69,169.1,M,-34.4,M,,*5F
$GPRMC,135419.500,A,4308.3031,N,07726.2629,W,0.25,107.23,060924,,,A*7E
lng=-77.437713, lat=43.138385, altitude=169.10, speed=0.19, satellites=5, angle=94.7800, fixquality=1
$GPGGA,135419.750,4308.3031,N,07726.2629,W,1,05,1.69,169.1,M,-34.4,M,,*58
$GPRMC,135419.750,A,4308.3031,N,07726.2629,W,0.22,103.47,060924,,,A*78
lng=-77.437713, lat=43.138385, altitude=169.10, speed=0.25, satellites=5, angle=107.2300, fixquality=1
$GPGGA,135607.750,4308.3041,N,07726.2641,W,1,07,1.18,168.0,M,-34.4,M,,*58
$GPRMC,135607.750,A,4308.3041,N,07726.2641,W,1.02,9.77,060924,,,A*77
lng=-77.437736, lat=43.138404, altitude=168.00, speed=0.86, satellites=7, angle=10.1500, fixquality=1
$GPGGA,135608.000,4308.3044,N,07726.2643,W,1,07,1.18,167.4,M,-34.4,M,,*59
$GPRMC,135608.000,A,4308.3044,N,07726.2643,W,1.17,9.30,060924,,,A*7A
lng=-77.437736, lat=43.138404, altitude=167.40, speed=1.02, satellites=7, angle=9.7700, fixquality=1
$GPRMC,135608.750,A,4308.3052,N,07726.2643,W,2.70,4.78,060924,,,A*7C
$GPGGA,135609.000,4308.3055,N,07726.2643,W,1,07,1.18,167.2,M,-34.4,M,,*5E
lng=-77.437736, lat=43.138420, altitude=167.30, speed=2.70, satellites=7, angle=4.7800, fixquality=1
$GPRMC,135609.250,A,4308.3058,N,07726.2642,W,4.00,7.23,060924,,,A*7F
$GPGGA,135609.500,4308.3062,N,07726.2642,W,1,07,1.18,167.1,M,-34.4,M,,*5D
lng=-77.437736, lat=43.138427, altitude=167.20, speed=4.00, satellites=7, angle=7.2300, fixquality=1
$GPRMC,135609.750,A,4308.3065,N,07726.2640,W,4.51,11.21,060924,,,A*47
$GPGGA,135610.000,4308.3068,N,07726.2640,W,1,07,1.18,167.1,M,-34.4,M,,*58
lng=-77.437736, lat=43.138442, altitude=167.10, speed=4.51, satellites=7, angle=11.2100, fixquality=1
$GPRMC,135610.250,A,4308.3072,N,07726.2639,W,4.47,12.12,060924,,,A*46
$GPGGA,135610.500,4308.3075,N,07726.2638,W,1,07,1.18,167.2,M,-34.4,M,,*5D
lng=-77.437728, lat=43.138450, altitude=167.10, speed=4.47, satellites=7, angle=12.1200, fixquality=1
$GPRMC,135610.750,A,4308.3077,N,07726.2636,W,3.86,24.85,060924,,,A*48
$GPGGA,135611.000,4308.3079,N,07726.2634,W,1,07,1.18,167.2,M,-34.4,M,,*59
lng=-77.437728, lat=43.138462, altitude=167.20, speed=3.86, satellites=7, angle=24.8500, fixquality=1
$GPRMC,135611.250,A,4308.3082,N,07726.2633,W,3.20,24.67,060924,,,A*43
$GPGGA,135611.500,4308.3084,N,07726.2632,W,1,07,1.18,167.3,M,-34.4,M,,*59
lng=-77.437721, lat=43.138469, altitude=167.20, speed=3.20, satellites=7, angle=24.6700, fixquality=1
$GPRMC,135611.750,A,4308.3086,N,07726.2633,W,2.43,10.05,060924,,,A*45
$GPGGA,135612.000,4308.3088,N,07726.2633,W,1,07,1.18,167.3,M,-34.4,M,,*52
lng=-77.437721, lat=43.138477, altitude=167.30, speed=2.43, satellites=7, angle=10.0500, fixquality=1
$GPGGA,135613.750,4308.3099,N,07726.2631,W,1,07,1.18,167.3,M,-34.4,M,,*53
$GPRMC,135613.750,A,4308.3099,N,07726.2631,W,1.79,9.58,060924,,,A*71
lng=-77.437721, lat=43.138500, altitude=167.30, speed=1.54, satellites=7, angle=10.0800, fixquality=1
$GPGGA,135614.000,4308.3101,N,07726.2631,W,1,07,1.18,167.3,M,-34.4,M,,*56
$GPRMC,135614.000,A,4308.3101,N,07726.2631,W,1.94,10.76,060924,,,A*43
lng=-77.437721, lat=43.138500, altitude=167.30, speed=1.79, satellites=7, angle=9.5800, fixquality=1
$GPRMC,135614.750,A,4308.3108,N,07726.2630,W,3.07,18.53,060924,,,A*4E
$GPGGA,135615.000,4308.3111,N,07726.2629,W,1,07,1.18,167.1,M,-34.4,M,,*5D
lng=-77.437721, lat=43.138515, altitude=167.20, speed=3.07, satellites=7, angle=18.5300, fixquality=1
$GPRMC,135615.250,A,4308.3113,N,07726.2628,W,3.37,21.06,060924,,,A*40
$GPGGA,135615.500,4308.3116,N,07726.2625,W,1,07,1.18,167.0,M,-34.4,M,,*52
lng=-77.437713, lat=43.138526, altitude=167.10, speed=3.37, satellites=7, angle=21.0600, fixquality=1
$GPRMC,135615.750,A,4308.3118,N,07726.2623,W,3.51,31.47,060924,,,A*41
$GPGGA,135616.000,4308.3120,N,07726.2621,W,1,07,1.18,167.0,M,-34.4,M,,*55
lng=-77.437705, lat=43.138534, altitude=167.00, speed=3.51, satellites=7, angle=31.4700, fixquality=1
$GPRMC,135616.250,A,4308.3122,N,07726.2620,W,3.21,36.45,060924,,,A*4F
$GPGGA,135616.500,4308.3125,N,07726.2618,W,1,07,1.18,167.0,M,-34.4,M,,*5F
lng=-77.437705, lat=43.138534, altitude=167.00, speed=3.21, satellites=7, angle=36.4500, fixquality=1
$GPRMC,135616.750,A,4308.3128,N,07726.2616,W,3.66,39.17,060924,,,A*4E
$GPGGA,135617.000,4308.3130,N,07726.2614,W,1,07,1.18,166.6,M,-34.4,M,,*54
lng=-77.437698, lat=43.138549, altitude=167.00, speed=3.66, satellites=7, angle=39.1700, fixquality=1
$GPRMC,135617.250,A,4308.3132,N,07726.2612,W,3.17,45.33,060924,,,A*4E
$GPGGA,135617.500,4308.3133,N,07726.2610,W,1,07,1.18,166.6,M,-34.4,M,,*56
lng=-77.437690, lat=43.138549, altitude=166.60, speed=3.17, satellites=7, angle=45.3300, fixquality=1
$GPRMC,135617.750,A,4308.3133,N,07726.2607,W,2.51,66.21,060924,,,A*4F
$GPGGA,135618.000,4308.3134,N,07726.2606,W,1,07,1.18,166.6,M,-34.4,M,,*5C
lng=-77.437675, lat=43.138557, altitude=166.60, speed=2.51, satellites=7, angle=66.2100, fixquality=1
$GPRMC,135618.250,A,4308.3135,N,07726.2605,W,1.83,72.09,060924,,,A*42
$GPGGA,135618.500,4308.3136,N,07726.2605,W,1,07,1.18,166.3,M,-34.4,M,,*5D
lng=-77.437675, lat=43.138557, altitude=166.60, speed=1.83, satellites=7, angle=72.0900, fixquality=1
$GPGGA,135620.000,4308.3134,N,07726.2618,W,1,07,1.18,166.3,M,-34.4,M,,*5D
$GPRMC,135620.000,A,4308.3134,N,07726.2618,W,1.42,244.01,060924,,,A*71
lng=-77.437698, lat=43.138557, altitude=166.30, speed=0.80, satellites=7, angle=260.1900, fixquality=1
$GPGGA,135620.250,4308.3134,N,07726.2624,W,1,07,1.18,166.2,M,-34.4,M,,*54
$GPRMC,135620.250,A,4308.3134,N,07726.2624,W,1.99,249.74,060924,,,A*70
lng=-77.437705, lat=43.138557, altitude=166.20, speed=1.42, satellites=7, angle=244.0100, fixquality=1
$GPRMC,135620.500,A,4308.3134,N,07726.2631,W,2.64,254.09,060924,,,A*71
$GPGGA,135620.750,4308.3134,N,07726.2639,W,1,07,1.18,166.0,M,-34.4,M,,*5F
lng=-77.437721, lat=43.138557, altitude=166.10, speed=2.64, satellites=7, angle=254.0900, fixquality=1
$GPRMC,135621.000,A,4308.3134,N,07726.2646,W,5.26,261.56,060924,,,A*78
$GPGGA,135621.250,4308.3134,N,07726.2653,W,1,07,1.18,165.9,M,-34.4,M,,*5D
lng=-77.437744, lat=43.138557, altitude=166.00, speed=5.26, satellites=7, angle=261.5600, fixquality=1
$GPRMC,135621.500,A,4308.3135,N,07726.2661,W,6.86,270.43,060924,,,A*74
$GPGGA,135621.750,4308.3137,N,07726.2670,W,1,07,1.18,165.7,M,-34.4,M,,*54
lng=-77.437767, lat=43.138557, altitude=165.90, speed=6.86, satellites=7, angle=270.4300, fixquality=1
$GPRMC,135622.000,A,4308.3139,N,07726.2679,W,8.67,277.99,060924,,,A*76
$GPGGA,135622.250,4308.3141,N,07726.2688,W,1,07,1.18,165.7,M,-34.4,M,,*54
lng=-77.437797, lat=43.138565, altitude=165.70, speed=8.67, satellites=7, angle=277.9900, fixquality=1
$GPRMC,135622.500,A,4308.3143,N,07726.2698,W,9.61,281.08,060924,,,A*77
$GPGGA,135622.750,4308.3145,N,07726.2708,W,1,07,1.18,165.4,M,-34.4,M,,*5F
lng=-77.437835, lat=43.138572, altitude=165.70, speed=9.61, satellites=7, angle=281.0800, fixquality=1
$GPRMC,135623.000,A,4308.3148,N,07726.2719,W,10.31,282.28,060924,,,A*4C
$GPGGA,135623.250,4308.3153,N,07726.2730,W,1,07,1.18,165.1,M,-34.4,M,,*52
lng=-77.437866, lat=43.138584, altitude=165.40, speed=10.31, satellites=7, angle=282.2800, fixquality=1
$GPRMC,135623.500,A,4308.3158,N,07726.2742,W,11.34,284.84,060924,,,A*42
$GPGGA,135623.750,4308.3162,N,07726.2755,W,1,07,1.18,164.8,M,-34.4,M,,*5E
lng=-77.437904, lat=43.138599, altitude=165.10, speed=11.34, satellites=7, angle=284.8400, fixquality=1
$GPRMC,135624.000,A,4308.3167,N,07726.2768,W,12.34,286.44,060924,,,A*49
$GPGGA,135624.250,4308.3171,N,07726.2781,W,1,07,1.18,164.5,M,-34.4,M,,*5A
lng=-77.437950, lat=43.138614, altitude=164.80, speed=12.34, satellites=7, angle=286.4400, fixquality=1
$GPRMC,135624.500,A,4308.3175,N,07726.2794,W,13.18,289.21,060924,,,A*4F
$GPGGA,135624.750,4308.3180,N,07726.2807,W,1,07,1.18,164.2,M,-34.4,M,,*57
lng=-77.437988, lat=43.138622, altitude=164.50, speed=13.18, satellites=7, angle=289.2100, fixquality=1
$GPRMC,135625.000,A,4308.3185,N,07726.2821,W,14.28,291.24,060924,,,A*4D
$GPGGA,135625.250,4308.3190,N,07726.2836,W,1,07,1.18,163.9,M,-34.4,M,,*5C
lng=-77.438034, lat=43.138637, altitude=164.20, speed=14.28, satellites=7, angle=291.2400, fixquality=1
$GPRMC,135625.500,A,4308.3196,N,07726.2850,W,15.43,293.15,060924,,,A*40
$GPGGA,135625.750,4308.3202,N,07726.2865,W,1,07,1.18,163.6,M,-34.4,M,,*58
lng=-77.438087, lat=43.138664, altitude=163.90, speed=15.43, satellites=7, angle=293.1500, fixquality=1
$GPRMC,135626.000,A,4308.3207,N,07726.2881,W,16.54,293.91,060924,,,A*48
$GPGGA,135626.250,4308.3214,N,07726.2897,W,1,07,1.18,163.3,M,-34.4,M,,*51
lng=-77.438133, lat=43.138679, altitude=163.60, speed=16.54, satellites=7, angle=293.9100, fixquality=1
$GPRMC,135626.500,A,4308.3220,N,07726.2913,W,17.53,295.69,060924,,,A*45
$GPGGA,135626.750,4308.3227,N,07726.2930,W,1,07,1.18,163.1,M,-34.4,M,,*5A
lng=-77.438194, lat=43.138694, altitude=163.30, speed=17.53, satellites=7, angle=295.6900, fixquality=1
$GPRMC,135627.000,A,4308.3234,N,07726.2945,W,18.02,297.20,060924,,,A*43
$GPGGA,135627.250,4308.3241,N,07726.2961,W,1,07,1.18,162.9,M,-34.4,M,,*53
lng=-77.438240, lat=43.138721, altitude=163.10, speed=18.02, satellites=7, angle=297.2000, fixquality=1
$GPRMC,135627.500,A,4308.3248,N,07726.2977,W,18.65,297.75,060924,,,A*4D
$GPGGA,135627.750,4308.3256,N,07726.2993,W,1,07,1.18,162.7,M,-34.4,M,,*53
lng=-77.438301, lat=43.138744, altitude=162.90, speed=18.65, satellites=7, angle=297.7500, fixquality=1
$GPRMC,135628.000,A,4308.3264,N,07726.3010,W,19.53,299.65,060924,,,A*4B
$GPGGA,135628.250,4308.3272,N,07726.3027,W,1,07,1.18,162.4,M,-34.4,M,,*5B
lng=-77.438346, lat=43.138771, altitude=162.70, speed=19.53, satellites=7, angle=299.6500, fixquality=1
$GPRMC,135628.500,A,4308.3280,N,07726.3045,W,20.38,300.76,060924,,,A*40
$GPGGA,135628.750,4308.3289,N,07726.3063,W,1,07,1.18,162.2,M,-34.4,M,,*5C
lng=-77.438407, lat=43.138801, altitude=162.40, speed=20.38, satellites=7, angle=300.7600, fixquality=1
$GPRMC,135629.000,A,4308.3298,N,07726.3081,W,21.63,301.56,060924,,,A*49
$GPGGA,135629.250,4308.3307,N,07726.3099,W,1,07,1.18,162.0,M,-34.4,M,,*58
lng=-77.438468, lat=43.138828, altitude=162.20, speed=21.63, satellites=7, angle=301.5600, fixquality=1
$GPRMC,135629.500,A,4308.3316,N,07726.3117,W,22.22,302.49,060924,,,A*4E
$GPGGA,135629.750,4308.3325,N,07726.3136,W,1,07,1.18,161.8,M,-34.4,M,,*52
lng=-77.438522, lat=43.138858, altitude=162.00, speed=22.22, satellites=7, angle=302.4900, fixquality=1
$GPRMC,135630.000,A,4308.3334,N,07726.3154,W,22.81,301.88,060924,,,A*43
$GPGGA,135630.250,4308.3342,N,07726.3173,W,1,07,1.18,161.7,M,-34.4,M,,*50
lng=-77.438591, lat=43.138893, altitude=161.80, speed=22.81, satellites=7, angle=301.8800, fixquality=1
$GPRMC,135630.500,A,4308.3351,N,07726.3192,W,23.29,301.58,060924,,,A*41
$GPGGA,135630.750,4308.3360,N,07726.3211,W,1,07,1.18,161.6,M,-34.4,M,,*53
lng=-77.438652, lat=43.138916, altitude=161.70, speed=23.29, satellites=7, angle=301.5800, fixquality=1
$GPRMC,135631.000,A,4308.3369,N,07726.3231,W,23.81,301.82,060924,,,A*41
$GPGGA,135631.250,4308.3378,N,07726.3251,W,1,07,1.18,161.4,M,-34.4,M,,*58
lng=-77.438720, lat=43.138950, altitude=161.60, speed=23.81, satellites=7, angle=301.8200, fixquality=1
$GPRMC,135631.500,A,4308.3388,N,07726.3271,W,24.35,302.43,060924,,,A*49
$GPGGA,135631.750,4308.3397,N,07726.3291,W,1,07,1.18,161.3,M,-34.4,M,,*57
lng=-77.438789, lat=43.138980, altitude=161.40, speed=24.35, satellites=7, angle=302.4300, fixquality=1
$GPRMC,135632.000,A,4308.3406,N,07726.3311,W,24.70,302.92,060924,,,A*44
$GPGGA,135632.250,4308.3416,N,07726.3332,W,1,07,1.18,161.1,M,-34.4,M,,*55
lng=-77.438850, lat=43.139015, altitude=161.30, speed=24.70, satellites=7, angle=302.9200, fixquality=1
$GPRMC,135632.500,A,4308.3425,N,07726.3352,W,24.71,303.26,060924,,,A*48
$GPGGA,135632.750,4308.3435,N,07726.3371,W,1,07,1.18,161.1,M,-34.4,M,,*56
lng=-77.438919, lat=43.139038, altitude=161.10, speed=24.71, satellites=7, angle=303.2600, fixquality=1
$GPRMC,135633.000,A,4308.3444,N,07726.3391,W,24.32,304.10,060924,,,A*41
$GPGGA,135633.250,4308.3454,N,07726.3410,W,1,07,1.18,161.0,M,-34.4,M,,*54
lng=-77.438980, lat=43.139072, altitude=161.10, speed=24.32, satellites=7, angle=304.1000, fixquality=1
$GPRMC,135633.500,A,4308.3463,N,07726.3429,W,23.75,304.78,060924,,,A*4F
$GPGGA,135633.750,4308.3472,N,07726.3448,W,1,07,1.18,161.0,M,-34.4,M,,*58
lng=-77.439048, lat=43.139102, altitude=161.00, speed=23.75, satellites=7, angle=304.7800, fixquality=1
$GPRMC,135634.000,A,4308.3481,N,07726.3466,W,23.16,305.12,060924,,,A*42
$GPGGA,135634.250,4308.3490,N,07726.3484,W,1,07,1.18,161.0,M,-34.4,M,,*56
lng=-77.439109, lat=43.139137, altitude=161.00, speed=23.16, satellites=7, angle=305.1200, fixquality=1
$GPRMC,135634.500,A,4308.3499,N,07726.3502,W,22.67,305.69,060924,,,A*46
$GPGGA,135634.750,4308.3508,N,07726.3519,W,1,07,1.18,161.1,M,-34.4,M,,*57
lng=-77.439170, lat=43.139167, altitude=161.00, speed=22.67, satellites=7, angle=305.6900, fixquality=1
$GPRMC,135635.000,A,4308.3517,N,07726.3536,W,22.19,306.93,060924,,,A*4D
$GPGGA,135635.250,4308.3527,N,07726.3552,W,1,07,1.18,161.1,M,-34.4,M,,*51
lng=-77.439224, lat=43.139194, altitude=161.10, speed=22.19, satellites=7, angle=306.9300, fixquality=1
$GPRMC,135635.500,A,4308.3536,N,07726.3568,W,21.67,307.95,060924,,,A*4D
$GPGGA,135635.750,4308.3545,N,07726.3584,W,1,07,1.18,161.2,M,-34.4,M,,*58
lng=-77.439285, lat=43.139225, altitude=161.10, speed=21.67, satellites=7, angle=307.9500, fixquality=1
$GPRMC,135636.000,A,4308.3555,N,07726.3598,W,21.05,311.20,060924,,,A*4C
$GPGGA,135636.250,4308.3565,N,07726.3613,W,1,07,1.18,161.3,M,-34.4,M,,*50
lng=-77.439331, lat=43.139259, altitude=161.20, speed=21.05, satellites=7, angle=311.2000, fixquality=1
$GPRMC,135636.500,A,4308.3575,N,07726.3626,W,20.71,314.91,060924,,,A*40
$GPGGA,135636.750,4308.3586,N,07726.3639,W,1,07,1.18,161.4,M,-34.4,M,,*57
lng=-77.439376, lat=43.139289, altitude=161.30, speed=20.71, satellites=7, angle=314.9100, fixquality=1
$GPRMC,135637.000,A,4308.3597,N,07726.3652,W,20.76,319.14,060924,,,A*4C
$GPGGA,135637.250,4308.3608,N,07726.3664,W,1,07,1.18,161.6,M,-34.4,M,,*5C
lng=-77.439422, lat=43.139331, altitude=161.40, speed=20.76, satellites=7, angle=319.1400, fixquality=1
$GPRMC,135637.500,A,4308.3620,N,07726.3676,W,21.03,322.89,060924,,,A*4F
$GPGGA,135637.750,4308.3633,N,07726.3687,W,1,07,1.18,161.8,M,-34.4,M,,*52
lng=-77.439460, lat=43.139362, altitude=161.60, speed=21.03, satellites=7, angle=322.8900, fixquality=1
$GPRMC,135638.000,A,4308.3646,N,07726.3697,W,21.45,327.53,060924,,,A*4A
$GPGGA,135638.250,4308.3659,N,07726.3707,W,1,07,1.18,162.0,M,-34.4,M,,*56
lng=-77.439491, lat=43.139411, altitude=161.80, speed=21.45, satellites=7, angle=327.5300, fixquality=1
$GPRMC,135638.500,A,4308.3673,N,07726.3716,W,21.82,331.54,060924,,,A*4A
$GPGGA,135638.750,4308.3687,N,07726.3725,W,1,07,1.18,162.2,M,-34.4,M,,*52
lng=-77.439529, lat=43.139453, altitude=162.00, speed=21.82, satellites=7, angle=331.5400, fixquality=1
$GPRMC,135639.000,A,4308.3701,N,07726.3733,W,22.39,335.39,060924,,,A*41
$GPGGA,135639.250,4308.3716,N,07726.3741,W,1,07,1.18,162.3,M,-34.4,M,,*5C
lng=-77.439559, lat=43.139503, altitude=162.20, speed=22.39, satellites=7, angle=335.3900, fixquality=1
$GPRMC,135639.500,A,4308.3731,N,07726.3748,W,22.90,338.40,060924,,,A*4B
$GPGGA,135639.750,4308.3746,N,07726.3755,W,1,07,1.18,162.3,M,-34.4,M,,*59
lng=-77.439582, lat=43.139549, altitude=162.30, speed=22.90, satellites=7, angle=338.4000, fixquality=1
$GPRMC,135640.000,A,4308.3762,N,07726.3760,W,23.03,342.09,060924,,,A*47
$GPGGA,135640.250,4308.3777,N,07726.3766,W,1,07,1.18,162.5,M,-34.4,M,,*56
lng=-77.439598, lat=43.139598, altitude=162.30, speed=23.03, satellites=7, angle=342.0900, fixquality=1
$GPRMC,135640.500,A,4308.3793,N,07726.3770,W,23.07,345.60,060924,,,A*41
$GPGGA,135640.750,4308.3809,N,07726.3775,W,1,07,1.18,162.6,M,-34.4,M,,*54
lng=-77.439613, lat=43.139656, altitude=162.50, speed=23.07, satellites=7, angle=345.6000, fixquality=1
$GPRMC,135641.000,A,4308.3825,N,07726.3779,W,23.11,347.26,060924,,,A*49
$GPGGA,135641.250,4308.3840,N,07726.3783,W,1,07,1.18,162.8,M,-34.4,M,,*5A
lng=-77.439628, lat=43.139705, altitude=162.60, speed=23.11, satellites=7, angle=347.2600, fixquality=1
$GPRMC,135641.500,A,4308.3857,N,07726.3784,W,23.43,351.76,060924,,,A*4E
$GPGGA,135641.750,4308.3874,N,07726.3785,W,1,07,1.18,163.0,M,-34.4,M,,*57
lng=-77.439643, lat=43.139762, altitude=162.80, speed=23.43, satellites=7, angle=351.7600, fixquality=1
$GPRMC,135642.000,A,4308.3890,N,07726.3785,W,23.81,357.63,060924,,,A*4E
$GPGGA,135642.250,4308.3907,N,07726.3784,W,1,07,1.18,163.2,M,-34.4,M,,*57
lng=-77.439643, lat=43.139820, altitude=163.00, speed=23.81, satellites=7, angle=357.6300, fixquality=1
$GPRMC,135642.500,A,4308.3924,N,07726.3783,W,24.33,1.26,060924,,,A*4C
$GPGGA,135642.750,4308.3941,N,07726.3780,W,1,07,1.18,163.3,M,-34.4,M,,*55
lng=-77.439643, lat=43.139877, altitude=163.20, speed=24.33, satellites=7, angle=1.2600, fixquality=1
$GPRMC,135643.000,A,4308.3958,N,07726.3778,W,25.00,4.98,060924,,,A*46
$GPGGA,135643.250,4308.3976,N,07726.3774,W,1,07,1.18,163.5,M,-34.4,M,,*58
lng=-77.439628, lat=43.139934, altitude=163.30, speed=25.00, satellites=7, angle=4.9800, fixquality=1
$GPRMC,135643.500,A,4308.3994,N,07726.3771,W,25.56,7.59,060924,,,A*47
$GPGGA,135643.750,4308.4011,N,07726.3767,W,1,07,1.18,163.6,M,-34.4,M,,*53
lng=-77.439613, lat=43.139991, altitude=163.50, speed=25.56, satellites=7, angle=7.5900, fixquality=1
$GPRMC,135644.000,A,4308.4029,N,07726.3762,W,25.91,9.92,060924,,,A*4D
$GPGGA,135644.250,4308.4047,N,07726.3758,W,1,07,1.18,163.7,M,-34.4,M,,*5F
lng=-77.439598, lat=43.140048, altitude=163.60, speed=25.91, satellites=7, angle=9.9200, fixquality=1
$GPRMC,135644.500,A,4308.4064,N,07726.3753,W,25.82,10.40,060924,,,A*76
$GPGGA,135644.750,4308.4082,N,07726.3748,W,1,07,1.18,163.9,M,-34.4,M,,*5C
lng=-77.439590, lat=43.140102, altitude=163.70, speed=25.82, satellites=7, angle=10.4000, fixquality=1
$GPRMC,135645.000,A,4308.4099,N,07726.3744,W,25.41,10.83,060924,,,A*76
$GPGGA,135645.250,4308.4116,N,07726.3739,W,1,07,1.18,164.1,M,-34.4,M,,*5D
lng=-77.439575, lat=43.140159, altitude=163.90, speed=25.41, satellites=7, angle=10.8300, fixquality=1
$GPRMC,135645.500,A,4308.4133,N,07726.3734,W,24.93,11.18,060924,,,A*78
$GPGGA,135645.750,4308.4150,N,07726.3730,W,1,07,1.18,164.3,M,-34.4,M,,*51
lng=-77.439559, lat=43.140216, altitude=164.10, speed=24.93, satellites=7, angle=11.1800, fixquality=1
$GPRMC,135646.000,A,4308.4167,N,07726.3725,W,24.89,10.78,060924,,,A*73
$GPGGA,135646.250,4308.4183,N,07726.3720,W,1,07,1.18,164.6,M,-34.4,M,,*5D
lng=-77.439544, lat=43.140274, altitude=164.30, speed=24.89, satellites=7, angle=10.7800, fixquality=1
$GPRMC,135646.500,A,4308.4200,N,07726.3716,W,24.64,10.41,060924,,,A*7D
$GPGGA,135646.750,4308.4216,N,07726.3712,W,1,07,1.18,164.8,M,-34.4,M,,*58
lng=-77.439529, lat=43.140331, altitude=164.60, speed=24.64, satellites=7, angle=10.4100, fixquality=1
$GPRMC,135647.000,A,4308.4232,N,07726.3708,W,23.87,9.80,060924,,,A*48
$GPGGA,135647.250,4308.4248,N,07726.3704,W,1,07,1.18,165.0,M,-34.4,M,,*59
lng=-77.439506, lat=43.140388, altitude=164.80, speed=23.87, satellites=7, angle=9.8000, fixquality=1
$GPRMC,135647.500,A,4308.4264,N,07726.3700,W,23.49,9.76,060924,,,A*4D
$GPGGA,135647.750,4308.4280,N,07726.3696,W,1,07,1.18,165.2,M,-34.4,M,,*50
lng=-77.439498, lat=43.140438, altitude=165.00, speed=23.49, satellites=7, angle=9.7600, fixquality=1
$GPRMC,135648.000,A,4308.4296,N,07726.3692,W,23.00,9.95,060924,,,A*40
$GPGGA,135648.250,4308.4311,N,07726.3688,W,1,07,1.18,165.3,M,-34.4,M,,*5D
lng=-77.439483, lat=43.140495, altitude=165.20, speed=23.00, satellites=7, angle=9.9500, fixquality=1
$GPRMC,135648.500,A,4308.4327,N,07726.3684,W,22.51,9.95,060924,,,A*4C
$GPGGA,135648.750,4308.4342,N,07726.3680,W,1,07,1.18,165.6,M,-34.4,M,,*53
lng=-77.439468, lat=43.140544, altitude=165.30, speed=22.51, satellites=7, angle=9.9500, fixquality=1
$GPRMC,135649.000,A,4308.4357,N,07726.3676,W,21.90,9.90,060924,,,A*49
$GPGGA,135649.250,4308.4372,N,07726.3673,W,1,07,1.18,165.9,M,-34.4,M,,*57
lng=-77.439460, lat=43.140590, altitude=165.60, speed=21.90, satellites=7, angle=9.9000, fixquality=1
$GPRMC,135649.500,A,4308.4387,N,07726.3670,W,21.22,9.03,060924,,,A*44
$GPGGA,135649.750,4308.4402,N,07726.3666,W,1,07,1.18,166.1,M,-34.4,M,,*5D
lng=-77.439453, lat=43.140640, altitude=165.90, speed=21.22, satellites=7, angle=9.0300, fixquality=1
$GPRMC,135650.000,A,4308.4416,N,07726.3663,W,20.50,8.51,060924,,,A*46
$GPGGA,135650.250,4308.4430,N,07726.3660,W,1,07,1.18,166.5,M,-34.4,M,,*53
lng=-77.439437, lat=43.140689, altitude=166.10, speed=20.50, satellites=7, angle=8.5100, fixquality=1
$GPRMC,135650.500,A,4308.4443,N,07726.3657,W,19.59,8.51,060924,,,A*47
$GPGGA,135650.750,4308.4456,N,07726.3653,W,1,07,1.18,166.5,M,-34.4,M,,*56
lng=-77.439430, lat=43.140739, altitude=166.50, speed=19.59, satellites=7, angle=8.5100, fixquality=1
$GPRMC,135651.000,A,4308.4469,N,07726.3650,W,18.22,8.75,060924,,,A*47
$GPGGA,135651.250,4308.4481,N,07726.3647,W,1,07,1.18,166.6,M,-34.4,M,,*5E
lng=-77.439422, lat=43.140781, altitude=166.50, speed=18.22, satellites=7, angle=8.7500, fixquality=1
$GPRMC,135651.500,A,4308.4492,N,07726.3645,W,16.80,8.19,060924,,,A*4E
$GPGGA,135651.750,4308.4502,N,07726.3643,W,1,07,1.18,166.8,M,-34.4,M,,*5B
lng=-77.439407, lat=43.140819, altitude=166.60, speed=16.80, satellites=7, angle=8.1900, fixquality=1
$GPRMC,135652.000,A,4308.4512,N,07726.3639,W,14.96,8.37,060924,,,A*43
$GPGGA,135652.250,4308.4522,N,07726.3636,W,1,07,1.18,166.9,M,-34.4,M,,*5C
lng=-77.439399, lat=43.140853, altitude=166.80, speed=14.96, satellites=7, angle=8.3700, fixquality=1
$GPRMC,135652.500,A,4308.4530,N,07726.3633,W,13.19,7.98,060924,,,A*46
$GPGGA,135652.750,4308.4538,N,07726.3632,W,1,07,1.18,167.2,M,-34.4,M,,*5C
lng=-77.439384, lat=43.140884, altitude=166.90, speed=13.19, satellites=7, angle=7.9800, fixquality=1
$GPRMC,135653.000,A,4308.4545,N,07726.3630,W,11.24,7.48,060924,,,A*42
$GPGGA,135653.250,4308.4551,N,07726.3628,W,1,07,1.18,167.4,M,-34.4,M,,*5A
lng=-77.439376, lat=43.140911, altitude=167.20, speed=11.24, satellites=7, angle=7.4800, fixquality=1
$GPRMC,135653.500,A,4308.4556,N,07726.3626,W,9.10,7.93,060924,,,A*7A
$GPGGA,135653.750,4308.4561,N,07726.3624,W,1,07,1.18,167.6,M,-34.4,M,,*52
lng=-77.439376, lat=43.140926, altitude=167.40, speed=9.10, satellites=7, angle=7.9300, fixquality=1
$GPRMC,135654.000,A,4308.4565,N,07726.3624,W,6.69,5.77,060924,,,A*73
$GPGGA,135654.250,4308.4569,N,07726.3623,W,1,07,1.18,167.8,M,-34.4,M,,*51
lng=-77.439369, lat=43.140941, altitude=167.60, speed=6.69, satellites=7, angle=5.7700, fixquality=1
$GPRMC,135654.500,A,4308.4572,N,07726.3622,W,4.76,2.38,060924,,,A*76
$GPGGA,135654.750,4308.4574,N,07726.3621,W,1,07,1.18,168.0,M,-34.4,M,,*5D
lng=-77.439369, lat=43.140949, altitude=167.80, speed=4.76, satellites=7, angle=2.3800, fixquality=1
$GPRMC,135655.000,A,4308.4575,N,07726.3621,W,2.89,357.53,060924,,,A*7E
$GPGGA,135655.250,4308.4577,N,07726.3620,W,1,07,1.18,168.1,M,-34.4,M,,*5A
lng=-77.439369, lat=43.140956, altitude=168.00, speed=2.89, satellites=7, angle=357.5300, fixquality=1
$GPRMC,135655.500,A,4308.4578,N,07726.3621,W,2.67,357.53,060924,,,A*76
$GPGGA,135655.750,4308.4580,N,07726.3622,W,1,07,1.18,168.4,M,-34.4,M,,*50
lng=-77.439369, lat=43.140968, altitude=168.10, speed=2.67, satellites=7, angle=357.5300, fixquality=1
$GPRMC,135656.000,A,4308.4583,N,07726.3624,W,4.50,335.40,060924,,,A*75
$GPGGA,135656.250,4308.4587,N,07726.3625,W,1,07,1.18,168.6,M,-34.4,M,,*54
lng=-77.439369, lat=43.140975, altitude=168.40, speed=4.50, satellites=7, angle=335.4000, fixquality=1
$GPRMC,135656.500,A,4308.4591,N,07726.3628,W,6.44,329.99,060924,,,A*71
$GPGGA,135656.750,4308.4595,N,07726.3632,W,1,07,1.18,168.9,M,-34.4,M,,*5B
lng=-77.439376, lat=43.140983, altitude=168.60, speed=6.44, satellites=7, angle=329.9900, fixquality=1
$GPRMC,135657.000,A,4308.4600,N,07726.3638,W,8.27,321.38,060924,,,A*77
$GPGGA,135657.250,4308.4604,N,07726.3643,W,1,07,1.18,169.1,M,-34.4,M,,*5B
lng=-77.439399, lat=43.140998, altitude=168.90, speed=8.27, satellites=7, angle=321.3800, fixquality=1
$GPRMC,135657.500,A,4308.4611,N,07726.3654,W,11.52,313.55,060924,,,A*48
$GPGGA,135657.750,4308.4617,N,07726.3664,W,1,07,1.18,168.7,M,-34.4,M,,*5E
lng=-77.439422, lat=43.141014, altitude=169.10, speed=11.52, satellites=7, angle=313.5500, fixquality=1
$GPRMC,135658.000,A,4308.4623,N,07726.3675,W,13.76,307.46,060924,,,A*43
$GPGGA,135658.250,4308.4627,N,07726.3686,W,1,07,1.18,168.4,M,-34.4,M,,*58
lng=-77.439460, lat=43.141040, altitude=168.70, speed=13.76, satellites=7, angle=307.4600, fixquality=1
$GPRMC,135658.500,A,4308.4629,N,07726.3702,W,15.63,291.99,060924,,,A*43
$GPGGA,135658.750,4308.4632,N,07726.3718,W,1,07,1.18,168.2,M,-34.4,M,,*59
lng=-77.439498, lat=43.141048, altitude=168.40, speed=15.63, satellites=7, angle=291.9900, fixquality=1
$GPRMC,135659.000,A,4308.4634,N,07726.3733,W,17.50,283.34,060924,,,A*4F
$GPGGA,135659.250,4308.4637,N,07726.3750,W,1,07,1.18,167.8,M,-34.4,M,,*51
lng=-77.439559, lat=43.141056, altitude=168.20, speed=17.50, satellites=7, angle=283.3400, fixquality=1
$GPRMC,135659.500,A,4308.4640,N,07726.3767,W,18.88,280.53,060924,,,A*40
$GPGGA,135659.750,4308.4641,N,07726.3785,W,1,07,1.18,167.2,M,-34.4,M,,*57
lng=-77.439605, lat=43.141063, altitude=167.80, speed=18.88, satellites=7, angle=280.5300, fixquality=1
$GPRMC,135700.000,A,4308.4643,N,07726.3803,W,20.19,275.55,060924,,,A*49
$GPGGA,135700.250,4308.4644,N,07726.3822,W,1,07,1.18,166.7,M,-34.4,M,,*5C
lng=-77.439674, lat=43.141071, altitude=167.20, speed=20.19, satellites=7, angle=275.5500, fixquality=1
$GPRMC,135700.500,A,4308.4644,N,07726.3842,W,21.06,273.28,060924,,,A*4D
$GPGGA,135700.750,4308.4645,N,07726.3862,W,1,07,1.18,166.3,M,-34.4,M,,*58
lng=-77.439735, lat=43.141071, altitude=166.70, speed=21.06, satellites=7, angle=273.2800, fixquality=1
$GPRMC,135701.000,A,4308.4646,N,07726.3882,W,21.49,272.85,060924,,,A*4A
$GPGGA,135701.250,4308.4647,N,07726.3903,W,1,07,1.18,165.9,M,-34.4,M,,*51
lng=-77.439804, lat=43.141071, altitude=166.30, speed=21.49, satellites=7, angle=272.8500, fixquality=1
$GPRMC,135701.500,A,4308.4648,N,07726.3924,W,21.58,272.65,060924,,,A*42
$GPGGA,135701.750,4308.4650,N,07726.3944,W,1,07,1.18,165.5,M,-34.4,M,,*5D
lng=-77.439872, lat=43.141078, altitude=165.90, speed=21.58, satellites=7, angle=272.6500, fixquality=1
$GPRMC,135702.000,A,4308.4650,N,07726.3964,W,21.55,272.64,060924,,,A*45
$GPGGA,135702.250,4308.4652,N,07726.3985,W,1,07,1.18,165.2,M,-34.4,M,,*53
lng=-77.439941, lat=43.141078, altitude=165.50, speed=21.55, satellites=7, angle=272.6400, fixquality=1
$GPRMC,135702.500,A,4308.4653,N,07726.4004,W,21.06,273.28,060924,,,A*44
$GPGGA,135702.750,4308.4654,N,07726.4024,W,1,07,1.18,164.8,M,-34.4,M,,*5E
lng=-77.440010, lat=43.141090, altitude=165.20, speed=21.06, satellites=7, angle=273.2800, fixquality=1
$GPRMC,135703.000,A,4308.4656,N,07726.4044,W,20.82,274.12,060924,,,A*42
$GPGGA,135703.250,4308.4657,N,07726.4064,W,1,07,1.18,164.5,M,-34.4,M,,*50
lng=-77.440071, lat=43.141098, altitude=164.80, speed=20.82, satellites=7, angle=274.1200, fixquality=1
$GPRMC,135703.500,A,4308.4658,N,07726.4084,W,20.62,274.65,060924,,,A*4B
$GPGGA,135703.750,4308.4660,N,07726.4104,W,1,07,1.18,164.2,M,-34.4,M,,*51
lng=-77.440139, lat=43.141098, altitude=164.50, speed=20.62, satellites=7, angle=274.6500, fixquality=1
$GPRMC,135704.000,A,4308.4661,N,07726.4123,W,20.38,275.34,060924,,,A*45
$GPGGA,135704.250,4308.4663,N,07726.4143,W,1,07,1.18,164.0,M,-34.4,M,,*51
lng=-77.440200, lat=43.141105, altitude=164.20, speed=20.38, satellites=7, angle=275.3400, fixquality=1
$GPRMC,135704.500,A,4308.4665,N,07726.4162,W,20.17,275.90,060924,,,A*42
$GPGGA,135704.750,4308.4666,N,07726.4181,W,1,07,1.18,163.8,M,-34.4,M,,*50
lng=-77.440269, lat=43.141105, altitude=164.00, speed=20.17, satellites=7, angle=275.9000, fixquality=1
$GPRMC,135705.000,A,4308.4668,N,07726.4200,W,19.84,276.72,060924,,,A*43
$GPGGA,135705.250,4308.4670,N,07726.4219,W,1,07,1.18,163.5,M,-34.4,M,,*5C
lng=-77.440330, lat=43.141113, altitude=163.80, speed=19.84, satellites=7, angle=276.7200, fixquality=1
$GPRMC,135705.500,A,4308.4672,N,07726.4236,W,18.90,278.08,060924,,,A*4F
$GPGGA,135705.750,4308.4674,N,07726.4253,W,1,07,1.18,163.3,M,-34.4,M,,*55
lng=-77.440399, lat=43.141120, altitude=163.50, speed=18.90, satellites=7, angle=278.0800, fixquality=1
$GPRMC,135706.000,A,4308.4675,N,07726.4270,W,17.34,279.96,060924,,,A*4B
$GPGGA,135706.250,4308.4678,N,07726.4285,W,1,07,1.18,163.2,M,-34.4,M,,*55
lng=-77.440444, lat=43.141120, altitude=163.30, speed=17.34, satellites=7, angle=279.9600, fixquality=1
$GPRMC,135706.500,A,4308.4681,N,07726.4298,W,14.58,281.92,060924,,,A*49
$GPGGA,135706.750,4308.4684,N,07726.4310,W,1,07,1.18,163.1,M,-34.4,M,,*5D
lng=-77.440498, lat=43.141136, altitude=163.20, speed=14.58, satellites=7, angle=281.9200, fixquality=1
$GPRMC,135707.000,A,4308.4686,N,07726.4320,W,11.48,284.47,060924,,,A*41
$GPGGA,135707.250,4308.4688,N,07726.4329,W,1,07,1.18,162.6,M,-34.4,M,,*59
lng=-77.440536, lat=43.141147, altitude=163.10, speed=11.48, satellites=7, angle=284.4700, fixquality=1
$GPRMC,135707.500,A,4308.4690,N,07726.4338,W,9.88,284.06,060924,,,A*7A
$GPGGA,135707.750,4308.4692,N,07726.4347,W,1,07,1.18,162.3,M,-34.4,M,,*5A
lng=-77.440559, lat=43.141155, altitude=162.60, speed=9.88, satellites=7, angle=284.0600, fixquality=1
$GPRMC,135708.000,A,4308.4695,N,07726.4355,W,9.05,283.61,060924,,,A*7D
$GPGGA,135708.250,4308.4696,N,07726.4363,W,1,07,1.18,161.9,M,-34.4,M,,*5B
lng=-77.440589, lat=43.141162, altitude=162.30, speed=9.05, satellites=7, angle=283.6100, fixquality=1
$GPRMC,135708.500,A,4308.4698,N,07726.4369,W,7.60,283.79,060924,,,A*7E
$GPGGA,135708.750,4308.4699,N,07726.4375,W,1,07,1.18,161.6,M,-34.4,M,,*59
lng=-77.440620, lat=43.141162, altitude=161.90, speed=7.60, satellites=7, angle=283.7900, fixquality=1
$GPRMC,135709.000,A,4308.4699,N,07726.4380,W,5.95,283.25,060924,,,A*7D
$GPGGA,135709.250,4308.4700,N,07726.4385,W,1,07,1.18,161.1,M,-34.4,M,,*54
lng=-77.440635, lat=43.141162, altitude=161.60, speed=5.95, satellites=7, angle=283.2500, fixquality=1
$GPRMC,135709.500,A,4308.4701,N,07726.4390,W,5.48,282.31,060924,,,A*7D
$GPGGA,135709.750,4308.4702,N,07726.4395,W,1,07,1.18,160.9,M,-34.4,M,,*5B
lng=-77.440650, lat=43.141170, altitude=161.10, speed=5.48, satellites=7, angle=282.3100, fixquality=1
$GPRMC,135710.000,A,4308.4702,N,07726.4399,W,4.56,281.00,060924,,,A*75
$GPGGA,135710.250,4308.4703,N,07726.4402,W,1,07,1.18,160.7,M,-34.4,M,,*50
lng=-77.440666, lat=43.141170, altitude=160.90, speed=4.56, satellites=7, angle=281.0000, fixquality=1
$GPRMC,135710.500,A,4308.4703,N,07726.4404,W,3.31,280.86,060924,,,A*7B
$GPGGA,135710.750,4308.4704,N,07726.4406,W,1,07,1.18,160.5,M,-34.4,M,,*54
lng=-77.440673, lat=43.141170, altitude=160.70, speed=3.31, satellites=7, angle=280.8600, fixquality=1
$GPRMC,135711.000,A,4308.4705,N,07726.4407,W,1.71,280.86,060924,,,A*7C
$GPGGA,135711.250,4308.4705,N,07726.4408,W,1,07,1.18,160.3,M,-34.4,M,,*59
lng=-77.440681, lat=43.141178, altitude=160.50, speed=1.71, satellites=7, angle=280.8600, fixquality=1
$GPGGA,135726.000,4308.4716,N,07726.4397,W,1,07,1.18,159.9,M,-34.4,M,,*59
$GPRMC,135726.000,A,4308.4716,N,07726.4397,W,0.09,31.41,060924,,,A*49
lng=-77.440658, lat=43.141193, altitude=159.90, speed=0.08, satellites=7, angle=31.4100, fixquality=1
$GPGGA,135726.250,4308.4716,N,07726.4397,W,1,07,1.18,159.9,M,-34.4,M,,*5E
$GPRMC,135726.250,A,4308.4716,N,07726.4397,W,0.10,31.41,060924,,,A*46
lng=-77.440658, lat=43.141193, altitude=159.90, speed=0.09, satellites=7, angle=31.4100, fixquality=1
$GPRMC,135739.500,A,4308.4717,N,07726.4399,W,5.13,269.64,060924,,,A*7B
$GPGGA,135739.750,4308.4717,N,07726.4406,W,1,07,1.18,160.1,M,-34.4,M,,*59
lng=-77.440666, lat=43.141193, altitude=160.10, speed=5.13, satellites=7, angle=269.6400, fixquality=1
$GPRMC,135740.000,A,4308.4716,N,07726.4414,W,7.27,266.55,060924,,,A*7B
$GPGGA,135740.250,4308.4716,N,07726.4423,W,1,07,1.18,160.2,M,-34.4,M,,*57
lng=-77.440689, lat=43.141193, altitude=160.10, speed=7.27, satellites=7, angle=266.5500, fixquality=1
$GPRMC,135740.500,A,4308.4716,N,07726.4434,W,9.72,269.67,060924,,,A*7C
$GPGGA,135740.750,4308.4717,N,07726.4447,W,1,07,1.18,160.2,M,-34.4,M,,*51
lng=-77.440719, lat=43.141193, altitude=160.20, speed=9.72, satellites=7, angle=269.6700, fixquality=1
$GPRMC,135741.000,A,4308.4718,N,07726.4459,W,11.81,274.00,060924,,,A*45
$GPGGA,135741.250,4308.4719,N,07726.4472,W,1,07,1.18,160.3,M,-34.4,M,,*5C
lng=-77.440765, lat=43.141193, altitude=160.20, speed=11.81, satellites=7, angle=274.0000, fixquality=1
$GPRMC,135741.500,A,4308.4720,N,07726.4487,W,13.74,273.98,060924,,,A*46
$GPGGA,135741.750,4308.4721,N,07726.4503,W,1,07,1.18,160.3,M,-34.4,M,,*55
lng=-77.440811, lat=43.141201, altitude=160.30, speed=13.74, satellites=7, angle=273.9800, fixquality=1
$GPRMC,135742.000,A,4308.4722,N,07726.4519,W,16.04,273.98,060924,,,A*46
$GPGGA,135742.250,4308.4723,N,07726.4536,W,1,07,1.18,160.4,M,-34.4,M,,*50
lng=-77.440864, lat=43.141201, altitude=160.30, speed=16.04, satellites=7, angle=273.9800, fixquality=1
$GPRMC,135742.500,A,4308.4724,N,07726.4553,W,17.31,273.10,060924,,,A*4C
$GPGGA,135742.750,4308.4725,N,07726.4571,W,1,07,1.18,160.4,M,-34.4,M,,*50
lng=-77.440917, lat=43.141201, altitude=160.40, speed=17.31, satellites=7, angle=273.1000, fixquality=1
$GPRMC,135743.000,A,4308.4726,N,07726.4590,W,18.80,273.09,060924,,,A*48
$GPGGA,135743.250,4308.4727,N,07726.4609,W,1,07,1.18,160.4,M,-34.4,M,,*5A
lng=-77.440986, lat=43.141212, altitude=160.40, speed=18.80, satellites=7, angle=273.0900, fixquality=1
$GPRMC,135743.500,A,4308.4728,N,07726.4629,W,20.14,273.05,060924,,,A*48
$GPGGA,135743.750,4308.4729,N,07726.4650,W,1,07,1.18,160.4,M,-34.4,M,,*5D
lng=-77.441047, lat=43.141212, altitude=160.40, speed=20.14, satellites=7, angle=273.0500, fixquality=1
$GPRMC,135744.000,A,4308.4731,N,07726.4672,W,21.65,273.97,060924,,,A*40
$GPGGA,135744.250,4308.4732,N,07726.4694,W,1,07,1.18,160.5,M,-34.4,M,,*5C
lng=-77.441123, lat=43.141220, altitude=160.40, speed=21.65, satellites=7, angle=273.9700, fixquality=1
$GPRMC,135744.500,A,4308.4733,N,07726.4717,W,22.93,273.90,060924,,,A*48
$GPGGA,135744.750,4308.4735,N,07726.4740,W,1,07,1.18,160.5,M,-34.4,M,,*56
lng=-77.441192, lat=43.141220, altitude=160.50, speed=22.93, satellites=7, angle=273.9000, fixquality=1
$GPRMC,135745.000,A,4308.4736,N,07726.4764,W,23.96,274.36,060924,,,A*42
$GPGGA,135745.250,4308.4738,N,07726.4788,W,1,07,1.18,160.6,M,-34.4,M,,*58
lng=-77.441276, lat=43.141227, altitude=160.50, speed=23.96, satellites=7, angle=274.3600, fixquality=1
$GPRMC,135745.500,A,4308.4739,N,07726.4812,W,24.82,274.63,060924,,,A*44
$GPGGA,135745.750,4308.4741,N,07726.4837,W,1,07,1.18,160.8,M,-34.4,M,,*56
lng=-77.441352, lat=43.141235, altitude=160.60, speed=24.82, satellites=7, angle=274.6300, fixquality=1
$GPRMC,135746.000,A,4308.4743,N,07726.4862,W,25.86,273.99,060924,,,A*4F
$GPGGA,135746.250,4308.4745,N,07726.4888,W,1,07,1.18,160.9,M,-34.4,M,,*51
lng=-77.441436, lat=43.141235, altitude=160.80, speed=25.86, satellites=7, angle=273.9900, fixquality=1
$GPRMC,135746.500,A,4308.4747,N,07726.4913,W,26.34,274.01,060924,,,A*45
$GPGGA,135746.750,4308.4748,N,07726.4939,W,1,07,1.18,161.1,M,-34.4,M,,*5B
lng=-77.441520, lat=43.141242, altitude=160.90, speed=26.34, satellites=7, angle=274.0100, fixquality=1
$GPRMC,135747.000,A,4308.4750,N,07726.4965,W,26.55,273.19,060924,,,A*4F
$GPGGA,135747.250,4308.4752,N,07726.4991,W,1,07,1.18,161.2,M,-34.4,M,,*55
lng=-77.441612, lat=43.141250, altitude=161.10, speed=26.55, satellites=7, angle=273.1900, fixquality=1
$GPRMC,135747.500,A,4308.4754,N,07726.5017,W,26.82,273.83,060924,,,A*4A
$GPGGA,135747.750,4308.4756,N,07726.5043,W,1,07,1.18,161.2,M,-34.4,M,,*53
lng=-77.441688, lat=43.141258, altitude=161.20, speed=26.82, satellites=7, angle=273.8300, fixquality=1
$GPRMC,135748.000,A,4308.4758,N,07726.5070,W,27.25,273.97,060924,,,A*44
$GPGGA,135748.250,4308.4761,N,07726.5096,W,1,07,1.18,161.2,M,-34.4,M,,*55
lng=-77.441780, lat=43.141258, altitude=161.20, speed=27.25, satellites=7, angle=273.9700, fixquality=1
$GPRMC,135748.500,A,4308.4763,N,07726.5124,W,27.38,274.38,060924,,,A*47
$GPGGA,135748.750,4308.4765,N,07726.5151,W,1,07,1.18,161.1,M,-34.4,M,,*5D
lng=-77.441871, lat=43.141269, altitude=161.20, speed=27.38, satellites=7, angle=274.3800, fixquality=1
$GPRMC,135749.000,A,4308.4767,N,07726.5179,W,28.64,274.46,060924,,,A*40
$GPGGA,135749.250,4308.4768,N,07726.5207,W,1,07,1.18,161.1,M,-34.4,M,,*54
lng=-77.441970, lat=43.141277, altitude=161.10, speed=28.64, satellites=7, angle=274.4600, fixquality=1
$GPRMC,135749.500,A,4308.4770,N,07726.5234,W,28.69,274.47,060924,,,A*45
$GPGGA,135749.750,4308.4772,N,07726.5262,W,1,07,1.18,161.0,M,-34.4,M,,*58
lng=-77.442054, lat=43.141284, altitude=161.10, speed=28.69, satellites=7, angle=274.4700, fixquality=1
$GPRMC,135750.000,A,4308.4773,N,07726.5290,W,28.96,273.99,060924,,,A*41
$GPGGA,135750.250,4308.4775,N,07726.5318,W,1,07,1.18,160.9,M,-34.4,M,,*56
lng=-77.442146, lat=43.141292, altitude=161.00, speed=28.96, satellites=7, angle=273.9900, fixquality=1
$GPRMC,135750.500,A,4308.4776,N,07726.5346,W,29.21,273.45,060924,,,A*47
$GPGGA,135750.750,4308.4778,N,07726.5374,W,1,07,1.18,160.9,M,-34.4,M,,*54
lng=-77.442245, lat=43.141292, altitude=160.90, speed=29.21, satellites=7, angle=273.4500, fixquality=1
$GPRMC,135751.000,A,4308.4779,N,07726.5403,W,29.50,273.56,060924,,,A*4E
$GPGGA,135751.250,4308.4780,N,07726.5431,W,1,07,1.18,160.9,M,-34.4,M,,*51
lng=-77.442344, lat=43.141300, altitude=160.90, speed=29.50, satellites=7, angle=273.5600, fixquality=1
$GPRMC,135751.500,A,4308.4781,N,07726.5460,W,29.76,273.12,060924,,,A*4D
$GPGGA,135751.750,4308.4783,N,07726.5489,W,1,07,1.18,160.9,M,-34.4,M,,*54
lng=-77.442428, lat=43.141300, altitude=160.90, speed=29.76, satellites=7, angle=273.1200, fixquality=1
$GPRMC,135752.000,A,4308.4784,N,07726.5518,W,30.05,273.07,060924,,,A*48
$GPGGA,135752.250,4308.4785,N,07726.5547,W,1,07,1.18,160.8,M,-34.4,M,,*56
lng=-77.442527, lat=43.141307, altitude=160.90, speed=30.05, satellites=7, angle=273.0700, fixquality=1
$GPRMC,135752.500,A,4308.4787,N,07726.5577,W,30.40,273.02,060924,,,A*43
$GPGGA,135752.750,4308.4788,N,07726.5607,W,1,07,1.18,160.7,M,-34.4,M,,*56
lng=-77.442626, lat=43.141307, altitude=160.80, speed=30.40, satellites=7, angle=273.0200, fixquality=1
$GPRMC,135753.000,A,4308.4789,N,07726.5636,W,30.65,273.11,060924,,,A*4A
$GPGGA,135753.250,4308.4791,N,07726.5665,W,1,07,1.18,160.8,M,-34.4,M,,*51
lng=-77.442726, lat=43.141315, altitude=160.70, speed=30.65, satellites=7, angle=273.1100, fixquality=1
$GPRMC,135753.500,A,4308.4792,N,07726.5695,W,30.79,273.27,060924,,,A*44
$GPGGA,135753.750,4308.4793,N,07726.5724,W,1,07,1.18,160.9,M,-34.4,M,,*53
lng=-77.442825, lat=43.141315, altitude=160.80, speed=30.79, satellites=7, angle=273.2700, fixquality=1
$GPRMC,135754.000,A,4308.4795,N,07726.5754,W,31.04,273.00,060924,,,A*43
$GPGGA,135754.250,4308.4796,N,07726.5784,W,1,07,1.18,161.0,M,-34.4,M,,*56
lng=-77.442916, lat=43.141323, altitude=160.90, speed=31.04, satellites=7, angle=273.0000, fixquality=1
$GPRMC,135754.500,A,4308.4797,N,07726.5814,W,31.23,272.52,060924,,,A*4C
$GPGGA,135754.750,4308.4798,N,07726.5845,W,1,07,1.18,161.1,M,-34.4,M,,*5E
lng=-77.443023, lat=43.141323, altitude=161.00, speed=31.23, satellites=7, angle=272.5200, fixquality=1
$GPRMC,135755.000,A,4308.4799,N,07726.5876,W,31.42,272.21,060924,,,A*41
$GPGGA,135755.250,4308.4800,N,07726.5906,W,1,07,1.18,161.2,M,-34.4,M,,*51
lng=-77.443122, lat=43.141334, altitude=161.10, speed=31.42, satellites=7, angle=272.2100, fixquality=1
$GPRMC,135755.500,A,4308.4802,N,07726.5937,W,32.05,272.21,060924,,,A*4D
$GPGGA,135755.750,4308.4803,N,07726.5968,W,1,07,1.18,161.4,M,-34.4,M,,*59
lng=-77.443229, lat=43.141334, altitude=161.20, speed=32.05, satellites=7, angle=272.2100, fixquality=1
$GPRMC,135756.000,A,4308.4803,N,07726.5999,W,32.13,271.85,060924,,,A*44
$GPGGA,135756.250,4308.4804,N,07726.6030,W,1,07,1.18,161.6,M,-34.4,M,,*5D
lng=-77.443336, lat=43.141342, altitude=161.40, speed=32.13, satellites=7, angle=271.8500, fixquality=1
$GPRMC,135756.500,A,4308.4805,N,07726.6061,W,32.33,271.99,060924,,,A*45
$GPGGA,135756.750,4308.4806,N,07726.6093,W,1,07,1.18,161.8,M,-34.4,M,,*5D
lng=-77.443435, lat=43.141342, altitude=161.60, speed=32.33, satellites=7, angle=271.9900, fixquality=1
$GPRMC,135757.000,A,4308.4807,N,07726.6125,W,32.69,271.85,060924,,,A*40
$GPGGA,135757.250,4308.4808,N,07726.6158,W,1,07,1.19,161.8,M,-34.4,M,,*50
lng=-77.443534, lat=43.141342, altitude=161.80, speed=32.69, satellites=7, angle=271.8500, fixquality=1
$GPRMC,135757.500,A,4308.4809,N,07726.6190,W,32.83,271.54,060924,,,A*4D
$GPGGA,135757.750,4308.4810,N,07726.6222,W,1,07,1.19,161.9,M,-34.4,M,,*53
lng=-77.443649, lat=43.141349, altitude=161.80, speed=32.83, satellites=7, angle=271.5400, fixquality=1
$GPRMC,135758.000,A,4308.4811,N,07726.6254,W,32.70,271.21,060924,,,A*4B
$GPGGA,135758.250,4308.4812,N,07726.6287,W,1,07,1.19,161.8,M,-34.4,M,,*55
lng=-77.443756, lat=43.141349, altitude=161.90, speed=32.70, satellites=7, angle=271.2100, fixquality=1
$GPRMC,135758.500,A,4308.4812,N,07726.6320,W,33.00,270.40,060924,,,A*4F
$GPGGA,135758.750,4308.4813,N,07726.6352,W,1,07,1.18,161.6,M,-34.4,M,,*57
lng=-77.443862, lat=43.141349, altitude=161.80, speed=33.00, satellites=7, angle=270.4000, fixquality=1
$GPRMC,135759.000,A,4308.4813,N,07726.6386,W,33.03,269.49,060924,,,A*44
$GPGGA,135759.250,4308.4813,N,07726.6419,W,1,07,1.18,161.3,M,-34.4,M,,*5E
lng=-77.443977, lat=43.141357, altitude=161.60, speed=33.03, satellites=7, angle=269.4900, fixquality=1
$GPRMC,135759.500,A,4308.4812,N,07726.6452,W,33.20,268.74,060924,,,A*40
$GPGGA,135759.750,4308.4812,N,07726.6486,W,1,07,1.19,161.0,M,-34.4,M,,*5E
lng=-77.444084, lat=43.141349, altitude=161.30, speed=33.20, satellites=7, angle=268.7400, fixquality=1
$GPRMC,135800.000,A,4308.4811,N,07726.6520,W,33.37,267.96,060924,,,A*44
$GPGGA,135800.250,4308.4810,N,07726.6554,W,1,07,1.18,160.8,M,-34.4,M,,*5C
lng=-77.444198, lat=43.141349, altitude=161.00, speed=33.37, satellites=7, angle=267.9600, fixquality=1
$GPRMC,135800.500,A,4308.4808,N,07726.6588,W,33.62,267.16,060924,,,A*43
$GPGGA,135800.750,4308.4806,N,07726.6623,W,1,07,1.18,160.6,M,-34.4,M,,*53
lng=-77.444313, lat=43.141349, altitude=160.80, speed=33.62, satellites=7, angle=267.1600, fixquality=1
$GPRMC,135801.000,A,4308.4804,N,07726.6657,W,33.90,266.50,060924,,,A*44
$GPGGA,135801.250,4308.4803,N,07726.6692,W,1,07,1.18,160.5,M,-34.4,M,,*5B
lng=-77.444427, lat=43.141342, altitude=160.60, speed=33.90, satellites=7, angle=266.5000, fixquality=1
$GPRMC,135801.500,A,4308.4801,N,07726.6727,W,35.66,266.39,060924,,,A*42
$GPGGA,135801.750,4308.4799,N,07726.6762,W,1,07,1.18,160.5,M,-34.4,M,,*5C
lng=-77.444549, lat=43.141334, altitude=160.50, speed=35.66, satellites=7, angle=266.3900, fixquality=1
$GPRMC,135802.000,A,4308.4798,N,07726.6797,W,35.87,266.68,060924,,,A*4B
$GPGGA,135802.250,4308.4796,N,07726.6832,W,1,07,1.18,160.4,M,-34.4,M,,*5E
lng=-77.444664, lat=43.141334, altitude=160.50, speed=35.87, satellites=7, angle=266.6800, fixquality=1
$GPRMC,135802.500,A,4308.4795,N,07726.6867,W,35.82,266.87,060924,,,A*47
$GPGGA,135802.750,4308.4794,N,07726.6902,W,1,07,1.18,160.4,M,-34.4,M,,*5B
lng=-77.444778, lat=43.141323, altitude=160.40, speed=35.82, satellites=7, angle=266.8700, fixquality=1
$GPRMC,135803.000,A,4308.4792,N,07726.6936,W,35.83,266.65,060924,,,A*4C
$GPGGA,135803.250,4308.4790,N,07726.6971,W,1,07,1.18,160.7,M,-34.4,M,,*5C
lng=-77.444892, lat=43.141315, altitude=160.40, speed=35.83, satellites=7, angle=266.6500, fixquality=1
$GPRMC,135803.500,A,4308.4788,N,07726.7005,W,35.86,266.16,060924,,,A*4B
$GPGGA,135803.750,4308.4786,N,07726.7040,W,1,07,1.18,160.9,M,-34.4,M,,*5A
lng=-77.445014, lat=43.141315, altitude=160.70, speed=35.86, satellites=7, angle=266.1600, fixquality=1
$GPRMC,135804.000,A,4308.4784,N,07726.7074,W,35.88,266.08,060924,,,A*42
$GPGGA,135804.250,4308.4782,N,07726.7109,W,1,07,1.18,161.1,M,-34.4,M,,*59
lng=-77.445121, lat=43.141307, altitude=160.90, speed=35.88, satellites=7, angle=266.0800, fixquality=1
$GPRMC,135804.500,A,4308.4780,N,07726.7143,W,35.75,265.92,060924,,,A*44
$GPGGA,135804.750,4308.4778,N,07726.7177,W,1,07,1.18,161.3,M,-34.4,M,,*52
lng=-77.445236, lat=43.141300, altitude=161.10, speed=35.75, satellites=7, angle=265.9200, fixquality=1
$GPRMC,135805.000,A,4308.4776,N,07726.7211,W,35.60,266.03,060924,,,A*42
$GPGGA,135805.250,4308.4774,N,07726.7244,W,1,07,1.18,161.7,M,-34.4,M,,*5D
lng=-77.445350, lat=43.141292, altitude=161.30, speed=35.60, satellites=7, angle=266.0300, fixquality=1
$GPRMC,135805.500,A,4308.4773,N,07726.7277,W,34.38,266.08,060924,,,A*45
$GPGGA,135805.750,4308.4771,N,07726.7310,W,1,07,1.18,162.1,M,-34.4,M,,*58
lng=-77.445457, lat=43.141292, altitude=161.70, speed=34.38, satellites=7, angle=266.0800, fixquality=1
$GPRMC,135806.000,A,4308.4769,N,07726.7343,W,33.85,266.01,060924,,,A*46
$GPGGA,135806.250,4308.4767,N,07726.7375,W,1,07,1.19,162.4,M,-34.4,M,,*5E
lng=-77.445571, lat=43.141284, altitude=162.10, speed=33.85, satellites=7, angle=266.0100, fixquality=1
$GPRMC,135806.500,A,4308.4765,N,07726.7407,W,33.42,266.13,060924,,,A*40
$GPGGA,135806.750,4308.4763,N,07726.7439,W,1,07,1.19,162.7,M,-34.4,M,,*53
lng=-77.445678, lat=43.141277, altitude=162.40, speed=33.42, satellites=7, angle=266.1300, fixquality=1
$GPRMC,135807.000,A,4308.4762,N,07726.7471,W,33.14,266.31,060924,,,A*41
$GPGGA,135807.250,4308.4760,N,07726.7502,W,1,07,1.19,163.1,M,-34.4,M,,*5A
lng=-77.445785, lat=43.141269, altitude=162.70, speed=33.14, satellites=7, angle=266.3100, fixquality=1
$GPRMC,135807.500,A,4308.4758,N,07726.7533,W,32.87,266.04,060924,,,A*47
$GPGGA,135807.750,4308.4757,N,07726.7564,W,1,07,1.18,163.5,M,-34.4,M,,*5E
lng=-77.445892, lat=43.141258, altitude=163.10, speed=32.87, satellites=7, angle=266.0400, fixquality=1
$GPRMC,135808.000,A,4308.4755,N,07726.7594,W,32.66,265.85,060924,,,A*48
$GPGGA,135808.250,4308.4754,N,07726.7625,W,1,07,1.18,163.8,M,-34.4,M,,*5C
lng=-77.445991, lat=43.141258, altitude=163.50, speed=32.66, satellites=7, angle=265.8500, fixquality=1
$GPRMC,135808.500,A,4308.4752,N,07726.7655,W,31.59,265.82,060924,,,A*4C
$GPGGA,135808.750,4308.4751,N,07726.7685,W,1,07,1.18,164.1,M,-34.4,M,,*58
lng=-77.446090, lat=43.141250, altitude=163.80, speed=31.59, satellites=7, angle=265.8200, fixquality=1
$GPRMC,135809.000,A,4308.4749,N,07726.7715,W,31.36,265.72,060924,,,A*41
$GPGGA,135809.250,4308.4747,N,07726.7745,W,1,07,1.19,164.4,M,-34.4,M,,*52
lng=-77.446189, lat=43.141250, altitude=164.10, speed=31.36, satellites=7, angle=265.7200, fixquality=1
$GPRMC,135809.500,A,4308.4746,N,07726.7775,W,31.12,265.69,060924,,,A*41
$GPGGA,135809.750,4308.4745,N,07726.7804,W,1,07,1.19,164.5,M,-34.4,M,,*5E
lng=-77.446289, lat=43.141242, altitude=164.40, speed=31.12, satellites=7, angle=265.6900, fixquality=1
$GPRMC,135810.000,A,4308.4744,N,07726.7834,W,30.94,266.28,060924,,,A*4D
$GPGGA,135810.250,4308.4742,N,07726.7864,W,1,07,1.18,164.5,M,-34.4,M,,*53
lng=-77.446388, lat=43.141242, altitude=164.50, speed=30.94, satellites=7, angle=266.2800, fixquality=1
$GPRMC,135810.500,A,4308.4741,N,07726.7893,W,31.01,266.12,060924,,,A*44
$GPGGA,135810.750,4308.4740,N,07726.7923,W,1,07,1.19,164.4,M,-34.4,M,,*56
lng=-77.446487, lat=43.141235, altitude=164.50, speed=31.01, satellites=7, angle=266.1200, fixquality=1
$GPRMC,135811.000,A,4308.4738,N,07726.7953,W,30.84,265.13,060924,,,A*4D
$GPGGA,135811.250,4308.4736,N,07726.7982,W,1,07,1.18,164.1,M,-34.4,M,,*5C
lng=-77.446586, lat=43.141227, altitude=164.40, speed=30.84, satellites=7, angle=265.1300, fixquality=1
$GPRMC,135811.500,A,4308.4734,N,07726.8012,W,30.98,264.80,060924,,,A*41
$GPGGA,135811.750,4308.4732,N,07726.8042,W,1,07,1.19,163.8,M,-34.4,M,,*58
lng=-77.446685, lat=43.141227, altitude=164.10, speed=30.98, satellites=7, angle=264.8000, fixquality=1
$GPRMC,135812.000,A,4308.4730,N,07726.8073,W,31.30,264.66,060924,,,A*4F
$GPGGA,135812.250,4308.4728,N,07726.8103,W,1,07,1.19,163.5,M,-34.4,M,,*5C
lng=-77.446784, lat=43.141220, altitude=163.80, speed=31.30, satellites=7, angle=264.6600, fixquality=1
$GPRMC,135812.500,A,4308.4727,N,07726.8133,W,31.39,264.50,060924,,,A*45
$GPGGA,135812.750,4308.4724,N,07726.8163,W,1,07,1.19,163.3,M,-34.4,M,,*55
lng=-77.446891, lat=43.141212, altitude=163.50, speed=31.39, satellites=7, angle=264.5000, fixquality=1
$GPRMC,135813.000,A,4308.4722,N,07726.8193,W,31.95,264.36,060924,,,A*48
$GPGGA,135813.250,4308.4720,N,07726.8224,W,1,07,1.19,163.2,M,-34.4,M,,*54
lng=-77.446990, lat=43.141201, altitude=163.30, speed=31.95, satellites=7, angle=264.3600, fixquality=1
$GPRMC,135813.500,A,4308.4718,N,07726.8255,W,32.42,264.55,060924,,,A*41
$GPGGA,135813.750,4308.4717,N,07726.8286,W,1,07,1.19,162.9,M,-34.4,M,,*57
lng=-77.447097, lat=43.141193, altitude=163.20, speed=32.42, satellites=7, angle=264.5500, fixquality=1
$GPRMC,135814.000,A,4308.4715,N,07726.8318,W,32.76,264.51,060924,,,A*45
$GPGGA,135814.250,4308.4713,N,07726.8349,W,1,07,1.19,162.6,M,-34.4,M,,*5C
lng=-77.447196, lat=43.141193, altitude=162.90, speed=32.76, satellites=7, angle=264.5100, fixquality=1
$GPRMC,135814.500,A,4308.4711,N,07726.8380,W,32.78,264.55,060924,,,A*4F
$GPGGA,135814.750,4308.4708,N,07726.8412,W,1,07,1.19,162.4,M,-34.4,M,,*58
lng=-77.447296, lat=43.141185, altitude=162.60, speed=32.78, satellites=7, angle=264.5500, fixquality=1
$GPRMC,135815.000,A,4308.4706,N,07726.8443,W,32.84,264.53,060924,,,A*40
$GPGGA,135815.250,4308.4704,N,07726.8475,W,1,07,1.19,162.3,M,-34.4,M,,*56
lng=-77.447402, lat=43.141178, altitude=162.40, speed=32.84, satellites=7, angle=264.5300, fixquality=1
$GPRMC,135815.500,A,4308.4702,N,07726.8507,W,33.07,264.44,060924,,,A*4C
$GPGGA,135815.750,4308.4699,N,07726.8538,W,1,07,1.19,162.4,M,-34.4,M,,*59
lng=-77.447509, lat=43.141170, altitude=162.30, speed=33.07, satellites=7, angle=264.4400, fixquality=1
$GPRMC,135816.000,A,4308.4697,N,07726.8570,W,33.03,264.59,060924,,,A*4F
$GPGGA,135816.250,4308.4695,N,07726.8602,W,1,07,1.19,162.5,M,-34.4,M,,*58
lng=-77.447616, lat=43.141162, altitude=162.40, speed=33.03, satellites=7, angle=264.5900, fixquality=1
$GPRMC,135816.500,A,4308.4693,N,07726.8634,W,33.36,264.94,060924,,,A*4A
$GPGGA,135816.750,4308.4691,N,07726.8666,W,1,07,1.19,162.4,M,-34.4,M,,*5A
lng=-77.447723, lat=43.141155, altitude=162.50, speed=33.36, satellites=7, angle=264.9400, fixquality=1
$GPRMC,135817.000,A,4308.4688,N,07726.8698,W,33.34,265.04,060924,,,A*48
$GPGGA,135817.250,4308.4686,N,07726.8731,W,1,07,1.18,162.4,M,-34.4,M,,*5A
lng=-77.447830, lat=43.141147, altitude=162.40, speed=33.34, satellites=7, angle=265.0400, fixquality=1
$GPRMC,135817.500,A,4308.4684,N,07726.8763,W,33.96,265.28,060924,,,A*42
$GPGGA,135817.750,4308.4682,N,07726.8795,W,1,07,1.19,162.5,M,-34.4,M,,*55
lng=-77.447944, lat=43.141136, altitude=162.40, speed=33.96, satellites=7, angle=265.2800, fixquality=1
$GPRMC,135818.000,A,4308.4680,N,07726.8828,W,34.25,265.42,060924,,,A*4F
$GPGGA,135818.250,4308.4678,N,07726.8861,W,1,07,1.19,162.4,M,-34.4,M,,*5F
lng=-77.448043, lat=43.141128, altitude=162.50, speed=34.25, satellites=7, angle=265.4200, fixquality=1
$GPRMC,135818.500,A,4308.4676,N,07726.8894,W,34.51,265.15,060924,,,A*45
$GPGGA,135818.750,4308.4673,N,07726.8927,W,1,07,1.19,162.4,M,-34.4,M,,*52
lng=-77.448150, lat=43.141128, altitude=162.40, speed=34.51, satellites=7, angle=265.1500, fixquality=1
$GPRMC,135819.000,A,4308.4671,N,07726.8960,W,34.69,264.42,060924,,,A*44
$GPGGA,135819.250,4308.4668,N,07726.8994,W,1,07,1.19,162.4,M,-34.4,M,,*54
lng=-77.448265, lat=43.141120, altitude=162.40, speed=34.69, satellites=7, angle=264.4200, fixquality=1
$GPRMC,135819.500,A,4308.4666,N,07726.9027,W,35.36,264.21,060924,,,A*42
$GPGGA,135819.750,4308.4663,N,07726.9061,W,1,07,1.19,162.2,M,-34.4,M,,*5E
lng=-77.448379, lat=43.141113, altitude=162.40, speed=35.36, satellites=7, angle=264.2100, fixquality=1
$GPRMC,135820.000,A,4308.4661,N,07726.9094,W,35.56,264.46,060924,,,A*45
$GPGGA,135820.250,4308.4658,N,07726.9128,W,1,07,1.19,162.0,M,-34.4,M,,*57
lng=-77.448486, lat=43.141105, altitude=162.20, speed=35.56, satellites=7, angle=264.4600, fixquality=1
$GPRMC,135820.500,A,4308.4656,N,07726.9162,W,35.54,264.71,060924,,,A*4A
$GPGGA,135820.750,4308.4654,N,07726.9195,W,1,07,1.19,161.7,M,-34.4,M,,*5C
lng=-77.448600, lat=43.141098, altitude=162.00, speed=35.54, satellites=7, angle=264.7100, fixquality=1
$GPRMC,135821.000,A,4308.4651,N,07726.9228,W,35.18,264.91,060924,,,A*42
$GPGGA,135821.250,4308.4649,N,07726.9261,W,1,07,1.19,161.6,M,-34.4,M,,*5D
lng=-77.448715, lat=43.141090, altitude=161.70, speed=35.18, satellites=7, angle=264.9100, fixquality=1
$GPRMC,135821.500,A,4308.4647,N,07726.9294,W,34.91,265.18,060924,,,A*47
$GPGGA,135821.750,4308.4645,N,07726.9327,W,1,07,1.19,161.5,M,-34.4,M,,*54
lng=-77.448822, lat=43.141078, altitude=161.60, speed=34.91, satellites=7, angle=265.1800, fixquality=1
$GPRMC,135822.000,A,4308.4643,N,07726.9360,W,34.76,265.39,060924,,,A*45
$GPGGA,135822.250,4308.4641,N,07726.9393,W,1,07,1.19,161.3,M,-34.4,M,,*5F
lng=-77.448936, lat=43.141071, altitude=161.50, speed=34.76, satellites=7, angle=265.3900, fixquality=1
$GPRMC,135822.500,A,4308.4639,N,07726.9426,W,34.76,265.54,060924,,,A*43
$GPGGA,135822.750,4308.4637,N,07726.9459,W,1,07,1.19,161.1,M,-34.4,M,,*58
lng=-77.449043, lat=43.141063, altitude=161.30, speed=34.76, satellites=7, angle=265.5400, fixquality=1
$GPRMC,135823.000,A,4308.4635,N,07726.9492,W,35.06,265.36,060924,,,A*46
$GPGGA,135823.250,4308.4633,N,07726.9525,W,1,07,1.19,160.8,M,-34.4,M,,*5A
lng=-77.449150, lat=43.141056, altitude=161.10, speed=35.06, satellites=7, angle=265.3600, fixquality=1
$GPRMC,135823.500,A,4308.4630,N,07726.9559,W,35.48,264.71,060924,,,A*48
$GPGGA,135823.750,4308.4627,N,07726.9592,W,1,07,1.19,160.5,M,-34.4,M,,*5B
lng=-77.449264, lat=43.141048, altitude=160.80, speed=35.48, satellites=7, angle=264.7100, fixquality=1
$GPRMC,135824.000,A,4308.4624,N,07726.9626,W,35.86,263.99,060924,,,A*47
$GPGGA,135824.250,4308.4622,N,07726.9660,W,1,07,1.18,160.3,M,-34.4,M,,*55
lng=-77.449371, lat=43.141040, altitude=160.50, speed=35.86, satellites=7, angle=263.9900, fixquality=1
$GPRMC,135824.500,A,4308.4619,N,07726.9695,W,36.13,264.21,060924,,,A*4F
$GPGGA,135824.750,4308.4616,N,07726.9728,W,1,07,1.18,160.1,M,-34.4,M,,*58
lng=-77.449493, lat=43.141033, altitude=160.30, speed=36.13, satellites=7, angle=264.2100, fixquality=1
$GPRMC,135825.000,A,4308.4614,N,07726.9763,W,36.17,264.47,060924,,,A*4A
$GPGGA,135825.250,4308.4611,N,07726.9797,W,1,07,1.19,159.9,M,-34.4,M,,*5C
lng=-77.449600, lat=43.141025, altitude=160.10, speed=36.17, satellites=7, angle=264.4700, fixquality=1
$GPRMC,135825.500,A,4308.4609,N,07726.9832,W,36.30,265.02,060924,,,A*4D
$GPGGA,135825.750,4308.4607,N,07726.9868,W,1,07,1.19,159.8,M,-34.4,M,,*50
lng=-77.449722, lat=43.141014, altitude=159.90, speed=36.30, satellites=7, angle=265.0200, fixquality=1
$GPRMC,135826.000,A,4308.4604,N,07726.9903,W,36.85,264.94,060924,,,A*45
