Vers 72
USE_SERIAL_FEEDBACK=true
DEVELOPMENT_MODE=false
USE_RMC_ONLY=false

$GPRMC,150504.500,A,4308.3080,N,07726.2632,W,0.25,11.16,090924,,,A*4F
$GPGGA,150504.750,4308.3080,N,07726.2632,W,1,03,50.12,184.3,M,-34.4,M,,*69
lng=-77.437721, lat=43.138469, altitude=184.40, speed=0.25, satellites=3, angle=11.1600, fixquality=1
$GPRMC,150505.000,A,4308.3081,N,07726.2632,W,0.25,16.52,090924,,,A*4D
$GPGGA,150505.250,4308.3081,N,07726.2631,W,1,03,3.30,184.3,M,-34.4,M,,*59
lng=-77.437721, lat=43.138469, altitude=184.30, speed=0.25, satellites=3, angle=16.5200, fixquality=1
$GPGGA,150618.500,4308.3094,N,07726.2628,W,1,06,2.89,174.6,M,-34.4,M,,*54
$GPRMC,150618.500,A,4308.3094,N,07726.2628,W,0.33,354.99,090924,,,A*7D
lng=-77.437713, lat=43.138492, altitude=174.60, speed=0.33, satellites=6, angle=355.3500, fixquality=1
$GPGGA,150618.750,4308.3094,N,07726.2629,W,1,06,2.89,174.4,M,-34.4,M,,*50
$GPRMC,150618.750,A,4308.3094,N,07726.2629,W,0.33,352.47,090924,,,A*7E
lng=-77.437713, lat=43.138492, altitude=174.40, speed=0.33, satellites=6, angle=354.9900, fixquality=1
$GPGGA,150723.750,4308.3092,N,07726.2614,W,1,06,2.94,173.8,M,-34.4,M,,*56
$GPRMC,150723.750,A,4308.3092,N,07726.2614,W,0.16,72.98,090924,,,A*4B
lng=-77.437690, lat=43.138484, altitude=173.80, speed=0.16, satellites=6, angle=72.7000, fixquality=1
$GPGGA,150724.000,4308.3092,N,07726.2614,W,1,06,2.94,173.8,M,-34.4,M,,*53
$GPRMC,150724.000,A,4308.3092,N,07726.2614,W,0.19,73.95,090924,,,A*4D
lng=-77.437690, lat=43.138484, altitude=173.80, speed=0.16, satellites=6, angle=72.9800, fixquality=1
$GPRMC,150820.750,A,4308.3103,N,07726.2618,W,2.86,7.13,090924,,,A*78
$GPGGA,150821.000,4308.3104,N,07726.2618,W,1,06,2.99,173.0,M,-34.4,M,,*5E
lng=-77.437698, lat=43.138500, altitude=173.00, speed=2.86, satellites=6, angle=7.1300, fixquality=1
$GPRMC,150821.250,A,4308.3106,N,07726.2618,W,3.03,3.17,090924,,,A*75
$GPGGA,150821.500,4308.3109,N,07726.2619,W,1,06,2.99,173.0,M,-34.4,M,,*57
lng=-77.437698, lat=43.138507, altitude=173.00, speed=3.03, satellites=6, angle=3.1700, fixquality=1
$GPRMC,150821.750,A,4308.3112,N,07726.2620,W,3.81,354.72,090924,,,A*76
$GPGGA,150822.000,4308.3115,N,07726.2620,W,1,06,2.98,172.9,M,-34.4,M,,*5F
lng=-77.437705, lat=43.138515, altitude=173.00, speed=3.81, satellites=6, angle=354.7200, fixquality=1
$GPRMC,150822.250,A,4308.3118,N,07726.2620,W,4.18,357.49,090924,,,A*76
$GPGGA,150822.500,4308.3121,N,07726.2620,W,1,06,2.99,172.7,M,-34.4,M,,*52
lng=-77.437705, lat=43.138534, altitude=172.90, speed=4.18, satellites=6, angle=357.4900, fixquality=1
$GPRMC,150822.750,A,4308.3124,N,07726.2619,W,4.37,356.78,090924,,,A*78
$GPGGA,150823.000,4308.3128,N,07726.2617,W,1,06,2.99,172.6,M,-34.4,M,,*5A
lng=-77.437698, lat=43.138542, altitude=172.70, speed=4.37, satellites=6, angle=356.7800, fixquality=1
$GPRMC,150823.250,A,4308.3131,N,07726.2614,W,4.50,1.37,090924,,,A*7E
$GPGGA,150823.500,4308.3135,N,07726.2607,W,1,06,2.99,172.3,M,-34.4,M,,*57
lng=-77.437690, lat=43.138549, altitude=172.60, speed=4.50, satellites=6, angle=1.3700, fixquality=1
$GPRMC,150823.750,A,4308.3138,N,07726.2601,W,4.58,10.53,090924,,,A*4C
$GPGGA,150824.000,4308.3141,N,07726.2597,W,1,06,2.99,172.1,M,-34.4,M,,*5E
lng=-77.437667, lat=43.138565, altitude=172.30, speed=4.58, satellites=6, angle=10.5300, fixquality=1
$GPRMC,150824.250,A,4308.3143,N,07726.2597,W,4.07,8.74,090924,,,A*78
$GPGGA,150824.500,4308.3145,N,07726.2596,W,1,06,2.99,172.0,M,-34.4,M,,*5F
lng=-77.437660, lat=43.138572, altitude=172.10, speed=4.07, satellites=6, angle=8.7400, fixquality=1
$GPRMC,150824.750,A,4308.3147,N,07726.2595,W,3.78,10.54,090924,,,A*4F
$GPGGA,150825.000,4308.3149,N,07726.2598,W,1,06,2.99,171.7,M,-34.4,M,,*5D
lng=-77.437652, lat=43.138584, altitude=172.00, speed=3.78, satellites=6, angle=10.5400, fixquality=1
$GPRMC,150825.250,A,4308.3152,N,07726.2600,W,3.95,13.54,090924,,,A*40
$GPGGA,150825.500,4308.3155,N,07726.2602,W,1,06,2.99,171.3,M,-34.4,M,,*51
lng=-77.437660, lat=43.138591, altitude=171.70, speed=3.95, satellites=6, angle=13.5400, fixquality=1
$GPRMC,150825.750,A,4308.3158,N,07726.2604,W,3.77,18.29,090924,,,A*46
$GPGGA,150826.000,4308.3161,N,07726.2606,W,1,06,2.98,171.2,M,-34.4,M,,*54
lng=-77.437667, lat=43.138599, altitude=171.30, speed=3.77, satellites=6, angle=18.2900, fixquality=1
$GPRMC,150826.250,A,4308.3163,N,07726.2607,W,3.83,33.93,090924,,,A*48
$GPGGA,150826.500,4308.3164,N,07726.2611,W,1,06,2.98,171.1,M,-34.4,M,,*51
lng=-77.437675, lat=43.138607, altitude=171.20, speed=3.83, satellites=6, angle=33.9300, fixquality=1
$GPRMC,150826.750,A,4308.3167,N,07726.2614,W,3.43,34.51,090924,,,A*4E
$GPGGA,150827.000,4308.3169,N,07726.2617,W,1,06,2.98,171.0,M,-34.4,M,,*5F
lng=-77.437690, lat=43.138614, altitude=171.10, speed=3.43, satellites=6, angle=34.5100, fixquality=1
$GPRMC,150827.250,A,4308.3172,N,07726.2619,W,3.85,36.36,090924,,,A*4A
$GPGGA,150827.500,4308.3175,N,07726.2618,W,1,06,2.98,170.7,M,-34.4,M,,*5E
lng=-77.437698, lat=43.138622, altitude=171.00, speed=3.85, satellites=6, angle=36.3600, fixquality=1
$GPRMC,150827.750,A,4308.3177,N,07726.2616,W,4.58,44.81,090924,,,A*4B
$GPGGA,150828.000,4308.3179,N,07726.2613,W,1,06,2.99,170.2,M,-34.4,M,,*57
lng=-77.437698, lat=43.138629, altitude=170.70, speed=4.58, satellites=6, angle=44.8100, fixquality=1
$GPRMC,150828.250,A,4308.3180,N,07726.2611,W,4.47,44.37,090924,,,A*4D
$GPGGA,150828.500,4308.3182,N,07726.2608,W,1,06,2.99,169.8,M,-34.4,M,,*5E
lng=-77.437690, lat=43.138629, altitude=170.20, speed=4.47, satellites=6, angle=44.3700, fixquality=1
$GPRMC,150828.750,A,4308.3181,N,07726.2607,W,3.82,47.60,090924,,,A*41
$GPGGA,150829.000,4308.3181,N,07726.2606,W,1,06,2.98,169.6,M,-34.4,M,,*58
lng=-77.437675, lat=43.138629, altitude=169.80, speed=3.82, satellites=6, angle=47.6000, fixquality=1
$GPRMC,150829.250,A,4308.3179,N,07726.2605,W,2.27,56.34,090924,,,A*4F
$GPGGA,150829.500,4308.3177,N,07726.2604,W,1,06,2.99,169.3,M,-34.4,M,,*52
lng=-77.437675, lat=43.138629, altitude=169.60, speed=2.27, satellites=6, angle=56.3400, fixquality=1
$GPGGA,150831.250,4308.3172,N,07726.2622,W,1,06,2.99,168.6,M,-34.4,M,,*5C
$GPRMC,150831.250,A,4308.3172,N,07726.2622,W,1.93,260.59,090924,,,A*78
lng=-77.437705, lat=43.138622, altitude=168.60, speed=0.86, satellites=6, angle=250.0600, fixquality=1
$GPGGA,150831.500,4308.3173,N,07726.2633,W,1,06,2.98,168.5,M,-34.4,M,,*5D
$GPRMC,150831.500,A,4308.3173,N,07726.2633,W,4.35,266.69,090924,,,A*77
lng=-77.437721, lat=43.138622, altitude=168.50, speed=1.93, satellites=6, angle=260.5900, fixquality=1
$GPGGA,150831.750,4308.3173,N,07726.2643,W,1,06,3.00,168.3,M,-34.4,M,,*5B
$GPRMC,150831.750,A,4308.3173,N,07726.2643,W,6.08,267.17,090924,,,A*73
lng=-77.437736, lat=43.138622, altitude=168.30, speed=4.35, satellites=6, angle=266.6900, fixquality=1
$GPGGA,150832.000,4308.3172,N,07726.2652,W,1,06,3.00,168.1,M,-34.4,M,,*59
$GPRMC,150832.000,A,4308.3172,N,07726.2652,W,6.99,267.31,090924,,,A*7F
lng=-77.437751, lat=43.138622, altitude=168.10, speed=6.08, satellites=6, angle=267.1700, fixquality=1
$GPGGA,150832.250,4308.3173,N,07726.2661,W,1,06,3.00,168.1,M,-34.4,M,,*5F
$GPRMC,150832.250,A,4308.3173,N,07726.2661,W,7.83,268.56,090924,,,A*7D
lng=-77.437767, lat=43.138622, altitude=168.10, speed=6.99, satellites=6, angle=267.3100, fixquality=1
$GPGGA,150832.500,4308.3172,N,07726.2671,W,1,06,3.00,168.0,M,-34.4,M,,*5C
$GPRMC,150832.500,A,4308.3172,N,07726.2671,W,8.81,267.83,090924,,,A*75
lng=-77.437782, lat=43.138622, altitude=168.00, speed=7.83, satellites=6, angle=268.5600, fixquality=1
$GPGGA,150832.750,4308.3172,N,07726.2680,W,1,06,2.99,167.9,M,-34.4,M,,*52
$GPRMC,150832.750,A,4308.3172,N,07726.2680,W,9.42,268.16,090924,,,A*71
lng=-77.437797, lat=43.138622, altitude=167.90, speed=8.81, satellites=6, angle=267.8300, fixquality=1
$GPGGA,150833.000,4308.3173,N,07726.2690,W,1,06,3.00,167.8,M,-34.4,M,,*51
$GPRMC,150833.000,A,4308.3173,N,07726.2690,W,9.82,269.16,090924,,,A*7F
lng=-77.437820, lat=43.138622, altitude=167.80, speed=9.42, satellites=6, angle=268.1600, fixquality=1
$GPGGA,150833.250,4308.3174,N,07726.2702,W,1,06,3.00,167.7,M,-34.4,M,,*54
$GPRMC,150833.250,A,4308.3174,N,07726.2702,W,10.68,270.25,090924,,,A*41
lng=-77.437835, lat=43.138622, altitude=167.70, speed=9.82, satellites=6, angle=269.1600, fixquality=1
$GPGGA,150833.500,4308.3175,N,07726.2713,W,1,06,3.00,167.6,M,-34.4,M,,*56
$GPRMC,150833.500,A,4308.3175,N,07726.2713,W,11.24,271.80,090924,,,A*45
lng=-77.437858, lat=43.138622, altitude=167.60, speed=10.68, satellites=6, angle=270.2500, fixquality=1
$GPGGA,150833.750,4308.3177,N,07726.2725,W,1,06,3.00,167.4,M,-34.4,M,,*54
$GPRMC,150833.750,A,4308.3177,N,07726.2725,W,11.57,273.83,090924,,,A*40
lng=-77.437873, lat=43.138629, altitude=167.40, speed=11.24, satellites=6, angle=271.8000, fixquality=1
$GPGGA,150834.000,4308.3178,N,07726.2736,W,1,06,3.00,167.3,M,-34.4,M,,*5B
$GPRMC,150834.000,A,4308.3178,N,07726.2736,W,11.80,274.85,090924,,,A*43
lng=-77.437889, lat=43.138629, altitude=167.30, speed=11.57, satellites=6, angle=273.8300, fixquality=1
$GPGGA,150834.250,4308.3180,N,07726.2748,W,1,06,3.00,167.2,M,-34.4,M,,*53
$GPRMC,150834.250,A,4308.3180,N,07726.2748,W,12.05,276.08,090924,,,A*43
lng=-77.437911, lat=43.138629, altitude=167.20, speed=11.80, satellites=6, angle=274.8500, fixquality=1
$GPGGA,150834.500,4308.3182,N,07726.2760,W,1,06,3.00,167.0,M,-34.4,M,,*5B
$GPRMC,150834.500,A,4308.3182,N,07726.2760,W,12.31,277.64,09092$GPGGA,150834.750,4308.3184,N,07726.2773,W,1,06,3.00,166.9,M,-34.4,M,,*50
lng=-77.437934, lat=43.138637, altitude=167.00, speed=12.05, satellites=6, angle=276.0800, fixquality=1
$GPRMC,150835.000,A,4308.3186,N,07726.2786,W,13.13,279.22,090924,,,A*40
$GPGGA,150835.250,4308.3189,N,07726.2800,W,1,06,3.00,166.8,M,-34.4,M,,*53
lng=-77.437980, lat=43.138637, altitude=167.00, speed=13.13, satellites=6, angle=279.2200, fixquality=1
$GPRMC,150835.500,A,4308.3192,N,07726.2814,W,13.94,281.19,090924,,,A*44
$GPGGA,150835.750,4308.3197,N,07726.2828,W,1,06,3.00,166.7,M,-34.4,M,,*5C
lng=-77.438018, lat=43.138656, altitude=166.80, speed=13.94, satellites=6, angle=281.1900, fixquality=1
$GPRMC,150836.000,A,4308.3200,N,07726.2842,W,14.53,284.40,090924,,,A*4C
$GPGGA,150836.250,4308.3205,N,07726.2857,W,1,06,3.00,166.5,M,-34.4,M,,*58
lng=-77.438072, lat=43.138664, altitude=166.70, speed=14.53, satellites=6, angle=284.4000, fixquality=1
$GPRMC,150836.500,A,4308.3209,N,07726.2872,W,15.52,288.52,090924,,,A*4C
$GPGGA,150836.750,4308.3213,N,07726.2887,W,1,06,3.00,166.3,M,-34.4,M,,*51
lng=-77.438117, lat=43.138679, altitude=166.50, speed=15.52, satellites=6, angle=288.5200, fixquality=1
$GPRMC,150837.000,A,4308.3219,N,07726.2902,W,16.21,291.33,090924,,,A*47
$GPGGA,150837.250,4308.3225,N,07726.2917,W,1,06,3.00,166.0,M,-34.4,M,,*5B
lng=-77.438163, lat=43.138694, altitude=166.30, speed=16.21, satellites=6, angle=291.3300, fixquality=1
$GPRMC,150837.500,A,4308.3230,N,07726.2933,W,17.11,294.00,090924,,,A*4C
$GPGGA,150837.750,4308.3236,N,07726.2948,W,1,06,3.00,165.7,M,-34.4,M,,*52
lng=-77.438224, lat=43.138713, altitude=166.00, speed=17.11, satellites=6, angle=294.0000, fixquality=1
$GPRMC,150838.000,A,4308.3243,N,07726.2964,W,17.99,297.18,090924,,,A*4A
$GPGGA,150838.250,4308.3249,N,07726.2979,W,1,06,3.00,165.5,M,-34.4,M,,*50
lng=-77.438270, lat=43.138736, altitude=165.70, speed=17.99, satellites=6, angle=297.1800, fixquality=1
$GPRMC,150838.500,A,4308.3255,N,07726.2995,W,18.98,299.42,090924,,,A*49
$GPGGA,150838.750,4308.3261,N,07726.3012,W,1,06,3.00,165.3,M,-34.4,M,,*5C
lng=-77.438323, lat=43.138759, altitude=165.50, speed=18.98, satellites=6, angle=299.4200, fixquality=1
$GPRMC,150839.000,A,4308.3267,N,07726.3029,W,19.89,299.25,090924,,,A*43
$GPGGA,150839.250,4308.3275,N,07726.3046,W,1,06,3.00,165.2,M,-34.4,M,,*5D
lng=-77.438377, lat=43.138778, altitude=165.30, speed=19.89, satellites=6, angle=299.2500, fixquality=1
$GPRMC,150839.500,A,4308.3283,N,07726.3064,W,20.78,300.61,090924,,,A*40
$GPGGA,150839.750,4308.3291,N,07726.3081,W,1,06,3.00,165.1,M,-34.4,M,,*5A
lng=-77.438446, lat=43.138801, altitude=165.20, speed=20.78, satellites=6, angle=300.6100, fixquality=1
$GPRMC,150840.000,A,4308.3298,N,07726.3099,W,21.47,301.03,090924,,,A*4B
$GPGGA,150840.250,4308.3305,N,07726.3118,W,1,06,3.00,165.0,M,-34.4,M,,*5D
lng=-77.438499, lat=43.138828, altitude=165.10, speed=21.47, satellites=6, angle=301.0300, fixquality=1
$GPRMC,150840.500,A,4308.3313,N,07726.3136,W,22.33,300.72,090924,,,A*4F
$GPGGA,150840.750,4308.3321,N,07726.3156,W,1,06,3.00,165.0,M,-34.4,M,,*54
lng=-77.438560, lat=43.138858, altitude=165.00, speed=22.33, satellites=6, angle=300.7200, fixquality=1
$GPRMC,150841.000,A,4308.3328,N,07726.3175,W,23.08,300.64,090924,,,A*4A
$GPGGA,150841.250,4308.3337,N,07726.3195,W,1,06,3.00,164.8,M,-34.4,M,,*51
lng=-77.438621, lat=43.138881, altitude=165.00, speed=23.08, satellites=6, angle=300.6400, fixquality=1
$GPRMC,150841.500,A,4308.3346,N,07726.3215,W,23.74,300.97,090924,,,A*45
$GPGGA,150841.750,4308.3355,N,07726.3235,W,1,06,3.00,164.8,M,-34.4,M,,*59
lng=-77.438690, lat=43.138908, altitude=164.80, speed=23.74, satellites=6, angle=300.9700, fixquality=1
$GPRMC,150842.000,A,4308.3364,N,07726.3255,W,24.09,301.37,090924,,,A*41
$GPGGA,150842.250,4308.3374,N,07726.3275,W,1,06,3.00,164.7,M,-34.4,M,,*57
lng=-77.438758, lat=43.138938, altitude=164.80, speed=24.09, satellites=6, angle=301.3700, fixquality=1
$GPRMC,150842.500,A,4308.3383,N,07726.3295,W,24.69,301.91,090924,,,A*4B
$GPGGA,150842.750,4308.3393,N,07726.3316,W,1,06,3.00,164.7,M,-34.4,M,,*5F
lng=-77.438827, lat=43.138973, altitude=164.70, speed=24.69, satellites=6, angle=301.9100, fixquality=1
$GPRMC,150843.000,A,4308.3403,N,07726.3337,W,25.09,302.12,090924,,,A*46
$GPGGA,150843.250,4308.3413,N,07726.3357,W,1,06,3.01,164.7,M,-34.4,M,,*50
lng=-77.438888, lat=43.139003, altitude=164.70, speed=25.09, satellites=6, angle=302.1200, fixquality=1
$GPRMC,150843.500,A,4308.3423,N,07726.3378,W,25.45,302.62,090924,,,A*45
$GPGGA,150843.750,4308.3434,N,07726.3398,W,1,06,3.00,164.6,M,-34.4,M,,*53
lng=-77.438964, lat=43.139038, altitude=164.70, speed=25.45, satellites=6, angle=302.6200, fixquality=1
$GPRMC,150844.000,A,4308.3443,N,07726.3418,W,25.20,303.18,090924,,,A*4F
$GPGGA,150844.250,4308.3453,N,07726.3438,W,1,06,3.00,164.4,M,-34.4,M,,*5F
lng=-77.439033, lat=43.139072, altitude=164.60, speed=25.20, satellites=6, angle=303.1800, fixquality=1
$GPRMC,150844.500,A,4308.3463,N,07726.3458,W,24.67,304.13,090924,,,A*42
$GPGGA,150844.750,4308.3473,N,07726.3477,W,1,06,3.00,164.3,M,-34.4,M,,*54
lng=-77.439094, lat=43.139102, altitude=164.40, speed=24.67, satellites=6, angle=304.1300, fixquality=1
$GPRMC,150845.000,A,4308.3482,N,07726.3496,W,24.03,304.79,090924,,,A*45
$GPGGA,150845.250,4308.3493,N,07726.3515,W,1,06,3.01,164.1,M,-34.4,M,,*58
lng=-77.439163, lat=43.139137, altitude=164.30, speed=24.03, satellites=6, angle=304.7900, fixquality=1
$GPRMC,150845.500,A,4308.3503,N,07726.3533,W,23.45,305.53,090924,,,A*4A
$GPGGA,150845.750,4308.3514,N,07726.3551,W,1,06,3.01,164.0,M,-34.4,M,,*52
lng=-77.439224, lat=43.139167, altitude=164.10, speed=23.45, satellites=6, angle=305.5300, fixquality=1
$GPRMC,150846.000,A,4308.3525,N,07726.3569,W,23.12,306.39,090924,,,A*4A
$GPGGA,150846.250,4308.3536,N,07726.3587,W,1,06,3.01,163.9,M,-34.4,M,,*51
lng=-77.439285, lat=43.139209, altitude=164.00, speed=23.12, satellites=6, angle=306.3900, fixquality=1
$GPRMC,150846.500,A,4308.3547,N,07726.3604,W,23.02,309.05,090924,,,A*42
$GPGGA,150846.750,4308.3558,N,07726.3621,W,1,06,3.01,163.9,M,-34.4,M,,*53
lng=-77.439338, lat=43.139240, altitude=163.90, speed=23.02, satellites=6, angle=309.0500, fixquality=1
$GPRMC,150847.000,A,4308.3570,N,07726.3637,W,22.81,312.17,090924,,,A*41
$GPGGA,150847.250,4308.3584,N,07726.3652,W,1,06,3.00,163.8,M,-34.4,M,,*52
lng=-77.439399, lat=43.139282, altitude=163.90, speed=22.81, satellites=6, angle=312.1700, fixquality=1
$GPRMC,150847.500,A,4308.3597,N,07726.3667,W,23.45,319.16,090924,,,A*4B
$GPGGA,150847.750,4308.3611,N,07726.3681,W,1,06,3.00,163.5,M,-34.4,M,,*5B
lng=-77.439445, lat=43.139331, altitude=163.80, speed=23.45, satellites=6, angle=319.1600, fixquality=1
$GPRMC,150848.000,A,4308.3623,N,07726.3693,W,23.66,323.60,090924,,,A*4F
$GPGGA,150848.250,4308.3638,N,07726.3705,W,1,06,3.01,163.0,M,-34.4,M,,*53
lng=-77.439483, lat=43.139369, altitude=163.50, speed=23.66, satellites=6, angle=323.6000, fixquality=1
$GPRMC,150848.500,A,4308.3654,N,07726.3716,W,24.09,330.18,090924,,,A*45
$GPGGA,150848.750,4308.3671,N,07726.3727,W,1,06,3.01,162.9,M,-34.4,M,,*53
lng=-77.439529, lat=43.139419, altitude=163.00, speed=24.09, satellites=6, angle=330.1800, fixquality=1
$GPRMC,150849.000,A,4308.3688,N,07726.3737,W,24.39,334.14,090924,,,A*48
$GPGGA,150849.250,4308.3705,N,07726.3746,W,1,06,3.01,162.9,M,-34.4,M,,*52
lng=-77.439559, lat=43.139476, altitude=162.90, speed=24.39, satellites=6, angle=334.1400, fixquality=1
$GPRMC,150849.500,A,4308.3722,N,07726.3755,W,24.62,337.07,090924,,,A*47
$GPGGA,150849.750,4308.3738,N,07726.3762,W,1,06,3.01,162.9,M,-34.4,M,,*5F
lng=-77.439590, lat=43.139533, altitude=162.90, speed=24.62, satellites=6, angle=337.0700, fixquality=1
$GPRMC,150850.000,A,4308.3754,N,07726.3769,W,23.81,340.03,090924,,,A*4A
$GPGGA,150850.250,4308.3770,N,07726.3774,W,1,06,3.00,162.8,M,-34.4,M,,*59
lng=-77.439613, lat=43.139591, altitude=162.90, speed=23.81, satellites=6, angle=340.0300, fixquality=1
$GPRMC,150850.500,A,4308.3786,N,07726.3778,W,22.71,344.93,090924,,,A*43
$GPGGA,150850.750,4308.3803,N,07726.3781,W,1,06,3.01,162.7,M,-34.4,M,,*53
lng=-77.439628, lat=43.139640, altitude=162.80, speed=22.71, satellites=6, angle=344.9300, fixquality=1
$GPRMC,150851.000,A,4308.3818,N,07726.3785,W,22.44,348.15,090924,,,A*49
$GPGGA,150851.250,4308.3834,N,07726.3789,W,1,06,3.01,162.6,M,-34.4,M,,*5A
lng=-77.439643, lat=43.139698, altitude=162.70, speed=22.44, satellites=6, angle=348.1500, fixquality=1
$GPRMC,150851.500,A,4308.3851,N,07726.3791,W,22.05,351.71,090924,,,A*4B
$GPGGA,150851.750,4308.3868,N,07726.3792,W,1,06,3.01,162.5,M,-34.4,M,,*5F
lng=-77.439651, lat=43.139755, altitude=162.60, speed=22.05, satellites=6, angle=351.7100, fixquality=1
$GPRMC,150852.000,A,4308.3885,N,07726.3792,W,22.33,356.48,090924,,,A*4F
$GPGGA,150852.250,4308.3902,N,07726.3791,W,1,06,3.01,162.1,M,-34.4,M,,*53
lng=-77.439659, lat=43.139812, altitude=162.50, speed=22.33, satellites=6, angle=356.4800, fixquality=1
$GPRMC,150852.500,A,4308.3920,N,07726.3789,W,22.97,2.22,090924,,,A*4E
$GPGGA,150852.750,4308.3937,N,07726.3786,W,1,06,3.01,161.9,M,-34.4,M,,*5D
lng=-77.439651, lat=43.139869, altitude=162.10, speed=22.97, satellites=6, angle=2.2200, fixquality=1
$GPRMC,150853.000,A,4308.3954,N,07726.3783,W,23.35,5.63,090924,,,A*48
$GPGGA,150853.250,4308.3972,N,07726.3780,W,1,06,3.01,161.5,M,-34.4,M,,*52
lng=-77.439643, lat=43.139926, altitude=161.90, speed=23.35, satellites=6, angle=5.6300, fixquality=1
$GPRMC,150853.500,A,4308.3990,N,07726.3776,W,24.11,7.92,090924,,,A*42
$GPGGA,150853.750,4308.4009,N,07726.3772,W,1,06,3.01,161.2,M,-34.4,M,,*5F
lng=-77.439620, lat=43.139980, altitude=161.50, speed=24.11, satellites=6, angle=7.9200, fixquality=1
$GPRMC,150854.000,A,4308.4027,N,07726.3768,W,24.44,8.57,090924,,,A*4B
$GPGGA,150854.250,4308.4045,N,07726.3764,W,1,06,3.01,161.1,M,-34.4,M,,*51
lng=-77.439613, lat=43.140048, altitude=161.20, speed=24.44, satellites=6, angle=8.5700, fixquality=1
$GPRMC,150854.500,A,4308.4064,N,07726.3760,W,24.53,8.77,090924,,,A*45
$GPGGA,150854.750,4308.4081,N,07726.3756,W,1,06,3.01,161.0,M,-34.4,M,,*5C
lng=-77.439598, lat=43.140102, altitude=161.10, speed=24.53, satellites=6, angle=8.7700, fixquality=1
$GPRMC,150855.000,A,4308.4099,N,07726.3752,W,24.24,8.30,090924,,,A*41
$GPGGA,150855.250,4308.4116,N,07726.3747,W,1,06,3.01,160.7,M,-34.4,M,,*51
lng=-77.439582, lat=43.140159, altitude=161.00, speed=24.24, satellites=6, angle=8.3000, fixquality=1
$GPRMC,150855.500,A,4308.4134,N,07726.3743,W,24.05,8.94,090924,,,A*4F
$GPGGA,150855.750,4308.4152,N,07726.3739,W,1,06,3.01,160.4,M,-34.4,M,,*5E
lng=-77.439575, lat=43.140224, altitude=160.70, speed=24.05, satellites=6, angle=8.9400, fixquality=1
$GPRMC,150856.000,A,4308.4171,N,07726.3734,W,24.09,9.19,090924,,,A*40
$GPGGA,150856.250,4308.4188,N,07726.3730,W,1,06,3.01,160.3,M,-34.4,M,,*51
lng=-77.439559, lat=43.140281, altitude=160.40, speed=24.09, satellites=6, angle=9.1900, fixquality=1
$GPRMC,150856.500,A,4308.4205,N,07726.3726,W,23.83,9.52,090924,,,A*4C
$GPGGA,150856.750,4308.4222,N,07726.3721,W,1,06,3.01,160.1,M,-34.4,M,,*55
lng=-77.439544, lat=43.140338, altitude=160.30, speed=23.83, satellites=6, angle=9.5200, fixquality=1
$GPRMC,150857.000,A,4308.4239,N,07726.3717,W,23.92,9.61,090924,,,A*45
$GPGGA,150857.250,4308.4256,N,07726.3712,W,1,06,3.02,159.9,M,-34.4,M,,*53
lng=-77.439529, lat=43.140396, altitude=160.10, speed=23.92, satellites=6, angle=9.6100, fixquality=1
$GPRMC,150857.500,A,4308.4273,N,07726.3708,W,24.03,9.19,090924,,,A*40
$GPGGA,150857.750,4308.4290,N,07726.3704,W,1,06,3.02,159.7,M,-34.4,M,,*55
lng=-77.439506, lat=43.140453, altitude=159.90, speed=24.03, satellites=6, angle=9.1900, fixquality=1
$GPRMC,150858.000,A,4308.4307,N,07726.3700,W,24.11,9.14,090924,,,A*4E
$GPGGA,150858.250,4308.4323,N,07726.3695,W,1,06,3.02,159.6,M,-34.4,M,,*5E
lng=-77.439498, lat=43.140510, altitude=159.70, speed=24.11, satellites=6, angle=9.1400, fixquality=1
$GPRMC,150858.500,A,4308.4340,N,07726.3691,W,23.94,8.72,090924,,,A*4A
$GPGGA,150858.750,4308.4356,N,07726.3687,W,1,06,3.02,159.4,M,-34.4,M,,*58
lng=-77.439483, lat=43.140567, altitude=159.60, speed=23.94, satellites=6, angle=8.7200, fixquality=1
$GPRMC,150859.000,A,4308.4372,N,07726.3683,W,23.67,8.87,090924,,,A*4A
$GPGGA,150859.250,4308.4387,N,07726.3679,W,1,06,3.02,159.4,M,-34.4,M,,*51
lng=-77.439468, lat=43.140617, altitude=159.40, speed=23.67, satellites=6, angle=8.8700, fixquality=1
$GPRMC,150859.500,A,4308.4403,N,07726.3675,W,23.31,8.65,090924,,,A*48
$GPGGA,150859.750,4308.4418,N,07726.3671,W,1,06,3.02,159.1,M,-34.4,M,,*58
lng=-77.439460, lat=43.140674, altitude=159.40, speed=23.31, satellites=6, angle=8.6500, fixquality=1
$GPRMC,150900.000,A,4308.4433,N,07726.3667,W,22.87,8.70,090924,,,A*48
$GPGGA,150900.250,4308.4448,N,07726.3663,W,1,06,3.02,158.9,M,-34.4,M,,*5F
lng=-77.439445, lat=43.140724, altitude=159.10, speed=22.87, satellites=6, angle=8.7000, fixquality=1
$GPRMC,150900.500,A,4308.4462,N,07726.3659,W,21.93,8.84,090924,,,A*49
$GPGGA,150900.750,4308.4475,N,07726.3655,W,1,06,3.02,158.8,M,-34.4,M,,*50
lng=-77.439430, lat=43.140769, altitude=158.90, speed=21.93, satellites=6, angle=8.8400, fixquality=1
$GPRMC,150901.000,A,4308.4489,N,07726.3652,W,21.25,8.61,090924,,,A*45
$GPGGA,150901.250,4308.4501,N,07726.3648,W,1,06,3.02,158.6,M,-34.4,M,,*54
lng=-77.439422, lat=43.140811, altitude=158.80, speed=21.25, satellites=6, angle=8.6100, fixquality=1
$GPRMC,150901.500,A,4308.4513,N,07726.3645,W,20.26,8.01,090924,,,A*40
$GPGGA,150901.750,4308.4524,N,07726.3642,W,1,06,3.02,158.5,M,-34.4,M,,*5F
lng=-77.439407, lat=43.140853, altitude=158.60, speed=20.26, satellites=6, angle=8.0100, fixquality=1
$GPRMC,150902.000,A,4308.4536,N,07726.3639,W,19.05,7.49,090924,,,A*42
$GPGGA,150902.250,4308.4547,N,07726.3636,W,1,06,3.01,158.3,M,-34.4,M,,*5A
lng=-77.439399, lat=43.140892, altitude=158.50, speed=19.05, satellites=6, angle=7.4900, fixquality=1
$GPRMC,150902.500,A,4308.4556,N,07726.3634,W,17.51,4.77,090924,,,A*4D
$GPGGA,150902.750,4308.4566,N,07726.3633,W,1,06,3.02,158.1,M,-34.4,M,,*58
lng=-77.439384, lat=43.140926, altitude=158.30, speed=17.51, satellites=6, angle=4.7700, fixquality=1
$GPRMC,150903.000,A,4308.4574,N,07726.3631,W,16.14,3.24,090924,,,A*4D
$GPGGA,150903.250,4308.4581,N,07726.3629,W,1,06,3.02,157.9,M,-34.4,M,,*59
lng=-77.439384, lat=43.140956, altitude=158.10, speed=16.14, satellites=6, angle=3.2400, fixquality=1
$GPRMC,150903.500,A,4308.4586,N,07726.3627,W,13.42,1.81,090924,,,A*49
$GPGGA,150903.750,4308.4590,N,07726.3626,W,1,06,3.02,157.8,M,-34.4,M,,*52
lng=-77.439376, lat=43.140975, altitude=157.90, speed=13.42, satellites=6, angle=1.8100, fixquality=1
$GPRMC,150904.000,A,4308.4595,N,07726.3624,W,11.05,1.39,090924,,,A*48
$GPGGA,150904.250,4308.4594,N,07726.3622,W,1,06,3.02,157.2,M,-34.4,M,,*5A
lng=-77.439369, lat=43.140991, altitude=157.80, speed=11.05, satellites=6, angle=1.3900, fixquality=1
$GPRMC,150904.500,A,4308.4593,N,07726.3620,W,8.18,1.93,090924,,,A*7B
$GPGGA,150904.750,4308.4593,N,07726.3619,W,1,06,3.02,156.2,M,-34.4,M,,*51
lng=-77.439361, lat=43.140991, altitude=157.20, speed=8.18, satellites=6, angle=1.9300, fixquality=1
$GPRMC,150905.000,A,4308.4595,N,07726.3618,W,6.68,359.44,090924,,,A*7F
$GPGGA,150905.250,4308.4594,N,07726.3617,W,1,06,3.02,155.4,M,-34.4,M,,*59
lng=-77.439361, lat=43.140991, altitude=156.20, speed=6.68, satellites=6, angle=359.4400, fixquality=1
$GPRMC,150905.500,A,4308.4593,N,07726.3616,W,4.87,357.64,090924,,,A*7D
$GPGGA,150905.750,4308.4592,N,07726.3615,W,1,06,3.02,154.8,M,-34.4,M,,*55
lng=-77.439361, lat=43.140991, altitude=155.40, speed=4.87, satellites=6, angle=357.6400, fixquality=1
$GPRMC,150906.000,A,4308.4591,N,07726.3615,W,3.48,354.67,090924,,,A*7E
$GPGGA,150906.250,4308.4589,N,07726.3614,W,1,06,3.02,154.3,M,-34.4,M,,*53
lng=-77.439353, lat=43.140983, altitude=154.80, speed=3.48, satellites=6, angle=354.6700, fixquality=1
$GPRMC,150906.500,A,4308.4588,N,07726.3614,W,2.29,354.67,090924,,,A*74
$GPGGA,150906.750,4308.4586,N,07726.3614,W,1,06,3.02,153.8,M,-34.4,M,,*55
lng=-77.439353, lat=43.140983, altitude=154.30, speed=2.29, satellites=6, angle=354.6700, fixquality=1
$GPRMC,150907.250,A,4308.4587,N,07726.3615,W,3.09,337.24,090924,,,A*78
$GPGGA,150907.500,4308.4590,N,07726.3616,W,1,06,3.01,153.2,M,-34.4,M,,*5F
lng=-77.439353, lat=43.140975, altitude=153.30, speed=3.09, satellites=6, angle=337.2400, fixquality=1
$GPRMC,150907.750,A,4308.4592,N,07726.3617,W,4.13,336.24,090924,,,A*76
$GPGGA,150908.000,4308.4596,N,07726.3619,W,1,06,3.01,153.0,M,-34.4,M,,*5E
lng=-77.439361, lat=43.140983, altitude=153.20, speed=4.13, satellites=6, angle=336.2400, fixquality=1
$GPRMC,150908.250,A,4308.4598,N,07726.3623,W,5.50,327.98,090924,,,A*70
$GPGGA,150908.500,4308.4602,N,07726.3629,W,1,06,3.02,152.7,M,-34.4,M,,*53
lng=-77.439369, lat=43.140998, altitude=153.00, speed=5.50, satellites=6, angle=327.9800, fixquality=1
$GPRMC,150908.750,A,4308.4606,N,07726.3636,W,8.73,311.03,090924,,,A*7E
$GPGGA,150909.000,4308.4610,N,07726.3644,W,1,06,3.01,152.5,M,-34.4,M,,*5E
lng=-77.439399, lat=43.141006, altitude=152.70, speed=8.73, satellites=6, angle=311.0300, fixquality=1
$GPRMC,150909.250,A,4308.4614,N,07726.3654,W,11.28,302.68,090924,,,A*44
$GPGGA,150909.500,4308.4619,N,07726.3665,W,1,06,3.02,152.3,M,-34.4,M,,*54
lng=-77.439422, lat=43.141025, altitude=152.50, speed=11.28, satellites=6, angle=302.6800, fixquality=1
$GPRMC,150909.750,A,4308.4622,N,07726.3678,W,14.33,296.36,090924,,,A*42
$GPGGA,150910.000,4308.4624,N,07726.3692,W,1,06,3.01,152.0,M,-34.4,M,,*5F
lng=-77.439460, lat=43.141040, altitude=152.30, speed=14.33, satellites=6, angle=296.3600, fixquality=1
$GPRMC,150910.250,A,4308.4625,N,07726.3708,W,16.34,289.11,090924,,,A*40
$GPGGA,150910.500,4308.4626,N,07726.3725,W,1,06,3.02,151.8,M,-34.4,M,,*5D
lng=-77.439506, lat=43.141040, altitude=152.00, speed=16.34, satellites=6, angle=289.1100, fixquality=1
$GPRMC,150910.750,A,4308.4627,N,07726.3741,W,18.02,283.71,090924,,,A*4D
$GPGGA,150911.000,4308.4630,N,07726.3759,W,1,06,3.02,151.7,M,-34.4,M,,*5A
lng=-77.439567, lat=43.141048, altitude=151.80, speed=18.02, satellites=6, angle=283.7100, fixquality=1
$GPRMC,150911.250,A,4308.4631,N,07726.3777,W,19.21,281.32,090924,,,A*4E
$GPGGA,150911.500,4308.4632,N,07726.3797,W,1,06,3.03,151.6,M,-34.4,M,,*5F
lng=-77.439628, lat=43.141048, altitude=151.70, speed=19.21, satellites=6, angle=281.3200, fixquality=1
$GPRMC,150911.750,A,4308.4634,N,07726.3816,W,20.17,278.75,090924,,,A*4C
$GPGGA,150912.000,4308.4635,N,07726.3835,W,1,06,3.02,151.5,M,-34.4,M,,*5B
lng=-77.439697, lat=43.141056, altitude=151.60, speed=20.17, satellites=6, angle=278.7500, fixquality=1
$GPRMC,150912.250,A,4308.4635,N,07726.3855,W,20.25,277.09,090924,,,A*49
$GPGGA,150912.500,4308.4635,N,07726.3874,W,1,06,3.02,151.3,M,-34.4,M,,*5D
lng=-77.439765, lat=43.141056, altitude=151.50, speed=20.25, satellites=6, angle=277.0900, fixquality=1
$GPRMC,150912.750,A,4308.4635,N,07726.3893,W,20.01,275.79,090924,,,A*45
$GPGGA,150913.000,4308.4635,N,07726.3911,W,1,06,3.02,151.2,M,-34.4,M,,*5A
lng=-77.439819, lat=43.141056, altitude=151.30, speed=20.01, satellites=6, angle=275.7900, fixquality=1
$GPRMC,150913.250,A,4308.4635,N,07726.3929,W,19.37,274.86,090924,,,A*4F
$GPGGA,150913.500,4308.4635,N,07726.3947,W,1,06,3.02,151.1,M,-34.4,M,,*5F
lng=-77.439888, lat=43.141056, altitude=151.20, speed=19.37, satellites=6, angle=274.8600, fixquality=1
$GPRMC,150913.750,A,4308.4636,N,07726.3965,W,18.62,274.15,090924,,,A*4A
$GPGGA,150914.000,4308.4637,N,07726.3982,W,1,06,3.03,151.1,M,-34.4,M,,*57
lng=-77.439941, lat=43.141056, altitude=151.10, speed=18.62, satellites=6, angle=274.1500, fixquality=1
$GPRMC,150914.250,A,4308.4637,N,07726.3999,W,17.89,274.21,090924,,,A*47
$GPGGA,150914.500,4308.4638,N,07726.4015,W,1,06,3.03,151.0,M,-34.4,M,,*5C
lng=-77.439994, lat=43.141063, altitude=151.10, speed=17.89, satellites=6, angle=274.2100, fixquality=1
$GPRMC,150914.750,A,4308.4639,N,07726.4031,W,16.93,275.10,090924,,,A*49
$GPGGA,150915.000,4308.4640,N,07726.4046,W,1,06,3.03,151.0,M,-34.4,M,,*51
lng=-77.440055, lat=43.141063, altitude=151.00, speed=16.93, satellites=6, angle=275.1000, fixquality=1
$GPRMC,150915.250,A,4308.4642,N,07726.4061,W,15.93,277.09,090924,,,A*4D
$GPGGA,150915.500,4308.4643,N,07726.4075,W,1,06,3.03,150.9,M,-34.4,M,,*5F
lng=-77.440101, lat=43.141071, altitude=151.00, speed=15.93, satellites=6, angle=277.0900, fixquality=1
$GPRMC,150915.750,A,4308.4643,N,07726.4089,W,15.16,277.58,090924,,,A*46
$GPGGA,150916.000,4308.4644,N,07726.4103,W,1,06,3.02,150.8,M,-34.4,M,,*5E
lng=-77.440147, lat=43.141071, altitude=150.90, speed=15.16, satellites=6, angle=277.5800, fixquality=1
$GPRMC,150916.250,A,4308.4645,N,07726.4116,W,14.41,278.07,090924,,,A*47
$GPGGA,150916.500,4308.4646,N,07726.4128,W,1,06,3.03,150.7,M,-34.4,M,,*5E
lng=-77.440193, lat=43.141071, altitude=150.80, speed=14.41, satellites=6, angle=278.0700, fixquality=1
$GPRMC,150916.750,A,4308.4647,N,07726.4140,W,13.14,278.72,090924,,,A*46
$GPGGA,150917.000,4308.4648,N,07726.4151,W,1,06,3.03,150.6,M,-34.4,M,,*5B
lng=-77.440231, lat=43.141078, altitude=150.70, speed=13.14, satellites=6, angle=278.7200, fixquality=1
$GPRMC,150917.250,A,4308.4649,N,07726.4161,W,11.87,280.20,090924,,,A*47
$GPGGA,150917.500,4308.4650,N,07726.4171,W,1,06,3.03,150.5,M,-34.4,M,,*56
lng=-77.440269, lat=43.141078, altitude=150.60, speed=11.87, satellites=6, angle=280.2000, fixquality=1
$GPRMC,150917.750,A,4308.4651,N,07726.4180,W,10.62,281.29,090924,,,A*46
$GPGGA,150918.000,4308.4652,N,07726.4188,W,1,06,3.02,150.4,M,-34.4,M,,*58
lng=-77.440299, lat=43.141090, altitude=150.50, speed=10.62, satellites=6, angle=281.2900, fixquality=1
$GPRMC,150918.250,A,4308.4653,N,07726.4195,W,8.98,284.65,090924,,,A*7B
$GPGGA,150918.500,4308.4653,N,07726.4201,W,1,06,3.03,150.2,M,-34.4,M,,*59
lng=-77.440322, lat=43.141090, altitude=150.40, speed=8.98, satellites=6, angle=284.6500, fixquality=1
$GPRMC,150918.750,A,4308.4653,N,07726.4207,W,7.25,287.43,090924,,,A*78
$GPGGA,150919.000,4308.4654,N,07726.4212,W,1,06,3.03,150.1,M,-34.4,M,,*5B
lng=-77.440345, lat=43.141090, altitude=150.20, speed=7.25, satellites=6, angle=287.4300, fixquality=1
$GPRMC,150919.250,A,4308.4654,N,07726.4216,W,6.02,290.74,090924,,,A*7D
$GPGGA,150919.500,4308.4655,N,07726.4220,W,1,06,3.03,149.9,M,-34.4,M,,*5E
lng=-77.440353, lat=43.141090, altitude=150.10, speed=6.02, satellites=6, angle=290.7400, fixquality=1
$GPRMC,150919.750,A,4308.4653,N,07726.4223,W,4.68,294.76,090924,,,A*71
$GPGGA,150920.000,4308.4653,N,07726.4227,W,1,06,3.03,149.8,M,-34.4,M,,*51
lng=-77.440376, lat=43.141090, altitude=149.90, speed=4.68, satellites=6, angle=294.7600, fixquality=1
$GPRMC,150920.250,A,4308.4653,N,07726.4230,W,3.89,295.81,090924,,,A*7D
$GPGGA,150920.500,4308.4654,N,07726.4233,W,1,06,3.03,149.6,M,-34.4,M,,*58
lng=-77.440383, lat=43.141090, altitude=149.80, speed=3.89, satellites=6, angle=295.8100, fixquality=1
$GPRMC,150920.750,A,4308.4655,N,07726.4235,W,3.56,298.54,090924,,,A*7C
$GPGGA,150921.000,4308.4655,N,07726.4238,W,1,06,3.02,149.4,M,-34.4,M,,*55
lng=-77.440391, lat=43.141090, altitude=149.60, speed=3.56, satellites=6, angle=298.5400, fixquality=1
$GPRMC,150921.250,A,4308.4657,N,07726.4242,W,3.71,296.54,090924,,,A*71
$GPGGA,150921.500,4308.4658,N,07726.4245,W,1,06,3.02,149.2,M,-34.4,M,,*51
lng=-77.440406, lat=43.141098, altitude=149.40, speed=3.71, satellites=6, angle=296.5400, fixquality=1
$GPRMC,150921.750,A,4308.4658,N,07726.4249,W,3.96,294.55,090924,,,A*7A
$GPGGA,150922.000,4308.4659,N,07726.4253,W,1,06,3.03,149.1,M,-34.4,M,,*53
lng=-77.440414, lat=43.141098, altitude=149.20, speed=3.96, satellites=6, angle=294.5500, fixquality=1
$GPRMC,150922.250,A,4308.4660,N,07726.4257,W,4.40,290.56,090924,,,A*73
$GPGGA,150922.500,4308.4661,N,07726.4262,W,1,06,3.03,149.0,M,-34.4,M,,*5E
lng=-77.440429, lat=43.141098, altitude=149.10, speed=4.40, satellites=6, angle=290.5600, fixquality=1
$GPRMC,150922.750,A,4308.4662,N,07726.4267,W,5.29,286.05,090924,,,A*78
$GPGGA,150923.000,4308.4663,N,07726.4273,W,1,06,3.03,148.9,M,-34.4,M,,*50
lng=-77.440444, lat=43.141105, altitude=149.00, speed=5.29, satellites=6, angle=286.0500, fixquality=1
$GPRMC,150923.250,A,4308.4664,N,07726.4279,W,5.95,285.10,090924,,,A*75
$GPGGA,150923.500,4308.4665,N,07726.4285,W,1,06,3.03,148.8,M,-34.4,M,,*5B
lng=-77.440460, lat=43.141105, altitude=148.90, speed=5.95, satellites=6, angle=285.1000, fixquality=1
$GPRMC,150923.750,A,4308.4665,N,07726.4291,W,6.57,284.02,090924,,,A*78
$GPGGA,150924.000,4308.4666,N,07726.4297,W,1,06,3.03,148.8,M,-34.4,M,,*59
lng=-77.440483, lat=43.141105, altitude=148.80, speed=6.57, satellites=6, angle=284.0200, fixquality=1
$GPRMC,150924.250,A,4308.4667,N,07726.4303,W,6.69,283.32,090924,,,A*7B
$GPGGA,150924.500,4308.4668,N,07726.4310,W,1,06,3.03,148.9,M,-34.4,M,,*5D
lng=-77.440505, lat=43.141113, altitude=148.80, speed=6.69, satellites=6, angle=283.3200, fixquality=1
$GPRMC,150924.750,A,4308.4668,N,07726.4317,W,7.03,283.31,090924,,,A*7A
$GPGGA,150925.000,4308.4670,N,07726.4324,W,1,06,3.03,148.8,M,-34.4,M,,*56
lng=-77.440528, lat=43.141113, altitude=148.90, speed=7.03, satellites=6, angle=283.3100, fixquality=1
$GPRMC,150925.250,A,4308.4670,N,07726.4331,W,7.13,283.32,090924,,,A*71
$GPGGA,150925.500,4308.4672,N,07726.4338,W,1,06,3.03,148.8,M,-34.4,M,,*5C
lng=-77.440551, lat=43.141113, altitude=148.80, speed=7.13, satellites=6, angle=283.3200, fixquality=1
$GPRMC,150925.750,A,4308.4673,N,07726.4344,W,7.23,283.22,090924,,,A*77
$GPGGA,150926.000,4308.4674,N,07726.4351,W,1,06,3.03,148.7,M,-34.4,M,,*5C
lng=-77.440574, lat=43.141120, altitude=148.80, speed=7.23, satellites=6, angle=283.2200, fixquality=1
$GPRMC,150926.250,A,4308.4676,N,07726.4358,W,7.28,285.02,090924,,,A*76
$GPGGA,150926.500,4308.4679,N,07726.4364,W,1,06,3.04,148.7,M,-34.4,M,,*55
lng=-77.440597, lat=43.141128, altitude=148.70, speed=7.28, satellites=6, angle=285.0200, fixquality=1
$GPRMC,150926.750,A,4308.4681,N,07726.4370,W,7.29,288.15,090924,,,A*7B
$GPGGA,150927.000,4308.4683,N,07726.4377,W,1,06,3.03,148.7,M,-34.4,M,,*51
lng=-77.440620, lat=43.141136, altitude=148.70, speed=7.29, satellites=6, angle=288.1500, fixquality=1
$GPRMC,150927.250,A,4308.4687,N,07726.4383,W,7.33,291.33,090924,,,A*72
$GPGGA,150927.500,4308.4690,N,07726.4390,W,1,06,3.04,148.6,M,-34.4,M,,*59
lng=-77.440643, lat=43.141147, altitude=148.70, speed=7.33, satellites=6, angle=291.3300, fixquality=1
$GPRMC,150927.750,A,4308.4692,N,07726.4397,W,8.04,291.92,090924,,,A*76
$GPGGA,150928.000,4308.4695,N,07726.4404,W,1,06,3.04,148.6,M,-34.4,M,,*5C
lng=-77.440658, lat=43.141155, altitude=148.60, speed=8.04, satellites=6, angle=291.9200, fixquality=1
$GPRMC,150928.250,A,4308.4697,N,07726.4412,W,8.79,290.10,090924,,,A*72
$GPGGA,150928.500,4308.4699,N,07726.4420,W,1,06,3.04,148.5,M,-34.4,M,,*50
lng=-77.440689, lat=43.141162, altitude=148.60, speed=8.79, satellites=6, angle=290.1000, fixquality=1
$GPRMC,150928.750,A,4308.4700,N,07726.4430,W,10.13,283.82,090924,,,A*44
$GPGGA,150929.000,4308.4702,N,07726.4440,W,1,06,3.04,148.4,M,-34.4,M,,*50
lng=-77.440711, lat=43.141170, altitude=148.50, speed=10.13, satellites=6, angle=283.8200, fixquality=1
$GPRMC,150929.250,A,4308.4703,N,07726.4450,W,11.06,281.70,090924,,,A*4F
$GPGGA,150929.500,4308.4704,N,07726.4462,W,1,06,3.04,148.4,M,-34.4,M,,*53
lng=-77.440750, lat=43.141170, altitude=148.40, speed=11.06, satellites=6, angle=281.7000, fixquality=1
$GPRMC,150929.750,A,4308.4704,N,07726.4474,W,12.53,277.17,090924,,,A*40
$GPGGA,150930.000,4308.4706,N,07726.4488,W,1,06,3.04,148.4,M,-34.4,M,,*58
lng=-77.440788, lat=43.141170, altitude=148.40, speed=12.53, satellites=6, angle=277.1700, fixquality=1
$GPRMC,150930.250,A,4308.4706,N,07726.4503,W,14.67,274.60,090924,,,A*4C
$GPGGA,150930.500,4308.4705,N,07726.4517,W,1,06,3.04,148.5,M,-34.4,M,,*58
lng=-77.440834, lat=43.141178, altitude=148.40, speed=14.67, satellites=6, angle=274.6000, fixquality=1
$GPRMC,150930.750,A,4308.4704,N,07726.4532,W,15.60,269.18,090924,,,A*4C
$GPGGA,150931.000,4308.4704,N,07726.4548,W,1,06,3.04,148.5,M,-34.4,M,,*57
lng=-77.440887, lat=43.141170, altitude=148.50, speed=15.60, satellites=6, angle=269.1800, fixquality=1
$GPRMC,150931.250,A,4308.4704,N,07726.4565,W,17.08,268.11,090924,,,A*4E
$GPGGA,150931.500,4308.4704,N,07726.4583,W,1,06,3.04,148.5,M,-34.4,M,,*55
lng=-77.440940, lat=43.141170, altitude=148.50, speed=17.08, satellites=6, angle=268.1100, fixquality=1
$GPRMC,150931.750,A,4308.4704,N,07726.4601,W,18.28,267.83,090924,,,A*43
$GPGGA,150932.000,4308.4704,N,07726.4619,W,1,06,3.04,148.5,M,-34.4,M,,*53
lng=-77.441001, lat=43.141170, altitude=148.50, speed=18.28, satellites=6, angle=267.8300, fixquality=1
$GPRMC,150932.250,A,4308.4704,N,07726.4638,W,19.20,268.04,090924,,,A*46
$GPGGA,150932.500,4308.4705,N,07726.4659,W,1,06,3.04,148.6,M,-34.4,M,,*50
lng=-77.441062, lat=43.141170, altitude=148.50, speed=19.20, satellites=6, angle=268.0400, fixquality=1
$GPRMC,150932.750,A,4308.4706,N,07726.4681,W,20.75,269.18,090924,,,A*45
$GPGGA,150933.000,4308.4706,N,07726.4701,W,1,06,3.04,148.6,M,-34.4,M,,*5B
lng=-77.441139, lat=43.141178, altitude=148.60, speed=20.75, satellites=6, angle=269.1800, fixquality=1
$GPRMC,150933.250,A,4308.4709,N,07726.4723,W,21.39,271.78,090924,,,A*41
$GPGGA,150933.500,4308.4712,N,07726.4746,W,1,06,3.04,148.9,M,-34.4,M,,*57
lng=-77.441200, lat=43.141178, altitude=148.60, speed=21.39, satellites=6, angle=271.7800, fixquality=1
$GPRMC,150933.750,A,4308.4716,N,07726.4770,W,22.45,275.45,090924,,,A*4E
$GPGGA,150934.000,4308.4718,N,07726.4792,W,1,06,3.04,149.1,M,-34.4,M,,*5F
lng=-77.441284, lat=43.141193, altitude=148.90, speed=22.45, satellites=6, angle=275.4500, fixquality=1
$GPRMC,150934.250,A,4308.4721,N,07726.4817,W,23.46,276.63,090924,,,A*43
$GPGGA,150934.500,4308.4724,N,07726.4842,W,1,06,3.04,149.3,M,-34.4,M,,*55
lng=-77.441368, lat=43.141201, altitude=149.10, speed=23.46, satellites=6, angle=276.6300, fixquality=1
$GPRMC,150934.750,A,4308.4727,N,07726.4867,W,25.01,277.98,090924,,,A*47
$GPGGA,150935.000,4308.4729,N,07726.4891,W,1,06,3.03,149.5,M,-34.4,M,,*53
lng=-77.441444, lat=43.141212, altitude=149.30, speed=25.01, satellites=6, angle=277.9800, fixquality=1
$GPRMC,150935.250,A,4308.4732,N,07726.4916,W,25.90,278.13,090924,,,A*44
$GPGGA,150935.500,4308.4734,N,07726.4941,W,1,06,3.04,149.6,M,-34.4,M,,*52
lng=-77.441528, lat=43.141220, altitude=149.50, speed=25.90, satellites=6, angle=278.1300, fixquality=1
$GPRMC,150935.750,A,4308.4735,N,07726.4967,W,26.72,277.50,090924,,,A*47
$GPGGA,150936.000,4308.4738,N,07726.4993,W,1,06,3.04,149.9,M,-34.4,M,,*58
lng=-77.441612, lat=43.141227, altitude=149.60, speed=26.72, satellites=6, angle=277.5000, fixquality=1
$GPRMC,150936.250,A,4308.4740,N,07726.5020,W,27.49,276.79,090924,,,A*4B
$GPGGA,150936.500,4308.4742,N,07726.5046,W,1,06,3.04,150.1,M,-34.4,M,,*50
lng=-77.441696, lat=43.141235, altitude=149.90, speed=27.49, satellites=6, angle=276.7900, fixquality=1
$GPRMC,150936.750,A,4308.4745,N,07726.5073,W,27.93,276.12,090924,,,A*47
$GPGGA,150937.000,4308.4747,N,07726.5100,W,1,06,3.03,150.3,M,-34.4,M,,*57
lng=-77.441787, lat=43.141242, altitude=150.10, speed=27.93, satellites=6, angle=276.1200, fixquality=1
$GPRMC,150937.250,A,4308.4749,N,07726.5127,W,28.28,276.03,090924,,,A*40
$GPGGA,150937.500,4308.4752,N,07726.5154,W,1,06,3.04,150.5,M,-34.4,M,,*56
lng=-77.441879, lat=43.141250, altitude=150.30, speed=28.28, satellites=6, angle=276.0300, fixquality=1
$GPRMC,150937.750,A,4308.4754,N,07726.5182,W,28.76,275.91,090924,,,A*45
$GPGGA,150938.000,4308.4757,N,07726.5210,W,1,06,3.03,150.7,M,-34.4,M,,*5F
lng=-77.441970, lat=43.141258, altitude=150.50, speed=28.76, satellites=6, angle=275.9100, fixquality=1
$GPRMC,150938.250,A,4308.4759,N,07726.5238,W,29.27,275.71,090924,,,A*4B
$GPGGA,150938.500,4308.4761,N,07726.5267,W,1,06,3.04,150.9,M,-34.4,M,,*56
lng=-77.442062, lat=43.141269, altitude=150.70, speed=29.27, satellites=6, angle=275.7100, fixquality=1
$GPRMC,150938.750,A,4308.4763,N,07726.5296,W,29.92,275.09,090924,,,A*42
$GPGGA,150939.000,4308.4764,N,07726.5325,W,1,06,3.03,151.0,M,-34.4,M,,*5F
lng=-77.442161, lat=43.141269, altitude=150.90, speed=29.92, satellites=6, angle=275.0900, fixquality=1
$GPRMC,150939.250,A,4308.4765,N,07726.5354,W,30.42,274.33,090924,,,A*42
$GPGGA,150939.500,4308.4767,N,07726.5384,W,1,06,3.03,151.1,M,-34.4,M,,*53
lng=-77.442253, lat=43.141277, altitude=151.00, speed=30.42, satellites=6, angle=274.3300, fixquality=1
$GPRMC,150939.750,A,4308.4767,N,07726.5414,W,31.10,273.79,090924,,,A*49
$GPGGA,150940.000,4308.4768,N,07726.5444,W,1,06,3.04,151.2,M,-34.4,M,,*58
lng=-77.442359, lat=43.141277, altitude=151.10, speed=31.10, satellites=6, angle=273.7900, fixquality=1
$GPRMC,150940.250,A,4308.4767,N,07726.5475,W,31.64,272.60,090924,,,A*4F
$GPGGA,150940.500,4308.4767,N,07726.5506,W,1,06,3.04,151.2,M,-34.4,M,,*55
lng=-77.442459, lat=43.141277, altitude=151.20, speed=31.64, satellites=6, angle=272.6000, fixquality=1
$GPRMC,150940.750,A,4308.4767,N,07726.5537,W,32.20,271.76,090924,,,A*4A
$GPGGA,150941.000,4308.4767,N,07726.5568,W,1,06,3.04,151.2,M,-34.4,M,,*59
lng=-77.442558, lat=43.141277, altitude=151.20, speed=32.20, satellites=6, angle=271.7600, fixquality=1
$GPRMC,150941.250,A,4308.4767,N,07726.5600,W,32.79,271.33,090924,,,A*44
$GPGGA,150941.500,4308.4767,N,07726.5633,W,1,06,3.05,151.1,M,-34.4,M,,*53
lng=-77.442665, lat=43.141277, altitude=151.20, speed=32.79, satellites=6, angle=271.3300, fixquality=1
$GPRMC,150941.750,A,4308.4767,N,07726.5666,W,33.23,270.71,090924,,,A*48
$GPGGA,150942.000,4308.4767,N,07726.5699,W,1,06,3.04,151.1,M,-34.4,M,,*54
lng=-77.442771, lat=43.141277, altitude=151.10, speed=33.23, satellites=6, angle=270.7100, fixquality=1
$GPRMC,150942.250,A,4308.4768,N,07726.5733,W,33.58,271.13,090924,,,A*49
$GPGGA,150942.500,4308.4768,N,07726.5766,W,1,06,3.05,151.0,M,-34.4,M,,*5F
lng=-77.442886, lat=43.141277, altitude=151.10, speed=33.58, satellites=6, angle=271.1300, fixquality=1
$GPRMC,150942.750,A,4308.4768,N,07726.5799,W,33.85,271.14,090924,,,A*4B
$GPGGA,150943.000,4308.4769,N,07726.5832,W,1,06,3.05,151.0,M,-34.4,M,,*54
lng=-77.443000, lat=43.141277, altitude=151.00, speed=33.85, satellites=6, angle=271.1400, fixquality=1
$GPRMC,150943.250,A,4308.4770,N,07726.5865,W,34.25,271.70,090924,,,A*45
$GPGGA,150943.500,4308.4772,N,07726.5899,W,1,06,3.05,151.0,M,-34.4,M,,*5A
lng=-77.443107, lat=43.141284, altitude=151.00, speed=34.25, satellites=6, angle=271.7000, fixquality=1
$GPRMC,150943.750,A,4308.4774,N,07726.5934,W,34.74,272.67,090924,,,A*40
$GPGGA,150944.000,4308.4777,N,07726.5967,W,1,06,3.03,151.2,M,-34.4,M,,*59
lng=-77.443222, lat=43.141292, altitude=151.00, speed=34.74, satellites=6, angle=272.6700, fixquality=1
$GPRMC,150944.250,A,4308.4778,N,07726.6002,W,35.18,273.10,090924,,,A*4B
$GPGGA,150944.500,4308.4778,N,07726.6037,W,1,06,3.05,151.1,M,-34.4,M,,*59
lng=-77.443336, lat=43.141300, altitude=151.20, speed=35.18, satellites=6, angle=273.1000, fixquality=1
$GPRMC,150944.750,A,4308.4779,N,07726.6072,W,35.51,272.82,090924,,,A*4F
$GPGGA,150945.000,4308.4779,N,07726.6107,W,1,06,3.05,151.0,M,-34.4,M,,*5F
lng=-77.443458, lat=43.141300, altitude=151.10, speed=35.51, satellites=6, angle=272.8200, fixquality=1
$GPRMC,150945.250,A,4308.4779,N,07726.6142,W,35.63,272.36,090924,,,A*47
$GPGGA,150945.500,4308.4779,N,07726.6177,W,1,06,3.05,150.8,M,-34.4,M,,*54
lng=-77.443572, lat=43.141300, altitude=151.00, speed=35.63, satellites=6, angle=272.3600, fixquality=1
$GPRMC,150945.750,A,4308.4780,N,07726.6212,W,35.63,272.05,090924,,,A*42
$GPGGA,150946.000,4308.4781,N,07726.6246,W,1,06,3.05,150.7,M,-34.4,M,,*5B
lng=-77.443687, lat=43.141300, altitude=150.80, speed=35.63, satellites=6, angle=272.0500, fixquality=1
$GPRMC,150946.250,A,4308.4783,N,07726.6281,W,35.68,272.21,090924,,,A*40
$GPGGA,150946.500,4308.4783,N,07726.6317,W,1,06,3.05,150.6,M,-34.4,M,,*58
lng=-77.443801, lat=43.141307, altitude=150.70, speed=35.68, satellites=6, angle=272.2100, fixquality=1
$GPRMC,150946.750,A,4308.4782,N,07726.6352,W,36.21,270.86,090924,,,A*4A
$GPGGA,150947.000,4308.4781,N,07726.6388,W,1,06,3.03,150.3,M,-34.4,M,,*5B
lng=-77.443923, lat=43.141300, altitude=150.60, speed=36.21, satellites=6, angle=270.8600, fixquality=1
$GPRMC,150947.250,A,4308.4781,N,07726.6424,W,36.47,269.89,090924,,,A*4C
$GPGGA,150947.500,4308.4779,N,07726.6460,W,1,06,3.05,150.1,M,-34.4,M,,*5C
lng=-77.444046, lat=43.141300, altitude=150.30, speed=36.47, satellites=6, angle=269.8900, fixquality=1
$GPRMC,150947.750,A,4308.4778,N,07726.6495,W,36.57,268.56,090924,,,A*47
$GPGGA,150948.000,4308.4778,N,07726.6531,W,1,06,3.05,150.1,M,-34.4,M,,*52
lng=-77.444160, lat=43.141300, altitude=150.10, speed=36.57, satellites=6, angle=268.5600, fixquality=1
$GPRMC,150948.250,A,4308.4777,N,07726.6566,W,36.80,268.25,090924,,,A*41
$GPGGA,150948.500,4308.4776,N,07726.6603,W,1,06,3.05,150.0,M,-34.4,M,,*5A
lng=-77.444282, lat=43.141292, altitude=150.10, speed=36.80, satellites=6, angle=268.2500, fixquality=1
$GPRMC,150948.750,A,4308.4775,N,07726.6639,W,37.29,267.28,090924,,,A*4F
$GPGGA,150949.000,4308.4773,N,07726.6675,W,1,06,3.05,149.9,M,-34.4,M,,*5B
lng=-77.444404, lat=43.141292, altitude=150.00, speed=37.29, satellites=6, angle=267.2800, fixquality=1
$GPRMC,150949.250,A,4308.4772,N,07726.6712,W,37.42,266.81,090924,,,A*4B
$GPGGA,150949.500,4308.4771,N,07726.6748,W,1,06,3.05,149.8,M,-34.4,M,,*52
lng=-77.444526, lat=43.141284, altitude=149.90, speed=37.42, satellites=6, angle=266.8100, fixquality=1
$GPRMC,150949.750,A,4308.4770,N,07726.6785,W,37.83,266.98,090924,,,A*47
$GPGGA,150950.000,4308.4769,N,07726.6821,W,1,06,3.04,149.7,M,-34.4,M,,*58
lng=-77.444648, lat=43.141284, altitude=149.80, speed=37.83, satellites=6, angle=266.9800, fixquality=1
$GPRMC,150950.250,A,4308.4768,N,07726.6857,W,37.75,267.15,090924,,,A*4E
$GPGGA,150950.500,4308.4767,N,07726.6894,W,1,06,3.06,149.7,M,-34.4,M,,*5F
lng=-77.444755, lat=43.141277, altitude=149.70, speed=37.75, satellites=6, angle=267.1500, fixquality=1
$GPRMC,150950.750,A,4308.4766,N,07726.6930,W,37.79,266.98,090924,,,A*4D
$GPGGA,150951.000,4308.4764,N,07726.6966,W,1,06,3.05,149.7,M,-34.4,M,,*57
lng=-77.444877, lat=43.141277, altitude=149.70, speed=37.79, satellites=6, angle=266.9800, fixquality=1
$GPRMC,150951.250,A,4308.4763,N,07726.7003,W,37.85,266.77,090924,,,A*46
$GPGGA,150951.500,4308.4762,N,07726.7039,W,1,06,3.05,149.8,M,-34.4,M,,*59
lng=-77.444999, lat=43.141269, altitude=149.70, speed=37.85, satellites=6, angle=266.7700, fixquality=1
$GPRMC,150951.750,A,4308.4760,N,07726.7076,W,38.19,266.58,090924,,,A*45
$GPGGA,150952.000,4308.4758,N,07726.7113,W,1,06,3.05,149.9,M,-34.4,M,,*5E
lng=-77.445121, lat=43.141269, altitude=149.80, speed=38.19, satellites=6, angle=266.5800, fixquality=1
$GPRMC,150952.250,A,4308.4755,N,07726.7150,W,38.50,265.59,090924,,,A*4F
$GPGGA,150952.500,4308.4752,N,07726.7186,W,1,06,3.06,150.1,M,-34.4,M,,*5E
lng=-77.445243, lat=43.141258, altitude=149.90, speed=38.50, satellites=6, angle=265.5900, fixquality=1
$GPRMC,150952.750,A,4308.4748,N,07726.7223,W,38.86,264.98,090924,,,A*46
$GPGGA,150953.000,4308.4746,N,07726.7261,W,1,06,3.05,150.3,M,-34.4,M,,*54
lng=-77.445365, lat=43.141242, altitude=150.10, speed=38.86, satellites=6, angle=264.9800, fixquality=1
$GPRMC,150953.250,A,4308.4742,N,07726.7298,W,38.89,264.54,090924,,,A*47
$GPGGA,150953.500,4308.4739,N,07726.7335,W,1,06,3.05,150.5,M,-34.4,M,,*5F
lng=-77.445503, lat=43.141235, altitude=150.30, speed=38.89, satellites=6, angle=264.5400, fixquality=1
$GPRMC,150953.750,A,4308.4736,N,07726.7372,W,38.86,264.68,090924,,,A*44
$GPGGA,150954.000,4308.4734,N,07726.7409,W,1,06,3.06,150.6,M,-34.4,M,,*58
lng=-77.445625, lat=43.141227, altitude=150.50, speed=38.86, satellites=6, angle=264.6800, fixquality=1
$GPRMC,150954.250,A,4308.4731,N,07726.7446,W,38.81,264.86,090924,,,A*46
$GPGGA,150954.500,4308.4729,N,07726.7483,W,1,06,3.05,150.7,M,-34.4,M,,*51
lng=-77.445747, lat=43.141220, altitude=150.60, speed=38.81, satellites=6, angle=264.8600, fixquality=1
$GPRMC,150954.750,A,4308.4727,N,07726.7520,W,38.75,265.08,090924,,,A*49
$GPGGA,150955.000,4308.4725,N,07726.7557,W,1,06,3.06,150.8,M,-34.4,M,,*5D
lng=-77.445869, lat=43.141212, altitude=150.70, speed=38.75, satellites=6, angle=265.0800, fixquality=1
$GPRMC,150955.250,A,4308.4723,N,07726.7594,W,38.72,265.19,090924,,,A*41
$GPGGA,150955.500,4308.4720,N,07726.7631,W,1,06,3.06,151.0,M,-34.4,M,,*57
lng=-77.445991, lat=43.141201, altitude=150.80, speed=38.72, satellites=6, angle=265.1900, fixquality=1
$GPRMC,150955.750,A,4308.4718,N,07726.7668,W,38.71,265.12,090924,,,A*44
$GPGGA,150956.000,4308.4716,N,07726.7706,W,1,06,3.04,151.2,M,-34.4,M,,*51
lng=-77.446113, lat=43.141193, altitude=151.00, speed=38.71, satellites=6, angle=265.1200, fixquality=1
$GPRMC,150956.250,A,4308.4714,N,07726.7743,W,38.74,264.96,090924,,,A*4E
$GPGGA,150956.500,4308.4712,N,07726.7780,W,1,06,3.06,151.2,M,-34.4,M,,*5C
lng=-77.446243, lat=43.141185, altitude=151.20, speed=38.74, satellites=6, angle=264.9600, fixquality=1
$GPRMC,150956.750,A,4308.4709,N,07726.7817,W,38.98,264.55,090924,,,A*44
$GPGGA,150957.000,4308.4707,N,07726.7854,W,1,06,3.05,151.3,M,-34.4,M,,*58
lng=-77.446365, lat=43.141178, altitude=151.20, speed=38.98, satellites=6, angle=264.5500, fixquality=1
$GPRMC,150957.250,A,4308.4705,N,07726.7892,W,39.43,264.58,090924,,,A*4B
$GPGGA,150957.500,4308.4702,N,07726.7930,W,1,06,3.06,151.2,M,-34.4,M,,*59
lng=-77.446487, lat=43.141178, altitude=151.30, speed=39.43, satellites=6, angle=264.5800, fixquality=1
$GPRMC,150957.750,A,4308.4699,N,07726.7968,W,39.77,263.96,090924,,,A*4C
$GPGGA,150958.000,4308.4698,N,07726.8006,W,1,06,3.04,151.1,M,-34.4,M,,*53
lng=-77.446617, lat=43.141162, altitude=151.20, speed=39.77, satellites=6, angle=263.9600, fixquality=1
$GPRMC,150958.250,A,4308.4696,N,07726.8045,W,40.20,264.49,090924,,,A*49
$GPGGA,150958.500,4308.4694,N,07726.8084,W,1,06,3.06,151.1,M,-34.4,M,,*52
lng=-77.446746, lat=43.141162, altitude=151.10, speed=40.20, satellites=6, angle=264.4900, fixquality=1
$GPRMC,150958.750,A,4308.4692,N,07726.8122,W,40.53,264.68,090924,,,A*4F
$GPGGA,150959.000,4308.4691,N,07726.8161,W,1,06,3.04,151.0,M,-34.4,M,,*5A
lng=-77.446868, lat=43.141155, altitude=151.10, speed=40.53, satellites=6, angle=264.6800, fixquality=1
$GPRMC,150959.250,A,4308.4689,N,07726.8200,W,40.67,264.82,090924,,,A*41
$GPGGA,150959.500,4308.4687,N,07726.8239,W,1,06,3.06,150.9,M,-34.4,M,,*5C
lng=-77.446998, lat=43.141147, altitude=151.00, speed=40.67, satellites=6, angle=264.8200, fixquality=1
$GPRMC,150959.750,A,4308.4685,N,07726.8277,W,40.59,265.03,090924,,,A*4D
$GPGGA,151000.000,4308.4684,N,07726.8316,W,1,06,3.05,150.8,M,-34.4,M,,*50
lng=-77.447128, lat=43.141136, altitude=150.90, speed=40.59, satellites=6, angle=265.0300, fixquality=1
$GPRMC,151000.250,A,4308.4683,N,07726.8354,W,40.40,265.33,090924,,,A*41
$GPGGA,151000.500,4308.4681,N,07726.8392,W,1,06,3.06,150.7,M,-34.4,M,,*50
lng=-77.447257, lat=43.141136, altitude=150.80, speed=40.40, satellites=6, angle=265.3300, fixquality=1
$GPRMC,151000.750,A,4308.4679,N,07726.8430,W,40.21,265.37,090924,,,A*47
$GPGGA,151001.000,4308.4678,N,07726.8467,W,1,06,3.05,150.6,M,-34.4,M,,*5D
lng=-77.447380, lat=43.141128, altitude=150.70, speed=40.21, satellites=6, angle=265.3700, fixquality=1
$GPRMC,151001.250,A,4308.4676,N,07726.8505,W,39.99,265.22,090924,,,A*42
$GPGGA,151001.500,4308.4674,N,07726.8542,W,1,06,3.06,150.5,M,-34.4,M,,*52
lng=-77.447509, lat=43.141128, altitude=150.60, speed=39.99, satellites=6, angle=265.2200, fixquality=1
$GPRMC,151001.750,A,4308.4672,N,07726.8580,W,39.83,265.07,090924,,,A*42
$GPGGA,151002.000,4308.4670,N,07726.8617,W,1,06,3.06,150.3,M,-34.4,M,,*55
lng=-77.447631, lat=43.141120, altitude=150.50, speed=39.83, satellites=6, angle=265.0700, fixquality=1
$GPRMC,151002.250,A,4308.4668,N,07726.8654,W,39.71,265.14,090924,,,A*4A
$GPGGA,151002.500,4308.4666,N,07726.8691,W,1,06,3.06,150.2,M,-34.4,M,,*58
lng=-77.447753, lat=43.141113, altitude=150.30, speed=39.71, satellites=6, angle=265.1400, fixquality=1
$GPRMC,151002.750,A,4308.4664,N,07726.8729,W,39.32,265.20,090924,,,A*48
$GPGGA,151003.000,4308.4662,N,07726.8766,W,1,06,3.05,150.2,M,-34.4,M,,*52
lng=-77.447883, lat=43.141105, altitude=150.20, speed=39.32, satellites=6, angle=265.2000, fixquality=1
$GPRMC,151003.250,A,4308.4660,N,07726.8803,W,39.28,265.18,090924,,,A*4F
$GPGGA,151003.500,4308.4659,N,07726.8841,W,1,06,3.06,150.1,M,-34.4,M,,*55
lng=-77.448005, lat=43.141098, altitude=150.20, speed=39.28, satellites=6, angle=265.1800, fixquality=1
$GPRMC,151003.750,A,4308.4656,N,07726.8878,W,39.08,265.09,090924,,,A*41
$GPGGA,151004.000,4308.4654,N,07726.8915,W,1,06,3.05,150.0,M,-34.4,M,,*58
lng=-77.448127, lat=43.141098, altitude=150.10, speed=39.08, satellites=6, angle=265.0900, fixquality=1
$GPRMC,151004.250,A,4308.4653,N,07726.8952,W,38.85,265.38,090924,,,A*49
$GPGGA,151004.500,4308.4651,N,07726.8988,W,1,06,3.06,149.9,M,-34.4,M,,*5E
lng=-77.448249, lat=43.141090, altitude=150.00, speed=38.85, satellites=6, angle=265.3800, fixquality=1
$GPRMC,151004.750,A,4308.4649,N,07726.9025,W,38.40,265.17,090924,,,A*4B
$GPGGA,151005.000,4308.4646,N,07726.9061,W,1,06,3.05,149.9,M,-34.4,M,,*50
lng=-77.448371, lat=43.141078, altitude=149.90, speed=38.40, satellites=6, angle=265.1700, fixquality=1
$GPRMC,151005.250,A,4308.4643,N,07726.9098,W,38.38,264.61,090924,,,A*4C
$GPGGA,151005.500,4308.4641,N,07726.9134,W,1,06,3.06,149.8,M,-34.4,M,,*51
lng=-77.448493, lat=43.141071, altitude=149.90, speed=38.38, satellites=6, angle=264.6100, fixquality=1
$GPRMC,151005.750,A,4308.4638,N,07726.9171,W,38.08,264.54,090924,,,A*46
$GPGGA,151006.000,4308.4635,N,07726.9207,W,1,06,3.05,149.7,M,-34.4,M,,*5B
lng=-77.448616, lat=43.141063, altitude=149.80, speed=38.08, satellites=6, angle=264.5400, fixquality=1
$GPRMC,151006.250,A,4308.4632,N,07726.9242,W,37.85,264.35,090924,,,A*44
$GPGGA,151006.500,4308.4629,N,07726.9278,W,1,06,3.06,149.6,M,-34.4,M,,*59
lng=-77.448738, lat=43.141056, altitude=149.70, speed=37.85, satellites=6, angle=264.3500, fixquality=1
$GPRMC,151006.750,A,4308.4626,N,07726.9314,W,37.76,264.28,090924,,,A*46
$GPGGA,151007.000,4308.4623,N,07726.9349,W,1,06,3.05,149.5,M,-34.4,M,,*54
lng=-77.448860, lat=43.141040, altitude=149.60, speed=37.76, satellites=6, angle=264.2800, fixquality=1
$GPRMC,151007.250,A,4308.4619,N,07726.9385,W,37.48,264.25,090924,,,A*46
$GPGGA,151007.500,4308.4616,N,07726.9420,W,1,06,3.06,149.3,M,-34.4,M,,*5A
lng=-77.448974, lat=43.141033, altitude=149.50, speed=37.48, satellites=6, angle=264.2500, fixquality=1
$GPRMC,151007.750,A,4308.4613,N,07726.9455,W,37.37,264.33,090924,,,A*4C
$GPGGA,151008.000,4308.4610,N,07726.9490,W,1,06,3.05,149.1,M,-34.4,M,,*5C
lng=-77.449089, lat=43.141025, altitude=149.30, speed=37.37, satellites=6, angle=264.3300, fixquality=1
$GPRMC,151008.250,A,4308.4606,N,07726.9525,W,37.36,264.14,090924,,,A*40
$GPGGA,151008.500,4308.4602,N,07726.9561,W,1,06,3.06,149.0,M,-34.4,M,,*57
lng=-77.449211, lat=43.141006, altitude=149.10, speed=37.36, satellites=6, angle=264.1400, fixquality=1
$GPRMC,151008.750,A,4308.4599,N,07726.9596,W,37.60,264.04,090924,,,A*4A
$GPGGA,151009.000,4308.4596,N,07726.9631,W,1,06,3.05,148.8,M,-34.4,M,,*51
lng=-77.449325, lat=43.140998, altitude=149.00, speed=37.60, satellites=6, angle=264.0400, fixquality=1
$GPRMC,151009.250,A,4308.4594,N,07726.9667,W,38.01,264.37,090924,,,A*46
$GPGGA,151009.500,4308.4591,N,07726.9703,W,1,06,3.07,148.7,M,-34.4,M,,*5E
lng=-77.449447, lat=43.140991, altitude=148.80, speed=38.01, satellites=6, angle=264.3700, fixquality=1
$GPRMC,151009.750,A,4308.4588,N,07726.9739,W,38.47,264.65,090924,,,A*41
$GPGGA,151010.000,4308.4585,N,07726.9776,W,1,06,3.05,148.5,M,-34.4,M,,*54
lng=-77.449569, lat=43.140983, altitude=148.70, speed=38.47, satellites=6, angle=264.6500, fixquality=1
$GPRMC,151010.250,A,4308.4582,N,07726.9812,W,38.93,264.94,090924,,,A*47
$GPGGA,151010.500,4308.4580,N,07726.9849,W,1,06,3.07,148.4,M,-34.4,M,,*54
lng=-77.449684, lat=43.140968, altitude=148.50, speed=38.93, satellites=6, angle=264.9400, fixquality=1
$GPRMC,151010.750,A,4308.4577,N,07726.9886,W,39.40,265.22,090924,,,A*46
$GPGGA,151011.000,4308.4573,N,07726.9924,W,1,06,3.05,148.2,M,-34.4,M,,*52
lng=-77.449813, lat=43.140956, altitude=148.40, speed=39.40, satellites=6, angle=265.2200, fixquality=1
$GPRMC,151011.250,A,4308.4570,N,07726.9961,W,39.64,265.13,090924,,,A*49
$GPGGA,151011.500,4308.4566,N,07726.9999,W,1,06,3.07,147.9,M,-34.4,M,,*53
lng=-77.449935, lat=43.140949, altitude=148.20, speed=39.64, satellites=6, angle=265.1300, fixquality=1
$GPRMC,151011.750,A,4308.4563,N,07727.0036,W,39.90,265.51,090924,,,A*40
$GPGGA,151012.000,4308.4560,N,07727.0074,W,1,06,3.05,147.7,M,-34.4,M,,*5D
lng=-77.450057, lat=43.140933, altitude=147.90, speed=39.90, satellites=6, angle=265.5100, fixquality=1
$GPRMC,151012.250,A,4308.4557,N,07727.0113,W,40.09,265.77,090924,,,A*4D
$GPGGA,151012.500,4308.4554,N,07727.0151,W,1,06,3.07,147.5,M,-34.4,M,,*59
lng=-77.450187, lat=43.140926, altitude=147.70, speed=40.09, satellites=6, angle=265.7700, fixquality=1
$GPRMC,151012.750,A,4308.4552,N,07727.0190,W,41.18,266.13,090924,,,A*46
$GPGGA,151013.000,4308.4549,N,07727.0228,W,1,06,3.05,147.3,M,-34.4,M,,*58
lng=-77.450317, lat=43.140918, altitude=147.50, speed=41.18, satellites=6, angle=266.1300, fixquality=1
$GPRMC,151013.250,A,4308.4546,N,07727.0267,W,41.17,266.30,090924,,,A*42
$GPGGA,151013.500,4308.4544,N,07727.0305,W,1,06,3.07,147.1,M,-34.4,M,,*5E
lng=-77.450447, lat=43.140911, altitude=147.30, speed=41.17, satellites=6, angle=266.3000, fixquality=1
$GPRMC,151013.750,A,4308.4542,N,07727.0344,W,41.20,266.71,090924,,,A*42
$GPGGA,151014.000,4308.4540,N,07727.0383,W,1,06,3.07,147.0,M,-34.4,M,,*57
lng=-77.450569, lat=43.140903, altitude=147.10, speed=41.20, satellites=6, angle=266.7100, fixquality=1
$GPRMC,151014.250,A,4308.4538,N,07727.0422,W,41.49,267.27,090924,,,A*47
$GPGGA,151014.500,4308.4537,N,07727.0461,W,1,06,3.07,146.8,M,-34.4,M,,*50
lng=-77.450698, lat=43.140892, altitude=147.00, speed=41.49, satellites=6, angle=267.2700, fixquality=1
$GPRMC,151014.750,A,4308.4537,N,07727.0501,W,41.52,268.37,090924,,,A*49
$GPGGA,151015.000,4308.4536,N,07727.0540,W,1,06,3.06,146.6,M,-34.4,M,,*58
lng=-77.450836, lat=43.140892, altitude=146.80, speed=41.52, satellites=6, angle=268.3700, fixquality=1
$GPRMC,151015.250,A,4308.4535,N,07727.0580,W,41.65,268.86,090924,,,A*48
$GPGGA,151015.500,4308.4533,N,07727.0620,W,1,06,3.07,146.5,M,-34.4,M,,*5F
lng=-77.450965, lat=43.140892, altitude=146.60, speed=41.65, satellites=6, angle=268.8600, fixquality=1
$GPRMC,151015.750,A,4308.4532,N,07727.0660,W,41.75,269.32,090924,,,A*48
$GPGGA,151016.000,4308.4532,N,07727.0701,W,1,06,3.06,146.4,M,-34.4,M,,*5A
lng=-77.451095, lat=43.140884, altitude=146.50, speed=41.75, satellites=6, angle=269.3200, fixquality=1
$GPRMC,151016.250,A,4308.4532,N,07727.0741,W,42.40,270.24,090924,,,A*46
