Vers 72
USE_SERIAL_FEEDBACK=true
DEVELOPMENT_MODE=false
USE_RMC_ONLY=false

$GPRMC,232455.750,A,4305.1621,N,07740.8764,W,0.21,58.65,090924,,,A*4D
$GPGGA,232456.000,4305.1627,N,07740.8766,W,1,04,2.00,184.1,M,-34.4,M,,*55
lng=-77.681274, lat=43.086036, altitude=184.40, speed=0.21, satellites=3, angle=58.6500, fixquality=1
$GPRMC,232456.250,A,4305.1633,N,07740.8768,W,0.30,33.13,090924,,,A*48
$GPGGA,232456.500,4305.1637,N,07740.8769,W,1,04,2.00,184.0,M,-34.4,M,,*5F
lng=-77.681282, lat=43.086051, altitude=184.10, speed=0.30, satellites=4, angle=33.1300, fixquality=1
$GPGGA,232457.250,4305.1645,N,07740.8772,W,1,04,2.00,184.0,M,-34.4,M,,*53
$GPRMC,232457.250,A,4305.1645,N,07740.8772,W,0.20,31.69,090924,,,A*4D
lng=-77.681282, lat=43.086074, altitude=184.00, speed=0.24, satellites=4, angle=33.3400, fixquality=1
$GPGGA,232457.500,4305.1647,N,07740.8774,W,1,04,2.00,183.9,M,-34.4,M,,*5B
$GPRMC,232457.500,A,4305.1647,N,07740.8774,W,0.18,22.06,090924,,,A*4B
lng=-77.681289, lat=43.086074, altitude=183.90, speed=0.20, satellites=4, angle=31.6900, fixquality=1
$GPGGA,232501.500,4305.1649,N,07740.8762,W,1,04,2.00,183.7,M,-34.4,M,,*5E
$GPRMC,232501.500,A,4305.1649,N,07740.8762,W,0.23,119.66,090924,,,A*77
lng=-77.681266, lat=43.086082, altitude=183.70, speed=0.24, satellites=4, angle=110.1800, fixquality=1
$GPGGA,232501.750,4305.1649,N,07740.8761,W,1,04,2.00,183.7,M,-34.4,M,,*5A
$GPRMC,232501.750,A,4305.1649,N,07740.8761,W,0.26,121.51,090924,,,A*79
lng=-77.681266, lat=43.086082, altitude=183.70, speed=0.23, satellites=4, angle=119.6600, fixquality=1
$GPGGA,232506.750,4305.1660,N,07740.8774,W,1,04,2.00,183.5,M,-34.4,M,,*50
$GPRMC,232506.750,A,4305.1660,N,07740.8774,W,1.79,286.50,090924,,,A*75
lng=-77.681289, lat=43.086101, altitude=183.50, speed=1.50, satellites=4, angle=289.2400, fixquality=1
$GPGGA,232507.000,4305.1660,N,07740.8779,W,1,04,2.00,183.5,M,-34.4,M,,*5E
$GPRMC,232507.000,A,4305.1660,N,07740.8779,W,2.06,284.04,090924,,,A*73
lng=-77.681297, lat=43.086101, altitude=183.50, speed=1.79, satellites=4, angle=286.5000, fixquality=1
$GPRMC,232507.500,A,4305.1661,N,07740.8789,W,3.51,281.02,090924,,,A*78
$GPGGA,232507.750,4305.1661,N,07740.8797,W,1,04,2.00,183.4,M,-34.4,M,,*5C
lng=-77.681312, lat=43.086101, altitude=183.40, speed=3.51, satellites=4, angle=281.0200, fixquality=1
$GPRMC,232508.000,A,4305.1662,N,07740.8803,W,5.61,280.65,090924,,,A*79
$GPGGA,232508.250,4305.1663,N,07740.8809,W,1,04,28.33,183.4,M,-34.4,M,,*64
lng=-77.681343, lat=43.086101, altitude=183.40, speed=5.61, satellites=4, angle=280.6500, fixquality=1
$GPRMC,232508.500,A,4305.1664,N,07740.8816,W,6.79,277.61,090924,,,A*78
$GPGGA,232508.750,4305.1663,N,07740.8824,W,1,04,28.42,183.4,M,-34.4,M,,*68
lng=-77.681365, lat=43.086109, altitude=183.40, speed=6.79, satellites=4, angle=277.6100, fixquality=1
$GPRMC,232509.000,A,4305.1663,N,07740.8832,W,7.74,273.99,090924,,,A*72
$GPGGA,232509.250,4305.1663,N,07740.8840,W,1,04,28.50,183.3,M,-34.4,M,,*6A
lng=-77.681388, lat=43.086109, altitude=183.40, speed=7.74, satellites=4, angle=273.9900, fixquality=1
$GPRMC,232509.500,A,4305.1664,N,07740.8848,W,8.30,275.23,090924,,,A*75
$GPGGA,232509.750,4305.1665,N,07740.8857,W,1,04,28.58,183.3,M,-34.4,M,,*67
lng=-77.681411, lat=43.086109, altitude=183.30, speed=8.30, satellites=4, angle=275.2300, fixquality=1
$GPRMC,232510.000,A,4305.1666,N,07740.8866,W,8.99,276.75,090924,,,A*75
$GPGGA,232510.250,4305.1668,N,07740.8874,W,1,04,2.00,183.3,M,-34.4,M,,*53
lng=-77.681442, lat=43.086109, altitude=183.30, speed=8.99, satellites=4, angle=276.7500, fixquality=1
$GPRMC,232510.500,A,4305.1670,N,07740.8881,W,8.57,279.76,090924,,,A*70
$GPGGA,232510.750,4305.1673,N,07740.8886,W,1,04,28.76,183.2,M,-34.4,M,,*69
lng=-77.681472, lat=43.086116, altitude=183.30, speed=8.57, satellites=4, angle=279.7600, fixquality=1
$GPRMC,232511.000,A,4305.1677,N,07740.8894,W,8.43,289.95,090924,,,A*70
$GPGGA,232511.250,4305.1681,N,07740.8900,W,1,04,2.00,183.2,M,-34.4,M,,*56
lng=-77.681488, lat=43.086124, altitude=183.20, speed=8.43, satellites=4, angle=289.9500, fixquality=1
$GPRMC,232511.500,A,4305.1684,N,07740.8907,W,8.35,297.77,090924,,,A*70
$GPGGA,232511.750,4305.1688,N,07740.8913,W,1,04,28.94,183.2,M,-34.4,M,,*6D
lng=-77.681510, lat=43.086139, altitude=183.20, speed=8.35, satellites=4, angle=297.7700, fixquality=1
$GPRMC,232512.000,A,4305.1693,N,07740.8919,W,8.20,305.85,090924,,,A*7C
$GPGGA,232512.250,4305.1696,N,07740.8924,W,1,04,2.00,183.2,M,-34.4,M,,*55
lng=-77.681533, lat=43.086158, altitude=183.20, speed=8.20, satellites=4, angle=305.8500, fixquality=1
$GPRMC,232512.500,A,4305.1701,N,07740.8929,W,7.80,311.74,090924,,,A*7E
$GPGGA,232512.750,4305.1705,N,07740.8930,W,1,04,29.10,183.2,M,-34.4,M,,*66
lng=-77.681549, lat=43.086166, altitude=183.20, speed=7.80, satellites=4, angle=311.7400, fixquality=1
$GPRMC,232513.000,A,4305.1709,N,07740.8934,W,6.89,320.38,090924,,,A*7C
$GPGGA,232513.250,4305.1714,N,07740.8937,W,1,04,2.00,183.1,M,-34.4,M,,*5E
lng=-77.681556, lat=43.086181, altitude=183.20, speed=6.89, satellites=4, angle=320.3800, fixquality=1
$GPRMC,232513.500,A,4305.1722,N,07740.8938,W,7.53,336.05,090924,,,A*73
$GPGGA,232513.750,4305.1731,N,07740.8936,W,1,04,29.28,183.1,M,-34.4,M,,*6E
lng=-77.681556, lat=43.086204, altitude=183.10, speed=7.53, satellites=4, angle=336.0500, fixquality=1
$GPRMC,232514.000,A,4305.1737,N,07740.8937,W,8.89,348.55,090924,,,A*7E
$GPGGA,232514.250,4305.1744,N,07740.8939,W,1,04,29.37,183.1,M,-34.4,M,,*6F
lng=-77.681556, lat=43.086231, altitude=183.10, speed=8.89, satellites=4, angle=348.5500, fixquality=1
$GPRMC,232514.500,A,4305.1751,N,07740.8940,W,9.31,350.18,090924,,,A*79
$GPGGA,232514.750,4305.1759,N,07740.8938,W,1,04,29.46,183.1,M,-34.4,M,,*61
lng=-77.681564, lat=43.086254, altitude=183.10, speed=9.31, satellites=4, angle=350.1800, fixquality=1
$GPRMC,232515.000,A,4305.1767,N,07740.8937,W,10.18,358.64,090924,,,A*48
$GPGGA,232515.250,4305.1775,N,07740.8936,W,1,04,29.55,183.0,M,-34.4,M,,*66
lng=-77.681556, lat=43.086280, altitude=183.10, speed=10.18, satellites=4, angle=358.6400, fixquality=1
$GPRMC,232515.500,A,4305.1783,N,07740.8935,W,10.66,0.45,090924,,,A*41
$GPGGA,232515.750,4305.1793,N,07740.8934,W,1,04,29.63,183.0,M,-34.4,M,,*6C
lng=-77.681556, lat=43.086303, altitude=183.00, speed=10.66, satellites=4, angle=0.4500, fixquality=1
$GPRMC,232516.000,A,4305.1803,N,07740.8934,W,11.95,0.92,090924,,,A*46
$GPGGA,232516.250,4305.1815,N,07740.8933,W,1,04,29.72,183.0,M,-34.4,M,,*6C
lng=-77.681556, lat=43.086338, altitude=183.00, speed=11.95, satellites=4, angle=0.9200, fixquality=1
$GPRMC,232516.500,A,4305.1827,N,07740.8932,W,13.66,0.18,090924,,,A*4F
$GPGGA,232516.750,4305.1839,N,07740.8931,W,1,04,29.81,183.0,M,-34.4,M,,*69
lng=-77.681549, lat=43.086376, altitude=183.00, speed=13.66, satellites=4, angle=0.1800, fixquality=1
$GPRMC,232517.000,A,4305.1851,N,07740.8931,W,14.88,0.16,090924,,,A*40
$GPGGA,232517.250,4305.1863,N,07740.8931,W,1,04,29.89,183.0,M,-34.4,M,,*6A
lng=-77.681549, lat=43.086418, altitude=183.00, speed=14.88, satellites=4, angle=0.1600, fixquality=1
$GPRMC,232517.500,A,4305.1875,N,07740.8932,W,15.71,359.15,090924,,,A*4B
$GPGGA,232517.750,4305.1889,N,07740.8931,W,1,04,29.98,182.9,M,-34.4,M,,*63
lng=-77.681549, lat=43.086460, altitude=183.00, speed=15.71, satellites=4, angle=359.1500, fixquality=1
$GPRMC,232518.000,A,4305.1903,N,07740.8931,W,17.14,359.09,090924,,,A*4E
$GPGGA,232518.250,4305.1917,N,07740.8931,W,1,04,30.07,182.9,M,-34.4,M,,*61
lng=-77.681549, lat=43.086505, altitude=182.90, speed=17.14, satellites=4, angle=359.0900, fixquality=1
$GPRMC,232518.500,A,4305.1931,N,07740.8931,W,18.11,359.01,090924,,,A*48
$GPGGA,232518.750,4305.1945,N,07740.8931,W,1,04,30.16,182.9,M,-34.4,M,,*63
lng=-77.681549, lat=43.086547, altitude=182.90, speed=18.11, satellites=4, angle=359.0100, fixquality=1
$GPRMC,232519.000,A,4305.1959,N,07740.8931,W,18.94,358.90,090924,,,A*46
$GPGGA,232519.250,4305.1973,N,07740.8931,W,1,04,30.25,182.8,M,-34.4,M,,*63
lng=-77.681549, lat=43.086597, altitude=182.90, speed=18.94, satellites=4, angle=358.9000, fixquality=1
$GPRMC,232519.500,A,4305.1987,N,07740.8932,W,19.31,358.69,090924,,,A*4B
$GPGGA,232519.750,,,,,0,04,,,M,,M,,*70
lng=-77.681549, lat=43.086647, altitude=182.80, speed=19.31, satellites=4, angle=358.6900, fixquality=1
$GPRMC,232519.750,V,,,,,19.59,358.67,090924,,,N*7C
$GPGGA,232520.000,,,,,0,04,,,M,,M,,*78
lng=-77.681549, lat=43.086647, altitude=182.80, speed=19.59, satellites=4, angle=358.6700, fixquality=0
$GPGGA,232522.750,4305.2169,N,07740.8935,W,1,04,30.88,182.7,M,-34.4,M,,*62
$GPRMC,232522.750,A,4305.2169,N,07740.8935,W,19.40,357.19,090924,,,A*46
lng=-77.681556, lat=43.086948, altitude=182.70, speed=19.62, satellites=4, angle=357.3600, fixquality=1
$GPGGA,232523.000,4305.2182,N,07740.8936,W,1,04,30.92,182.7,M,-34.4,M,,*6C
$GPRMC,232523.000,A,4305.2182,N,07740.8936,W,19.34,356.39,09092$GPGGA,232523.250,4305.2196,N,07740.8937,W,1,04,30.97,182.7,M,-34.4,M,,*6A
lng=-77.681556, lat=43.086971, altitude=182.70, speed=19.40, satellites=4, angle=357.1900, fixquality=1
$GPRMC,232523.500,A,4305.2209,N,07740.8939,W,19.35,355.11,090924,,,A*41
$GPGGA,232523.750,4305.2223,N,07740.8940,W,1,04,31.06,182.7,M,-34.4,M,,*6B
lng=-77.681564, lat=43.087013, altitude=182.70, speed=19.35, satellites=4, angle=355.1100, fixquality=1
$GPRMC,232524.000,A,4305.2237,N,07740.8942,W,19.38,353.85,090924,,,A*44
$GPGGA,232524.250,4305.2250,N,07740.8943,W,1,04,31.15,182.7,M,-34.4,M,,*6C
lng=-77.681564, lat=43.087059, altitude=182.70, speed=19.38, satellites=4, angle=353.8500, fixquality=1
$GPRMC,232524.500,A,4305.2264,N,07740.8946,W,19.36,352.69,090924,,,A*4E
$GPGGA,232524.750,4305.2277,N,07740.8948,W,1,04,31.24,182.6,M,-34.4,M,,*64
lng=-77.681571, lat=43.087108, altitude=182.70, speed=19.36, satellites=4, angle=352.6900, fixquality=1
$GPRMC,232525.000,A,4305.2290,N,07740.8951,W,19.29,351.44,090924,,,A*45
$GPGGA,232525.250,4305.2303,N,07740.8953,W,1,04,31.33,182.6,M,-34.4,M,,*6E
lng=-77.681587, lat=43.087150, altitude=182.60, speed=19.29, satellites=4, angle=351.4400, fixquality=1
$GPRMC,232525.500,A,4305.2315,N,07740.8956,W,18.59,350.50,090924,,,A*49
$GPGGA,232525.750,4305.2326,N,07740.8958,W,1,04,31.42,182.6,M,-34.4,M,,*61
lng=-77.681594, lat=43.087192, altitude=182.60, speed=18.59, satellites=4, angle=350.5000, fixquality=1
$GPRMC,232526.000,A,4305.2337,N,07740.8960,W,17.36,350.25,090924,,,A*4E
$GPGGA,232526.250,4305.2347,N,07740.8962,W,1,04,31.51,182.6,M,-34.4,M,,*6B
lng=-77.681602, lat=43.087230, altitude=182.60, speed=17.36, satellites=4, angle=350.2500, fixquality=1
$GPRMC,232526.500,A,4305.2356,N,07740.8963,W,15.67,350.84,090924,,,A*42
$GPGGA,232526.750,4305.2363,N,07740.8964,W,1,04,31.60,182.6,M,-34.4,M,,*6C
lng=-77.681610, lat=43.087265, altitude=182.60, speed=15.67, satellites=4, angle=350.8400, fixquality=1
$GPRMC,232527.000,A,4305.2370,N,07740.8965,W,12.76,351.67,090924,,,A*4F
$GPGGA,232527.250,4305.2378,N,07740.8965,W,1,04,31.69,182.6,M,-34.4,M,,*6A
lng=-77.681610, lat=43.087280, altitude=182.60, speed=12.76, satellites=4, angle=351.6700, fixquality=1
$GPRMC,232527.500,A,4305.2385,N,07740.8964,W,11.21,355.72,090924,,,A*40
$GPGGA,232527.750,4305.2392,N,07740.8964,W,1,04,31.79,182.6,M,-34.4,M,,*6B
lng=-77.681610, lat=43.087303, altitude=182.60, speed=11.21, satellites=4, angle=355.7200, fixquality=1
$GPRMC,232528.000,A,4305.2399,N,07740.8964,W,10.27,356.62,090924,,,A*42
$GPGGA,232528.250,4305.2405,N,07740.8965,W,1,04,31.87,182.6,M,-34.4,M,,*68
lng=-77.681610, lat=43.087329, altitude=182.60, speed=10.27, satellites=4, angle=356.6200, fixquality=1
$GPRMC,232528.500,A,4305.2410,N,07740.8965,W,9.24,358.04,090924,,,A*75
$GPGGA,232528.750,4305.2414,N,07740.8965,W,1,04,31.96,182.6,M,-34.4,M,,*6D
lng=-77.681610, lat=43.087352, altitude=182.60, speed=9.24, satellites=4, angle=358.0400, fixquality=1
$GPRMC,232529.000,A,4305.2419,N,07740.8966,W,8.12,358.84,090924,,,A*77
$GPGGA,232529.250,4305.2424,N,07740.8966,W,1,04,32.06,182.5,M,-34.4,M,,*60
lng=-77.681610, lat=43.087360, altitude=182.60, speed=8.12, satellites=4, angle=358.8400, fixquality=1
$GPRMC,232529.500,A,4305.2428,N,07740.8967,W,7.48,358.14,090924,,,A*78
$GPGGA,232529.750,4305.2432,N,07740.8968,W,1,04,32.14,182.5,M,-34.4,M,,*6F
lng=-77.681610, lat=43.087379, altitude=182.50, speed=7.48, satellites=4, angle=358.1400, fixquality=1
$GPRMC,232530.000,A,4305.2436,N,07740.8969,W,6.85,359.33,090924,,,A*70
$GPGGA,232530.250,4305.2439,N,07740.8969,W,1,04,32.24,182.5,M,-34.4,M,,*6B
lng=-77.681617, lat=43.087394, altitude=182.50, speed=6.85, satellites=4, angle=359.3300, fixquality=1
$GPRMC,232530.500,A,4305.2443,N,07740.8969,W,6.59,1.66,090924,,,A*78
$GPGGA,232530.750,4305.2447,N,07740.8969,W,1,04,32.32,182.4,M,-34.4,M,,*61
lng=-77.681617, lat=43.087402, altitude=182.50, speed=6.59, satellites=4, angle=1.6600, fixquality=1
$GPRMC,232531.000,A,4305.2450,N,07740.8968,W,6.32,7.18,090924,,,A*7D
$GPGGA,232531.250,4305.2453,N,07740.8965,W,1,04,32.42,182.4,M,-34.4,M,,*6B
lng=-77.681617, lat=43.087417, altitude=182.40, speed=6.32, satellites=4, angle=7.1800, fixquality=1
$GPRMC,232531.500,A,4305.2456,N,07740.8963,W,6.05,16.13,090924,,,A*4A
$GPGGA,232531.750,4305.2461,N,07740.8960,W,1,04,2.00,182.4,M,-34.4,M,,*5F
lng=-77.681610, lat=43.087425, altitude=182.40, speed=6.05, satellites=4, angle=16.1300, fixquality=1
$GPRMC,232532.000,A,4305.2465,N,07740.8956,W,6.39,22.93,090924,,,A*4A
$GPGGA,232532.250,4305.2467,N,07740.8950,W,1,04,2.00,182.4,M,-34.4,M,,*5C
lng=-77.681594, lat=43.087444, altitude=182.40, speed=6.39, satellites=4, angle=22.9300, fixquality=1
$GPRMC,232532.500,A,4305.2471,N,07740.8942,W,7.26,37.74,090924,,,A*4D
$GPGGA,232532.750,4305.2476,N,07740.8935,W,1,04,2.00,182.5,M,-34.4,M,,*5B
lng=-77.681564, lat=43.087451, altitude=182.40, speed=7.26, satellites=4, angle=37.7400, fixquality=1
$GPRMC,232533.000,A,4305.2480,N,07740.8928,W,8.14,42.10,090924,,,A*45
$GPGGA,232533.250,4305.2485,N,07740.8920,W,1,04,2.00,182.5,M,-34.4,M,,*57
lng=-77.681541, lat=43.087467, altitude=182.50, speed=8.14, satellites=4, angle=42.1000, fixquality=1
$GPRMC,232533.500,A,4305.2489,N,07740.8913,W,8.94,47.17,090924,,,A*4B
$GPGGA,232533.750,4305.2492,N,07740.8905,W,1,04,2.00,182.4,M,-34.4,M,,*52
lng=-77.681518, lat=43.087482, altitude=182.50, speed=8.94, satellites=4, angle=47.1700, fixquality=1
$GPRMC,232534.000,A,4305.2495,N,07740.8898,W,9.15,50.97,090924,,,A*40
$GPGGA,232534.250,4305.2499,N,07740.8890,W,1,04,2.00,182.4,M,-34.4,M,,*56
lng=-77.681495, lat=43.087490, altitude=182.40, speed=9.15, satellites=4, angle=50.9700, fixquality=1
$GPRMC,232534.500,A,4305.2503,N,07740.8882,W,9.43,52.23,090924,,,A*4E
$GPGGA,232534.750,4305.2506,N,07740.8873,W,1,04,2.00,182.4,M,-34.4,M,,*59
lng=-77.681472, lat=43.087509, altitude=182.40, speed=9.43, satellites=4, angle=52.2300, fixquality=1
$GPRMC,232535.000,A,4305.2510,N,07740.8865,W,9.71,54.38,090924,,,A*4C
$GPGGA,232535.250,4305.2513,N,07740.8856,W,1,04,2.00,182.4,M,-34.4,M,,*5E
lng=-77.681442, lat=43.087516, altitude=182.40, speed=9.71, satellites=4, angle=54.3800, fixquality=1
$GPRMC,232535.500,A,4305.2515,N,07740.8846,W,10.00,57.54,090924,,,A*7A
$GPGGA,232535.750,4305.2517,N,07740.8835,W,1,04,2.00,182.4,M,-34.4,M,,*5A
lng=-77.681411, lat=43.087524, altitude=182.40, speed=10.00, satellites=4, angle=57.5400, fixquality=1
$GPRMC,232536.000,A,4305.2517,N,07740.8822,W,10.67,64.54,090924,,,A*7D
$GPGGA,232536.250,4305.2516,N,07740.8809,W,1,04,2.00,182.4,M,-34.4,M,,*52
lng=-77.681373, lat=43.087524, altitude=182.40, speed=10.67, satellites=4, angle=64.5400, fixquality=1
$GPRMC,232536.500,A,4305.2517,N,07740.8796,W,11.48,70.25,090924,,,A*77
$GPGGA,232536.750,4305.2519,N,07740.8781,W,1,04,2.00,182.4,M,-34.4,M,,*57
lng=-77.681320, lat=43.087524, altitude=182.40, speed=11.48, satellites=4, angle=70.2500, fixquality=1
$GPRMC,232537.000,A,4305.2521,N,07740.8767,W,12.58,71.98,090924,,,A*7D
$GPGGA,232537.250,4305.2523,N,07740.8754,W,1,04,2.00,182.4,M,-34.4,M,,*52
lng=-77.681274, lat=43.087532, altitude=182.40, speed=12.58, satellites=4, angle=71.9800, fixquality=1
$GPRMC,232537.500,A,4305.2526,N,07740.8740,W,13.17,71.41,090924,,,A*74
$GPGGA,232537.750,4305.2529,N,07740.8724,W,1,04,2.00,182.4,M,-34.4,M,,*5A
lng=-77.681236, lat=43.087539, altitude=182.40, speed=13.17, satellites=4, angle=71.4100, fixquality=1
$GPRMC,232538.000,A,4305.2532,N,07740.8708,W,14.38,70.84,090924,,,A*75
$GPGGA,232538.250,4305.2535,N,07740.8690,W,1,04,2.00,182.4,M,-34.4,M,,*53
lng=-77.681175, lat=43.087558, altitude=182.40, speed=14.38, satellites=4, angle=70.8400, fixquality=1
$GPRMC,232538.500,A,4305.2539,N,07740.8673,W,15.53,71.06,090924,,,A*71
$GPGGA,232538.750,4305.2541,N,07740.8653,W,1,04,2.00,182.4,M,-34.4,M,,*5A
lng=-77.681121, lat=43.087566, altitude=182.40, speed=15.53, satellites=4, angle=71.0600, fixquality=1
$GPRMC,232539.000,A,4305.2542,N,07740.8633,W,16.81,73.10,090924,,,A*74
$GPGGA,232539.250,4305.2541,N,07740.8609,W,1,04,2.00,182.4,M,-34.4,M,,*51
lng=-77.681053, lat=43.087574, altitude=182.40, speed=16.81, satellites=4, angle=73.1000, fixquality=1
$GPRMC,232539.500,A,4305.2541,N,07740.8589,W,18.02,77.21,090924,,,A*73
$GPGGA,232539.750,4305.2541,N,07740.8569,W,1,04,2.00,182.4,M,-34.4,M,,*51
lng=-77.680984, lat=43.087566, altitude=182.40, speed=18.02, satellites=4, angle=77.2100, fixquality=1
$GPRMC,232540.000,A,4305.2543,N,07740.8547,W,18.90,78.49,090924,,,A*72
$GPGGA,232540.250,4305.2545,N,07740.8526,W,1,04,2.00,182.4,M,-34.4,M,,*55
lng=-77.680908, lat=43.087574, altitude=182.40, speed=18.90, satellites=4, angle=78.4900, fixquality=1
$GPRMC,232540.500,V,,,,,19.58,79.05,090924,,,N*42
$GPGGA,232540.750,,,,,0,04,,,M,,M,,*7C
lng=-77.680877, lat=43.087574, altitude=182.40, speed=19.58, satellites=4, angle=79.0500, fixquality=1
$GPRMC,232540.750,V,,,,,19.86,79.14,090924,,,N*46
$GPGGA,232541.000,,,,,0,04,,,M,,M,,*7F
lng=-77.680877, lat=43.087574, altitude=182.40, speed=19.86, satellites=4, angle=79.1400, fixquality=0
$GPGGA,232550.000,4305.2559,N,07740.7697,W,1,04,2.00,182.6,M,-34.4,M,,*5A
$GPRMC,232550.000,A,4305.2559,N,07740.7697,W,19.31,89.62,090924,,,A*74
lng=-77.679489, lat=43.087596, altitude=182.60, speed=19.72, satellites=4, angle=89.4800, fixquality=1
$GPGGA,232550.250,4305.2558,N,07740.7678,W,1,04,2.00,182.6,M,-34.4,M,,*5D
$GPRMC,232550.250,A,4305.2558,N,07740.7678,W,19.29,89.76,090924,,,A*7F
lng=-77.679458, lat=43.087596, altitude=182.60, speed=19.31, satellites=4, angle=89.6200, fixquality=1
$GPGGA,232550.500,4305.2557,N,07740.7659,W,1,04,2.00,182.6,M,-34.4,M,,*53
$GPRMC,232550.500,A,4305.2557,N,07740.7659,W,19.24,89.79,090924,,,A*73
lng=-77.679435, lat=43.087596, altitude=182.60, speed=19.29, satellites=4, angle=89.7600, fixquality=1
$GPGGA,232550.750,4305.2556,N,07740.7641,W,1,04,2.00,182.6,M,-34.4,M,,*5C
$GPRMC,232550.750,A,4305.2556,N,07740.7641,W,19.04,89.88,090924,,,A*70
lng=-77.679405, lat=43.087589, altitude=182.60, speed=19.24, satellites=4, angle=89.7900, fixquality=1
$GPGGA,232551.000,4305.2554,N,07740.7623,W,1,04,2.00,182.6,M,-34.4,M,,*59
$GPRMC,232551.000,A,4305.2554,N,07740.7623,W,18.99,90.12,090924,,,A*7B
lng=-77.679367, lat=43.087589, altitude=182.60, speed=19.04, satellites=4, angle=89.8800, fixquality=1
$GPGGA,232551.250,4305.2552,N,07740.7605,W,1,04,2.00,182.6,M,-34.4,M,,*5C
$GPRMC,232551.250,A,4305.2552,N,07740.7605,W,18.96,90.37,090924,,,A*76
lng=-77.679344, lat=43.087589, altitude=182.60, speed=18.99, satellites=4, angle=90.1200, fixquality=1
$GPGGA,232551.500,4305.2550,N,07740.7586,W,1,04,2.00,182.6,M,-34.4,M,,*54
$GPRMC,232551.500,A,4305.2550,N,07740.7586,W,18.94,90.66,090924,,,A*78
lng=-77.679313, lat=43.087581, altitude=182.60, speed=18.96, satellites=4, angle=90.3700, fixquality=1
$GPGGA,232551.750,4305.2548,N,07740.7568,W,1,04,2.00,182.6,M,-34.4,M,,*5A
$GPRMC,232551.750,A,4305.2548,N,07740.7568,W,18.91,90.97,090924,,,A*7D
lng=-77.679283, lat=43.087581, altitude=182.60, speed=18.94, satellites=4, angle=90.6600, fixquality=1
$GPGGA,232552.000,4305.2545,N,07740.7550,W,1,04,2.00,182.6,M,-34.4,M,,*5D
$GPRMC,232552.000,A,4305.2545,N,07740.7550,W,18.85,91.35,090924,,,A*76
lng=-77.679244, lat=43.087574, altitude=182.60, speed=18.91, satellites=4, angle=90.9700, fixquality=1
$GPGGA,232552.250,4305.2543,N,07740.7531,W,1,04,2.00,182.6,M,-34.4,M,,*5B
$GPRMC,232552.250,A,4305.2543,N,07740.7531,W,18.82,91.54,090924,,,A*70
lng=-77.679214, lat=43.087574, altitude=182.60, speed=18.85, satellites=4, angle=91.3500, fixquality=1
$GPGGA,232552.500,4305.2542,N,07740.7512,W,1,04,2.00,182.6,M,-34.4,M,,*59
$GPRMC,232552.500,A,4305.2542,N,07740.7512,W,18.79,91.38,090924,,,A*7C
lng=-77.679183, lat=43.087574, altitude=182.60, speed=18.82, satellites=4, angle=91.5400, fixquality=1
$GPGGA,232552.750,4305.2541,N,07740.7493,W,1,04,2.00,182.6,M,-34.4,M,,*55
$GPRMC,232552.750,A,4305.2541,N,07740.7493,W,18.79,91.15,090924,,,A*7F
lng=-77.679161, lat=43.087566, altitude=182.60, speed=18.79, satellites=4, angle=91.3800, fixquality=1
$GPGGA,232553.000,4305.2540,N,07740.7474,W,1,04,2.00,182.7,M,-34.4,M,,*5F
$GPRMC,232553.000,A,4305.2540,N,07740.7474,W,18.80,91.16,090924,,,A*71
lng=-77.679122, lat=43.087566, altitude=182.70, speed=18.79, satellites=4, angle=91.1500, fixquality=1
$GPGGA,232553.250,4305.2538,N,07740.7456,W,1,04,2.00,182.7,M,-34.4,M,,*57
$GPRMC,232553.250,A,4305.2538,N,07740.7456,W,18.83,91.31,090924,,,A*7F
lng=-77.679092, lat=43.087566, altitude=182.70, speed=18.80, satellites=4, angle=91.1600, fixquality=1
$GPGGA,232553.500,4305.2536,N,07740.7437,W,1,04,2.00,182.7,M,-34.4,M,,*5C
$GPRMC,232553.500,A,4305.2536,N,07740.7437,W,18.83,91.70,090924,,,A*71
lng=-77.679061, lat=43.087558, altitude=182.70, speed=18.83, satellites=4, angle=91.3100, fixquality=1
$GPGGA,232553.750,4305.2534,N,07740.7418,W,1,04,2.00,182.7,M,-34.4,M,,*54
$GPRMC,232553.750,A,4305.2534,N,07740.7418,W,18.84,91.81,090924,,,A*70
lng=-77.679031, lat=43.087558, altitude=182.70, speed=18.83, satellites=4, angle=91.7000, fixquality=1
$GPGGA,232554.000,4305.2533,N,07740.7400,W,1,04,2.00,182.7,M,-34.4,M,,*5F
$GPRMC,232554.000,A,4305.2533,N,07740.7400,W,18.82,91.71,090924,,,A*72
lng=-77.679000, lat=43.087558, altitude=182.70, speed=18.84, satellites=4, angle=91.8100, fixquality=1
$GPGGA,232554.250,4305.2415,N,07740.6855,W,1,05,1.71,38.1,M,-34.4,M,,*62
$GPRMC,232554.250,A,4305.2415,N,07740.6855,W,21.39,90.66,090924,,,A*70
lng=-77.678092, lat=43.087360, altitude=38.10, speed=18.82, satellites=5, angle=91.7100, fixquality=1
$GPGGA,232554.500,4305.2414,N,07740.6837,W,1,05,1.71,38.1,M,-34.4,M,,*65
$GPRMC,232554.500,A,4305.2414,N,07740.6837,W,21.34,90.67,090924,,,A*7B
lng=-77.678062, lat=43.087352, altitude=38.10, speed=21.39, satellites=5, angle=90.6600, fixquality=1
$GPGGA,232554.750,4305.2414,N,07740.6816,W,1,05,4.72,37.6,M,-34.4,M,,*6F
$GPRMC,232554.750,A,4305.2414,N,07740.6816,W,21.33,90.72,090924,,,A*7C
lng=-77.678024, lat=43.087352, altitude=37.60, speed=21.34, satellites=5, angle=90.6700, fixquality=1
$GPGGA,232555.000,4305.2415,N,07740.6796,W,1,05,4.72,37.1,M,-34.4,M,,*6D
$GPRMC,232555.000,A,4305.2415,N,07740.6796,W,21.34,90.76,090924,,,A*7A
lng=-77.677993, lat=43.087360, altitude=37.10, speed=21.33, satellites=5, angle=90.7200, fixquality=1
$GPGGA,232555.250,4305.2417,N,07740.6778,W,1,05,1.71,37.1,M,-34.4,M,,*6E
$GPRMC,232555.250,A,4305.2417,N,07740.6778,W,21.32,90.43,090924$GPGGA,232555.500,4305.2419,N,07740.6758,W,1,05,4.72,36.6,M,-34.4,M,,*60
lng=-77.677963, lat=43.087360, altitude=37.10, speed=21.34, satellites=5, angle=90.7600, fixquality=1
$GPRMC,232555.750,A,4305.2420,N,07740.6739,W,21.50,89.91,090924,,,A*78
$GPGGA,232556.000,4305.2422,N,07740.6721,W,1,05,4.72,35.8,M,-34.4,M,,*6D
lng=-77.677894, lat=43.087368, altitude=37.10, speed=21.50, satellites=5, angle=89.9100, fixquality=1
$GPRMC,232556.250,A,4305.2423,N,07740.6703,W,21.33,89.81,090924,,,A*70
$GPGGA,232556.500,4305.2424,N,07740.6685,W,1,05,1.71,36.2,M,-34.4,M,,*6E
lng=-77.677841, lat=43.087368, altitude=35.80, speed=21.33, satellites=5, angle=89.8100, fixquality=1
$GPRMC,232556.750,A,4305.2425,N,07740.6666,W,21.35,89.78,090924,,,A*71
$GPGGA,232557.000,4305.2426,N,07740.6646,W,1,05,4.71,35.6,M,-34.4,M,,*65
lng=-77.677772, lat=43.087379, altitude=36.20, speed=21.35, satellites=5, angle=89.7800, fixquality=1
$GPRMC,232557.250,A,4305.2427,N,07740.6628,W,21.56,89.39,090924,,,A*7D
$GPGGA,232557.500,4305.2428,N,07740.6610,W,1,05,1.71,36.0,M,-34.4,M,,*6D
lng=-77.677711, lat=43.087379, altitude=35.60, speed=21.56, satellites=5, angle=89.3900, fixquality=1
$GPRMC,232557.750,A,4305.2429,N,07740.6590,W,21.65,88.94,090924,,,A*70
$GPGGA,232558.000,4305.2431,N,07740.6569,W,1,05,4.71,35.6,M,-34.4,M,,*62
lng=-77.677650, lat=43.087379, altitude=36.00, speed=21.65, satellites=5, angle=88.9400, fixquality=1
$GPRMC,232558.250,A,4305.2432,N,07740.6549,W,22.27,88.20,090924,,,A*7E
$GPGGA,232558.500,4305.2433,N,07740.6529,W,1,05,1.71,36.0,M,-34.4,M,,*61
lng=-77.677581, lat=43.087387, altitude=35.60, speed=22.27, satellites=5, angle=88.2000, fixquality=1
$GPRMC,232558.750,A,4305.2433,N,07740.6508,W,22.64,88.15,090924,,,A*7E
$GPGGA,232559.000,4305.2435,N,07740.6486,W,1,05,4.71,35.8,M,-34.4,M,,*69
lng=-77.677513, lat=43.087387, altitude=36.00, speed=22.64, satellites=5, angle=88.1500, fixquality=1
$GPRMC,232559.250,A,4305.2435,N,07740.6466,W,22.75,88.13,090924,,,A*73
$GPGGA,232559.500,4305.2436,N,07740.6445,W,1,05,1.71,36.2,M,-34.4,M,,*6C
lng=-77.677444, lat=43.087394, altitude=35.80, speed=22.75, satellites=5, angle=88.1300, fixquality=1
$GPRMC,232559.750,A,4305.2436,N,07740.6424,W,23.18,88.50,090924,,,A*7E
$GPGGA,232600.000,4305.2437,N,07740.6403,W,1,05,4.70,36.0,M,-34.4,M,,*63
lng=-77.677375, lat=43.087394, altitude=36.20, speed=23.18, satellites=5, angle=88.5000, fixquality=1
$GPRMC,232600.250,A,4305.2439,N,07740.6384,W,22.56,88.51,090924,,,A*7C
$GPGGA,232600.500,4305.2440,N,07740.6365,W,1,06,1.53,36.1,M,-34.4,M,,*67
lng=-77.677299, lat=43.087402, altitude=36.00, speed=22.56, satellites=5, angle=88.5100, fixquality=1
$GPRMC,232600.750,A,4305.2441,N,07740.6346,W,21.72,88.88,090924,,,A*79
$GPGGA,232601.000,4305.2442,N,07740.6327,W,1,06,1.53,35.9,M,-34.4,M,,*6C
lng=-77.677246, lat=43.087402, altitude=36.10, speed=21.72, satellites=6, angle=88.8800, fixquality=1
$GPRMC,232601.250,A,4305.2442,N,07740.6307,W,21.48,89.17,090924,,,A*75
$GPGGA,232601.500,4305.2444,N,07740.6288,W,1,06,1.53,35.6,M,-34.4,M,,*64
lng=-77.677177, lat=43.087402, altitude=35.90, speed=21.48, satellites=6, angle=89.1700, fixquality=1
$GPRMC,232601.750,A,4305.2445,N,07740.6268,W,20.96,89.10,090924,,,A*7A
$GPGGA,232602.000,4305.2446,N,07740.6249,W,1,06,1.53,35.5,M,-34.4,M,,*6E
lng=-77.677116, lat=43.087409, altitude=35.60, speed=20.96, satellites=6, angle=89.1000, fixquality=1
$GPRMC,232602.250,A,4305.2447,N,07740.6231,W,20.41,89.13,090924,,,A*7B
$GPGGA,232602.500,4305.2448,N,07740.6213,W,1,06,1.53,35.2,M,-34.4,M,,*6D
lng=-77.677047, lat=43.087409, altitude=35.50, speed=20.41, satellites=6, angle=89.1300, fixquality=1
$GPRMC,232602.750,A,4305.2448,N,07740.6194,W,20.09,89.50,090924,,,A*76
$GPGGA,232603.000,4305.2450,N,07740.6176,W,1,06,1.53,35.1,M,-34.4,M,,*63
lng=-77.676994, lat=43.087409, altitude=35.20, speed=20.09, satellites=6, angle=89.5000, fixquality=1
$GPRMC,232603.250,A,4305.2450,N,07740.6157,W,19.62,89.69,090924,,,A*79
$GPGGA,232603.500,4305.2451,N,07740.6139,W,1,06,1.53,34.8,M,-34.4,M,,*64
lng=-77.676925, lat=43.087417, altitude=35.10, speed=19.62, satellites=6, angle=89.6900, fixquality=1
$GPRMC,232603.750,A,4305.2452,N,07740.6121,W,19.16,90.14,090924,,,A*7E
$GPGGA,232604.000,4305.2453,N,07740.6104,W,1,06,1.53,34.6,M,-34.4,M,,*64
lng=-77.676872, lat=43.087417, altitude=34.80, speed=19.16, satellites=6, angle=90.1400, fixquality=1
$GPRMC,232604.250,A,4305.2454,N,07740.6086,W,19.04,89.80,090924,,,A*70
$GPGGA,232604.500,4305.2455,N,07740.6069,W,1,06,1.53,34.4,M,-34.4,M,,*6F
lng=-77.676803, lat=43.087425, altitude=34.60, speed=19.04, satellites=6, angle=89.8000, fixquality=1
$GPRMC,232604.750,A,4305.2456,N,07740.6053,W,18.81,89.00,090924,,,A*7B
$GPGGA,232605.000,4305.2458,N,07740.6036,W,1,06,1.53,34.2,M,-34.4,M,,*6A
lng=-77.676757, lat=43.087425, altitude=34.40, speed=18.81, satellites=6, angle=89.0000, fixquality=1
$GPRMC,232605.250,A,4305.2459,N,07740.6020,W,18.57,88.61,090924,,,A*79
$GPGGA,232605.500,4305.2460,N,07740.6003,W,1,06,1.53,34.1,M,-34.4,M,,*61
lng=-77.676704, lat=43.087436, altitude=34.20, speed=18.57, satellites=6, angle=88.6100, fixquality=1
$GPRMC,232605.750,A,4305.2462,N,07740.5987,W,18.54,87.64,090924,,,A*7A
$GPGGA,232606.000,4305.2464,N,07740.5972,W,1,06,1.53,33.9,M,-34.4,M,,*60
lng=-77.676643, lat=43.087436, altitude=34.10, speed=18.54, satellites=6, angle=87.6400, fixquality=1
$GPRMC,232606.250,A,4305.2466,N,07740.5957,W,18.19,87.16,090924,,,A*79
$GPGGA,232606.500,4305.2469,N,07740.5941,W,1,06,1.53,33.7,M,-34.4,M,,*66
lng=-77.676597, lat=43.087444, altitude=33.90, speed=18.19, satellites=6, angle=87.1600, fixquality=1
$GPRMC,232606.750,A,4305.2470,N,07740.5926,W,17.56,87.05,090924,,,A*7B
$GPGGA,232607.000,4305.2472,N,07740.5912,W,1,06,1.53,33.4,M,-34.4,M,,*6D
lng=-77.676544, lat=43.087451, altitude=33.70, speed=17.56, satellites=6, angle=87.0500, fixquality=1
$GPRMC,232607.250,A,4305.2473,N,07740.5897,W,16.60,87.37,090924,,,A*72
$GPGGA,232607.500,4305.2475,N,07740.5884,W,1,06,1.51,33.2,M,-34.4,M,,*65
lng=-77.676498, lat=43.087451, altitude=33.40, speed=16.60, satellites=6, angle=87.3700, fixquality=1
$GPRMC,232607.750,A,4305.2476,N,07740.5870,W,15.37,87.14,090924,,,A*7B
$GPGGA,232608.000,4305.2477,N,07740.5858,W,1,06,1.53,33.0,M,-34.4,M,,*6C
lng=-77.676445, lat=43.087459, altitude=33.20, speed=15.37, satellites=6, angle=87.1400, fixquality=1
$GPRMC,232608.250,A,4305.2478,N,07740.5847,W,13.73,87.51,090924,,,A*7C
$GPGGA,232608.500,4305.2476,N,07740.5834,W,1,06,1.51,32.7,M,-34.4,M,,*66
lng=-77.676406, lat=43.087459, altitude=33.00, speed=13.73, satellites=6, angle=87.5100, fixquality=1
$GPRMC,232608.750,A,4305.2475,N,07740.5822,W,13.13,91.13,090924,,,A*70
$GPGGA,232609.000,4305.2472,N,07740.5811,W,1,06,1.53,32.4,M,-34.4,M,,*60
lng=-77.676368, lat=43.087459, altitude=32.70, speed=13.13, satellites=6, angle=91.1300, fixquality=1
$GPRMC,232609.250,A,4305.2471,N,07740.5800,W,12.06,95.10,090924,,,A*72
$GPGGA,232609.500,4305.2468,N,07740.5790,W,1,06,1.51,32.1,M,-34.4,M,,*6F
lng=-77.676338, lat=43.087451, altitude=32.40, speed=12.06, satellites=6, angle=95.1000, fixquality=1
$GPRMC,232609.750,A,4305.2466,N,07740.5781,W,10.84,100.26,090924,,,A*47
$GPGGA,232610.000,4305.2464,N,07740.5774,W,1,06,1.51,31.8,M,-34.4,M,,*6E
lng=-77.676300, lat=43.087444, altitude=32.10, speed=10.84, satellites=6, angle=100.2600, fixquality=1
$GPRMC,232610.250,A,4305.2462,N,07740.5766,W,9.62,105.07,090924,,,A*71
$GPGGA,232610.500,4305.2459,N,07740.5761,W,1,06,1.51,31.6,M,-34.4,M,,*6F
lng=-77.676277, lat=43.087436, altitude=31.80, speed=9.62, satellites=6, angle=105.0700, fixquality=1
$GPRMC,232610.750,A,4305.2458,N,07740.5756,W,8.24,108.58,090924,,,A*7A
$GPGGA,232611.000,4305.2456,N,07740.5754,W,1,06,1.53,31.5,M,-34.4,M,,*63
lng=-77.676261, lat=43.087425, altitude=31.60, speed=8.24, satellites=6, angle=108.5800, fixquality=1
$GPRMC,232611.250,A,4305.2455,N,07740.5750,W,6.91,109.61,090924,,,A*7E
$GPGGA,232611.500,4305.2456,N,07740.5752,W,1,06,1.53,31.5,M,-34.4,M,,*60
lng=-77.676254, lat=43.087425, altitude=31.50, speed=6.91, satellites=6, angle=109.6100, fixquality=1
$GPRMC,232611.750,A,4305.2455,N,07740.5747,W,5.64,105.77,090924,,,A*7F
$GPGGA,232612.000,4305.2454,N,07740.5742,W,1,06,1.53,31.4,M,-34.4,M,,*64
lng=-77.676246, lat=43.087425, altitude=31.50, speed=5.64, satellites=6, angle=105.7700, fixquality=1
$GPRMC,232612.250,A,4305.2453,N,07740.5736,W,6.59,98.53,090924,,,A*47
$GPGGA,232612.500,4305.2452,N,07740.5729,W,1,06,1.53,31.4,M,-34.4,M,,*6A
lng=-77.676231, lat=43.087417, altitude=31.40, speed=6.59, satellites=6, angle=98.5300, fixquality=1
$GPRMC,232612.750,A,4305.2451,N,07740.5721,W,8.02,94.70,090924,,,A*4B
$GPGGA,232613.000,4305.2451,N,07740.5712,W,1,06,1.53,31.2,M,-34.4,M,,*63
lng=-77.676200, lat=43.087417, altitude=31.40, speed=8.02, satellites=6, angle=94.7000, fixquality=1
$GPRMC,232613.250,A,4305.2451,N,07740.5704,W,9.54,90.25,090924,,,A*4E
$GPGGA,232613.500,4305.2451,N,07740.5694,W,1,06,1.53,31.0,M,-34.4,M,,*6B
lng=-77.676170, lat=43.087417, altitude=31.20, speed=9.54, satellites=6, angle=90.2500, fixquality=1
$GPRMC,232613.750,A,4305.2451,N,07740.5684,W,10.70,89.37,090924,,,A*77
$GPGGA,232614.000,4305.2451,N,07740.5672,W,1,06,1.53,30.7,M,-34.4,M,,*67
lng=-77.676139, lat=43.087417, altitude=31.00, speed=10.70, satellites=6, angle=89.3700, fixquality=1
$GPRMC,232614.250,A,4305.2451,N,07740.5661,W,12.14,88.36,090924,,,A*7E
$GPGGA,232614.500,4305.2451,N,07740.5649,W,1,06,1.53,30.5,M,-34.4,M,,*68
lng=-77.676101, lat=43.087417, altitude=30.70, speed=12.14, satellites=6, angle=88.3600, fixquality=1
$GPRMC,232614.750,A,4305.2452,N,07740.5636,W,13.11,87.85,090924,,,A*79
$GPGGA,232615.000,4305.2452,N,07740.5623,W,1,06,1.53,30.2,M,-34.4,M,,*64
lng=-77.676055, lat=43.087417, altitude=30.50, speed=13.11, satellites=6, angle=87.8500, fixquality=1
$GPRMC,232615.250,A,4305.2453,N,07740.5610,W,14.05,87.81,090924,,,A*7E
$GPGGA,232615.500,4305.2453,N,07740.5597,W,1,06,1.53,30.0,M,-34.4,M,,*6E
lng=-77.676017, lat=43.087417, altitude=30.20, speed=14.05, satellites=6, angle=87.8100, fixquality=1
$GPRMC,232615.750,A,4305.2455,N,07740.5584,W,14.50,87.72,090924,,,A*7F
$GPGGA,232616.000,4305.2457,N,07740.5571,W,1,06,1.53,29.9,M,-34.4,M,,*65
lng=-77.675979, lat=43.087425, altitude=30.00, speed=14.50, satellites=6, angle=87.7200, fixquality=1
$GPRMC,232616.250,A,4305.2458,N,07740.5558,W,14.86,86.50,090924,,,A*7F
$GPGGA,232616.500,4305.2459,N,07740.5545,W,1,06,1.53,29.7,M,-34.4,M,,*67
lng=-77.675926, lat=43.087425, altitude=29.90, speed=14.86, satellites=6, angle=86.5000, fixquality=1
$GPRMC,232616.750,A,4305.2461,N,07740.5531,W,15.22,86.19,090924,,,A*7D
$GPGGA,232617.000,4305.2462,N,07740.5517,W,1,06,1.53,29.6,M,-34.4,M,,*6D
lng=-77.675888, lat=43.087436, altitude=29.70, speed=15.22, satellites=6, angle=86.1900, fixquality=1
$GPRMC,232617.250,A,4305.2463,N,07740.5503,W,15.90,85.78,090924,,,A*77
$GPGGA,232617.500,4305.2464,N,07740.5488,W,1,06,1.53,29.3,M,-34.4,M,,*6C
lng=-77.675834, lat=43.087436, altitude=29.60, speed=15.90, satellites=6, angle=85.7800, fixquality=1
$GPRMC,232617.750,A,4305.2466,N,07740.5473,W,16.49,86.02,090924,,,A*78
$GPGGA,232618.000,4305.2466,N,07740.5457,W,1,06,1.53,29.3,M,-34.4,M,,*66
lng=-77.675788, lat=43.087444, altitude=29.30, speed=16.49, satellites=6, angle=86.0200, fixquality=1
$GPRMC,232618.250,A,4305.2467,N,07740.5441,W,17.34,86.41,090924,,,A*7E
$GPGGA,232618.500,4305.2469,N,07740.5424,W,1,06,1.53,29.2,M,-34.4,M,,*69
lng=-77.675735, lat=43.087444, altitude=29.30, speed=17.34, satellites=6, angle=86.4100, fixquality=1
$GPRMC,232618.750,A,4305.2470,N,07740.5407,W,18.15,86.51,090924,,,A*72
$GPGGA,232619.000,4305.2471,N,07740.5389,W,1,06,1.53,29.0,M,-34.4,M,,*66
lng=-77.675674, lat=43.087451, altitude=29.20, speed=18.15, satellites=6, angle=86.5100, fixquality=1
$GPRMC,232619.250,A,4305.2472,N,07740.5372,W,18.59,86.76,090924,,,A*7C
$GPGGA,232619.500,4305.2473,N,07740.5354,W,1,06,1.53,28.9,M,-34.4,M,,*69
lng=-77.675621, lat=43.087451, altitude=29.00, speed=18.59, satellites=6, angle=86.7600, fixquality=1
$GPRMC,232619.750,A,4305.2474,N,07740.5336,W,19.18,87.14,090924,,,A*7E
$GPGGA,232620.000,4305.2475,N,07740.5319,W,1,06,1.53,28.7,M,-34.4,M,,*67
lng=-77.675559, lat=43.087459, altitude=28.90, speed=19.18, satellites=6, angle=87.1400, fixquality=1
$GPRMC,232620.250,A,4305.2477,N,07740.5301,W,19.40,87.25,090924,,,A*79
$GPGGA,232620.500,4305.2479,N,07740.5284,W,1,06,1.53,28.5,M,-34.4,M,,*69
lng=-77.675506, lat=43.087459, altitude=28.70, speed=19.40, satellites=6, angle=87.2500, fixquality=1
$GPRMC,232620.750,A,4305.2480,N,07740.5266,W,19.37,87.05,090924,,,A*76
$GPGGA,232621.000,4305.2482,N,07740.5249,W,1,06,1.53,28.3,M,-34.4,M,,*6E
lng=-77.675437, lat=43.087467, altitude=28.50, speed=19.37, satellites=6, angle=87.0500, fixquality=1
$GPRMC,232621.250,A,4305.2483,N,07740.5231,W,19.18,86.80,090924,,,A*72
$GPGGA,232621.500,4305.2484,N,07740.5213,W,1,06,1.53,28.1,M,-34.4,M,,*60
lng=-77.675384, lat=43.087474, altitude=28.30, speed=19.18, satellites=6, angle=86.8000, fixquality=1
$GPRMC,232621.750,A,4305.2485,N,07740.5195,W,19.27,86.98,090924,,,A*79
$GPGGA,232622.000,4305.2486,N,07740.5177,W,1,06,1.53,28.1,M,-34.4,M,,*65
lng=-77.675323, lat=43.087474, altitude=28.10, speed=19.27, satellites=6, angle=86.9800, fixquality=1
$GPRMC,232622.250,A,4305.2487,N,07740.5158,W,19.32,87.05,090924,,,A*7D
$GPGGA,232622.500,4305.2489,N,07740.5140,W,1,06,1.53,28.0,M,-34.4,M,,*6A
lng=-77.675262, lat=43.087474, altitude=28.10, speed=19.32, satellites=6, angle=87.0500, fixquality=1
$GPRMC,232622.750,A,4305.2490,N,07740.5122,W,19.12,87.21,090924,,,A*77
$GPGGA,232623.000,4305.2491,N,07740.5105,W,1,06,1.53,28.1,M,-34.4,M,,*67
lng=-77.675201, lat=43.087482, altitude=28.00, speed=19.12, satellites=6, angle=87.2100, fixquality=1
$GPRMC,232623.250,A,4305.2492,N,07740.5087,W,18.96,86.93,090924,,,A*7A
$GPGGA,232623.500,4305.2493,N,07740.5069,W,1,06,1.53,28.0,M,-34.4,M,,*6A
lng=-77.675148, lat=43.087482, altitude=28.10, speed=18.96, satellites=6, angle=86.9300, fixquality=1
$GPRMC,232623.750,A,4305.2494,N,07740.5051,W,18.73,86.93,090924,,,A*79
$GPGGA,232624.000,4305.2494,N,07740.5034,W,1,06,1.53,28.0,M,-34.4,M,,*67
lng=-77.675079, lat=43.087490, altitude=28.00, speed=18.73, satellites=6, angle=86.9300, fixquality=1
$GPRMC,232624.250,A,4305.2495,N,07740.5017,W,18.36,87.85,090924,,,A*7F
$GPGGA,232624.500,4305.2496,N,07740.5000,W,1,06,1.53,27.9,M,-34.4,M,,*61
lng=-77.675025, lat=43.087490, altitude=28.00, speed=18.36, satellites=6, angle=87.8500, fixquality=1
$GPRMC,232624.750,A,4305.2497,N,07740.4985,W,17.41,87.90,090924,,,A*70
$GPGGA,232625.000,4305.2498,N,07740.4971,W,1,06,1.53,28.0,M,-34.4,M,,*63
lng=-77.674972, lat=43.087490, altitude=27.90, speed=17.41, satellites=6, angle=87.9000, fixquality=1
$GPRMC,232625.250,A,4305.2501,N,07740.4956,W,16.71,88.40,090924,,,A*74
$GPGGA,232625.500,4305.2503,N,07740.4944,W,1,06,1.53,28.0,M,-34.4,M,,*63
lng=-77.674926, lat=43.087501, altitude=28.00, speed=16.71, satellites=6, angle=88.4000, fixquality=1
$GPRMC,232625.750,A,4305.2503,N,07740.4929,W,16.34,89.29,090924,,,A*74
$GPGGA,232626.000,4305.2503,N,07740.4913,W,1,06,1.53,28.3,M,-34.4,M,,*64
lng=-77.674880, lat=43.087509, altitude=28.00, speed=16.34, satellites=6, angle=89.2900, fixquality=1
$GPRMC,232626.250,A,4305.2505,N,07740.4898,W,16.34,88.78,090924,,,A*7A
$GPGGA,232626.500,4305.2506,N,07740.4882,W,1,06,1.53,28.3,M,-34.4,M,,*6D
lng=-77.674827, lat=43.087509, altitude=28.30, speed=16.34, satellites=6, angle=88.7800, fixquality=1
$GPRMC,232626.750,A,4305.2506,N,07740.4865,W,16.37,88.28,090924,,,A*78
$GPGGA,232627.000,4305.2506,N,07740.4849,W,1,06,1.53,28.5,M,-34.4,M,,*68
lng=-77.674774, lat=43.087509, altitude=28.30, speed=16.37, satellites=6, angle=88.2800, fixquality=1
$GPRMC,232627.250,A,4305.2506,N,07740.4833,W,16.45,87.96,090924,,,A*70
$GPGGA,232627.500,4305.2505,N,07740.4817,W,1,06,1.53,28.4,M,-34.4,M,,*64
lng=-77.674720, lat=43.087509, altitude=28.50, speed=16.45, satellites=6, angle=87.9600, fixquality=1
$GPRMC,232627.750,A,4305.2506,N,07740.4801,W,16.57,88.74,090924,,,A*74
$GPGGA,232628.000,4305.2506,N,07740.4786,W,1,06,1.53,28.5,M,-34.4,M,,*6B
lng=-77.674667, lat=43.087509, altitude=28.40, speed=16.57, satellites=6, angle=88.7400, fixquality=1
$GPRMC,232628.250,A,4305.2507,N,07740.4771,W,16.63,89.36,090924,,,A*77
$GPGGA,232628.500,4305.2508,N,07740.4757,W,1,06,1.53,28.6,M,-34.4,M,,*6F
lng=-77.674613, lat=43.087509, altitude=28.50, speed=16.63, satellites=6, angle=89.3600, fixquality=1
$GPRMC,232628.750,A,4305.2509,N,07740.4742,W,16.37,89.52,090924,,,A*7F
$GPGGA,232629.000,4305.2509,N,07740.4729,W,1,06,1.53,28.7,M,-34.4,M,,*62
lng=-77.674568, lat=43.087516, altitude=28.60, speed=16.37, satellites=6, angle=89.5200, fixquality=1
$GPRMC,232629.250,A,4305.2509,N,07740.4714,W,16.03,90.19,090924,,,A*78
$GPGGA,232629.500,4305.2510,N,07740.4702,W,1,06,1.53,28.7,M,-34.4,M,,*66
lng=-77.674522, lat=43.087516, altitude=28.70, speed=16.03, satellites=6, angle=90.1900, fixquality=1
$GPRMC,232629.750,A,4305.2510,N,07740.4689,W,15.57,91.67,090924,,,A*7A
$GPGGA,232630.000,4305.2511,N,07740.4678,W,1,06,1.53,28.8,M,-34.4,M,,*69
lng=-77.674476, lat=43.087516, altitude=28.70, speed=15.57, satellites=6, angle=91.6700, fixquality=1
$GPRMC,232630.250,A,4305.2511,N,07740.4664,W,15.45,92.51,090924,,,A*70
$GPGGA,232630.500,4305.2511,N,07740.4651,W,1,06,1.53,28.7,M,-34.4,M,,*68
lng=-77.674438, lat=43.087516, altitude=28.80, speed=15.45, satellites=6, angle=92.5100, fixquality=1
$GPRMC,232630.750,A,4305.2510,N,07740.4636,W,15.01,93.48,090924,,,A*7A
$GPGGA,232631.000,4305.2508,N,07740.4620,W,1,06,1.53,28.7,M,-34.4,M,,*62
lng=-77.674392, lat=43.087516, altitude=28.70, speed=15.01, satellites=6, angle=93.4800, fixquality=1
$GPRMC,232631.250,A,4305.2506,N,07740.4606,W,14.72,96.03,090924,,,A*75
$GPGGA,232631.500,4305.2503,N,07740.4592,W,1,06,1.53,28.7,M,-34.4,M,,*66
lng=-77.674339, lat=43.087509, altitude=28.70, speed=14.72, satellites=6, angle=96.0300, fixquality=1
$GPRMC,232631.750,A,4305.2502,N,07740.4580,W,14.21,99.24,090924,,,A*75
$GPGGA,232632.000,4305.2499,N,07740.4569,W,1,06,1.53,28.6,M,-34.4,M,,*67
lng=-77.674301, lat=43.087501, altitude=28.70, speed=14.21, satellites=6, angle=99.2400, fixquality=1
$GPRMC,232632.250,A,4305.2496,N,07740.4558,W,13.10,104.82,090924,,,A*46
$GPGGA,232632.500,4305.2492,N,07740.4547,W,1,06,1.53,28.7,M,-34.4,M,,*64
lng=-77.674263, lat=43.087490, altitude=28.60, speed=13.10, satellites=6, angle=104.8200, fixquality=1
$GPRMC,232632.750,A,4305.2489,N,07740.4536,W,12.72,108.68,090924,,,A*48
$GPGGA,232633.000,4305.2487,N,07740.4518,W,1,06,1.53,28.7,M,-34.4,M,,*6E
lng=-77.674224, lat=43.087482, altitude=28.70, speed=12.72, satellites=6, angle=108.6800, fixquality=1
$GPRMC,232633.250,A,4305.2483,N,07740.4506,W,12.50,110.71,090924,,,A*44
$GPGGA,232633.500,4305.2479,N,07740.4494,W,1,06,1.53,28.6,M,-34.4,M,,*6E
lng=-77.674179, lat=43.087474, altitude=28.70, speed=12.50, satellites=6, angle=110.7100, fixquality=1
$GPRMC,232633.750,A,4305.2475,N,07740.4484,W,12.26,113.53,090924,,,A*41
$GPGGA,232634.000,4305.2468,N,07740.4474,W,1,06,1.53,28.5,M,-34.4,M,,*61
lng=-77.674140, lat=43.087459, altitude=28.60, speed=12.26, satellites=6, angle=113.5300, fixquality=1
$GPRMC,232634.250,A,4305.2463,N,07740.4464,W,12.31,114.97,090924,,,A*43
$GPGGA,232634.500,4305.2457,N,07740.4454,W,1,06,1.53,28.4,M,-34.4,M,,*6B
lng=-77.674102, lat=43.087436, altitude=28.50, speed=12.31, satellites=6, angle=114.9700, fixquality=1
$GPRMC,232634.750,A,4305.2454,N,07740.4445,W,12.84,112.86,090924,,,A*49
$GPGGA,232635.000,4305.2453,N,07740.4437,W,1,06,1.53,28.5,M,-34.4,M,,*6F
lng=-77.674072, lat=43.087425, altitude=28.40, speed=12.84, satellites=6, angle=112.8600, fixquality=1
$GPRMC,232635.250,A,4305.2450,N,07740.4426,W,13.06,109.61,090924,,,A*44
$GPGGA,232635.500,4305.2447,N,07740.4412,W,1,06,1.53,28.4,M,-34.4,M,,*69
lng=-77.674041, lat=43.087417, altitude=28.50, speed=13.06, satellites=6, angle=109.6100, fixquality=1
$GPRMC,232635.750,A,4305.2444,N,07740.4400,W,14.12,102.72,090924,,,A*4B
$GPGGA,232636.000,4305.2443,N,07740.4387,W,1,06,1.53,28.3,M,-34.4,M,,*67
lng=-77.673995, lat=43.087409, altitude=28.40, speed=14.12, satellites=6, angle=102.7200, fixquality=1
$GPRMC,232636.250,A,4305.2443,N,07740.4374,W,14.75,98.35,090924,,,A*7E
$GPGGA,232636.500,4305.2444,N,07740.4361,W,1,06,1.53,28.3,M,-34.4,M,,*6D
lng=-77.673957, lat=43.087402, altitude=28.30, speed=14.75, satellites=6, angle=98.3500, fixquality=1
$GPRMC,232636.750,A,4305.2445,N,07740.4349,W,14.83,91.59,090924,,,A*79
$GPGGA,232637.000,4305.2448,N,07740.4337,W,1,06,1.53,28.3,M,-34.4,M,,*66
lng=-77.673919, lat=43.087409, altitude=28.30, speed=14.83, satellites=6, angle=91.5900, fixquality=1
$GPRMC,232637.250,A,4305.2449,N,07740.4323,W,14.77,87.02,090924,,,A*7F
$GPGGA,232637.500,4305.2451,N,07740.4310,W,1,06,1.53,28.2,M,-34.4,M,,*6F
lng=-77.673866, lat=43.087417, altitude=28.30, speed=14.77, satellites=6, angle=87.0200, fixquality=1
$GPRMC,232637.750,A,4305.2454,N,07740.4295,W,15.13,84.20,090924,,,A*7A
$GPGGA,232638.000,4305.2458,N,07740.4280,W,1,06,1.53,28.1,M,-34.4,M,,*67
lng=-77.673828, lat=43.087425, altitude=28.20, speed=15.13, satellites=6, angle=84.2000, fixquality=1
$GPRMC,232638.250,A,4305.2462,N,07740.4265,W,15.73,79.76,090924,,,A*7D
$GPGGA,232638.500,4305.2466,N,07740.4250,W,1,06,1.53,28.0,M,-34.4,M,,*63
lng=-77.673774, lat=43.087436, altitude=28.10, speed=15.73, satellites=6, angle=79.7600, fixquality=1
$GPRMC,232638.750,A,4305.2470,N,07740.4236,W,15.83,76.93,090924,,,A*76
$GPGGA,232639.000,4305.2476,N,07740.4224,W,1,06,1.53,27.9,M,-34.4,M,,*63
lng=-77.673728, lat=43.087451, altitude=28.00, speed=15.83, satellites=6, angle=76.9300, fixquality=1
$GPRMC,232639.250,A,4305.2481,N,07740.4210,W,15.80,73.73,090924,,,A*70
$GPGGA,232639.500,4305.2486,N,07740.4196,W,1,06,1.53,27.8,M,-34.4,M,,*62
lng=-77.673683, lat=43.087467, altitude=27.90, speed=15.80, satellites=6, angle=73.7300, fixquality=1
$GPRMC,232639.750,A,4305.2490,N,07740.4182,W,15.96,73.11,090924,,,A*7E
$GPGGA,232640.000,4305.2494,N,07740.4166,W,1,06,1.53,27.5,M,-34.4,M,,*68
lng=-77.673629, lat=43.087482, altitude=27.80, speed=15.96, satellites=6, angle=73.1100, fixquality=1
$GPRMC,232640.250,A,4305.2498,N,07740.4151,W,16.42,74.60,090924,,,A*78
$GPGGA,232640.500,4305.2501,N,07740.4135,W,1,06,1.53,27.3,M,-34.4,M,,*60
lng=-77.673583, lat=43.087501, altitude=27.50, speed=16.42, satellites=6, angle=74.6000, fixquality=1
$GPRMC,232640.750,A,4305.2509,N,07740.4120,W,16.65,76.19,090924,,,A*7B
$GPGGA,232641.000,4305.2513,N,07740.4104,W,1,06,1.53,27.1,M,-34.4,M,,*67
lng=-77.673538, lat=43.087516, altitude=27.30, speed=16.65, satellites=6, angle=76.1900, fixquality=1
$GPRMC,232641.250,A,4305.2516,N,07740.4090,W,16.68,79.69,090924,,,A*7E
$GPGGA,232641.500,4305.2517,N,07740.4075,W,1,06,1.53,27.0,M,-34.4,M,,*60
lng=-77.673484, lat=43.087524, altitude=27.10, speed=16.68, satellites=6, angle=79.6900, fixquality=1
$GPRMC,232641.750,A,4305.2520,N,07740.4060,W,17.16,82.45,090924,,,A*73
$GPGGA,232642.000,4305.2521,N,07740.4044,W,1,06,1.53,26.8,M,-34.4,M,,*68
lng=-77.673431, lat=43.087532, altitude=27.00, speed=17.16, satellites=6, angle=82.4500, fixquality=1
$GPRMC,232642.250,A,4305.2522,N,07740.4028,W,17.81,84.31,090924,,,A*70
$GPGGA,232642.500,4305.2523,N,07740.4011,W,1,06,1.53,26.6,M,-34.4,M,,*61
lng=-77.673377, lat=43.087532, altitude=26.80, speed=17.81, satellites=6, angle=84.3100, fixquality=1
$GPRMC,232642.750,A,4305.2524,N,07740.3995,W,18.27,85.66,090924,,,A*7B
$GPGGA,232643.000,4305.2525,N,07740.3977,W,1,06,1.53,26.6,M,-34.4,M,,*6D
lng=-77.673324, lat=43.087539, altitude=26.60, speed=18.27, satellites=6, angle=85.6600, fixquality=1
$GPRMC,232643.250,A,4305.2525,N,07740.3960,W,18.59,86.25,090924,,,A*79
$GPGGA,232643.500,4305.2527,N,07740.3943,W,1,06,1.53,26.5,M,-34.4,M,,*6E
lng=-77.673263, lat=43.087539, altitude=26.60, speed=18.59, satellites=6, angle=86.2500, fixquality=1
$GPRMC,232643.750,A,4305.2527,N,07740.3925,W,19.02,86.67,090924,,,A*76
$GPGGA,232644.000,4305.2528,N,07740.3907,W,1,06,1.53,26.5,M,-34.4,M,,*63
lng=-77.673210, lat=43.087547, altitude=26.50, speed=19.02, satellites=6, angle=86.6700, fixquality=1
$GPRMC,232644.250,A,4305.2528,N,07740.3889,W,19.40,87.60,090924,,,A*7C
$GPGGA,232644.500,4305.2529,N,07740.3870,W,1,06,1.53,26.4,M,-34.4,M,,*67
lng=-77.673141, lat=43.087547, altitude=26.50, speed=19.40, satellites=6, angle=87.6000, fixquality=1
$GPRMC,232644.750,A,4305.2529,N,07740.3852,W,19.81,87.52,090924,,,A*72
$GPGGA,232645.000,4305.2530,N,07740.3833,W,1,06,1.53,26.4,M,-34.4,M,,*6C
lng=-77.673088, lat=43.087547, altitude=26.40, speed=19.81, satellites=6, angle=87.5200, fixquality=1
$GPRMC,232645.250,A,4305.2531,N,07740.3814,W,20.14,87.77,090924,,,A*7C
$GPGGA,232645.500,4305.2530,N,07740.3793,W,1,06,1.53,26.3,M,-34.4,M,,*6B
lng=-77.673019, lat=43.087547, altitude=26.40, speed=20.14, satellites=6, angle=87.7700, fixquality=1
$GPRMC,232645.750,A,4305.2530,N,07740.3774,W,20.50,87.99,090924,,,A*71
$GPGGA,232646.000,4305.2530,N,07740.3755,W,1,06,1.53,26.3,M,-34.4,M,,*67
lng=-77.672958, lat=43.087547, altitude=26.30, speed=20.50, satellites=6, angle=87.9900, fixquality=1
$GPRMC,232646.250,A,4305.2530,N,07740.3735,W,20.64,88.99,090924,,,A*7A
$GPGGA,232646.500,4305.2530,N,07740.3714,W,1,06,1.53,26.2,M,-34.4,M,,*66
lng=-77.672889, lat=43.087547, altitude=26.30, speed=20.64, satellites=6, angle=88.9900, fixquality=1
$GPRMC,232646.750,A,4305.2530,N,07740.3694,W,20.70,89.41,090924,,,A*74
$GPGGA,232647.000,4305.2530,N,07740.3673,W,1,06,1.53,26.4,M,-34.4,M,,*64
lng=-77.672828, lat=43.087547, altitude=26.20, speed=20.70, satellites=6, angle=89.4100, fixquality=1
$GPRMC,232647.250,A,4305.2530,N,07740.3653,W,20.70,89.62,090924,,,A*7A
$GPGGA,232647.500,4305.2531,N,07740.3634,W,1,06,1.53,26.3,M,-34.4,M,,*64
lng=-77.672752, lat=43.087547, altitude=26.40, speed=20.70, satellites=6, angle=89.6200, fixquality=1
$GPRMC,232647.750,A,4305.2532,N,07740.3614,W,20.65,89.22,090924,,,A*7E
$GPGGA,232648.000,4305.2534,N,07740.3595,W,1,06,1.53,26.3,M,-34.4,M,,*63
lng=-77.672691, lat=43.087558, altitude=26.30, speed=20.65, satellites=6, angle=89.2200, fixquality=1
$GPRMC,232648.250,A,4305.2535,N,07740.3576,W,20.64,88.43,090924,,,A*73
$GPGGA,232648.500,4305.2536,N,07740.3556,W,1,06,1.53,26.2,M,-34.4,M,,*6A
lng=-77.672622, lat=43.087558, altitude=26.30, speed=20.64, satellites=6, angle=88.4300, fixquality=1
$GPRMC,232648.750,A,4305.2537,N,07740.3537,W,20.92,88.08,090924,,,A*77
$GPGGA,232649.000,4305.2539,N,07740.3519,W,1,06,1.53,26.2,M,-34.4,M,,*6A
lng=-77.672561, lat=43.087566, altitude=26.20, speed=20.92, satellites=6, angle=88.0800, fixquality=1
$GPRMC,232649.250,A,4305.2540,N,07740.3500,W,21.04,87.26,090924,,,A*7A
$GPGGA,232649.500,4305.2542,N,07740.3480,W,1,06,1.53,26.2,M,-34.4,M,,*62
lng=-77.672500, lat=43.087566, altitude=26.20, speed=21.04, satellites=6, angle=87.2600, fixquality=1
$GPRMC,232649.750,A,4305.2544,N,07740.3460,W,21.47,85.92,090924,,,A*76
$GPGGA,232650.000,4305.2547,N,07740.3441,W,1,06,1.53,26.2,M,-34.4,M,,*67
lng=-77.672439, lat=43.087574, altitude=26.20, speed=21.47, satellites=6, angle=85.9200, fixquality=1
$GPRMC,232650.250,A,4305.2548,N,07740.3421,W,21.90,85.66,090924,,,A*73
$GPGGA,232650.500,4305.2551,N,07740.3401,W,1,06,1.54,26.1,M,-34.4,M,,*65
lng=-77.672370, lat=43.087581, altitude=26.20, speed=21.90, satellites=6, angle=85.6600, fixquality=1
$GPRMC,232650.750,A,4305.2553,N,07740.3381,W,22.34,84.88,090924,,,A*7D
$GPGGA,232651.000,4305.2557,N,07740.3362,W,1,06,1.53,26.2,M,-34.4,M,,*61
lng=-77.672294, lat=43.087589, altitude=26.10, speed=22.34, satellites=6, angle=84.8800, fixquality=1
$GPRMC,232651.250,A,4305.2558,N,07740.3341,W,22.77,84.90,090924,,,A*70
$GPGGA,232651.500,4305.2560,N,07740.3319,W,1,06,1.53,26.1,M,-34.4,M,,*6F
lng=-77.672233, lat=43.087596, altitude=26.20, speed=22.77, satellites=6, angle=84.9000, fixquality=1
$GPRMC,232651.750,A,4305.2562,N,07740.3297,W,23.18,84.48,090924,,,A*7B
$GPGGA,232652.000,4305.2564,N,07740.3275,W,1,06,1.53,26.1,M,-34.4,M,,*66
lng=-77.672157, lat=43.087604, altitude=26.10, speed=23.18, satellites=6, angle=84.4800, fixquality=1
$GPRMC,232652.250,A,4305.2566,N,07740.3252,W,23.51,84.01,090924,,,A*70
$GPGGA,232652.500,4305.2568,N,07740.3229,W,1,06,1.53,26.0,M,-34.4,M,,*67
lng=-77.672088, lat=43.087612, altitude=26.10, speed=23.51, satellites=6, angle=84.0100, fixquality=1
$GPRMC,232652.750,A,4305.2571,N,07740.3205,W,24.17,83.11,090924,,,A*72
$GPGGA,232653.000,4305.2573,N,07740.3180,W,1,06,1.53,26.0,M,-34.4,M,,*69
lng=-77.672004, lat=43.087623, altitude=26.00, speed=24.17, satellites=6, angle=83.1100, fixquality=1
$GPRMC,232653.250,A,4305.2575,N,07740.3156,W,24.44,82.98,090924,,,A*71
$GPGGA,232653.500,4305.2577,N,07740.3131,W,1,06,1.54,26.0,M,-34.4,M,,*65
lng=-77.671920, lat=43.087623, altitude=26.00, speed=24.44, satellites=6, angle=82.9800, fixquality=1
$GPRMC,232653.750,A,4305.2579,N,07740.3106,W,25.05,82.89,090924,,,A*79
$GPGGA,232654.000,4305.2581,N,07740.3080,W,1,06,1.53,26.4,M,-34.4,M,,*66
lng=-77.671844, lat=43.087631, altitude=26.00, speed=25.05, satellites=6, angle=82.8900, fixquality=1
$GPRMC,232654.250,A,4305.2584,N,07740.3055,W,25.48,82.75,090924,,,A*74
$GPGGA,232654.500,4305.2587,N,07740.3029,W,1,06,1.54,26.6,M,-34.4,M,,*63
lng=-77.671760, lat=43.087638, altitude=26.40, speed=25.48, satellites=6, angle=82.7500, fixquality=1
$GPRMC,232654.750,A,4305.2590,N,07740.3003,W,26.17,81.40,090924,,,A*7B
$GPGGA,232655.000,4305.2594,N,07740.2978,W,1,06,1.54,26.9,M,-34.4,M,,*66
lng=-77.671669, lat=43.087646, altitude=26.60, speed=26.17, satellites=6, angle=81.4000, fixquality=1
$GPRMC,232655.250,A,4305.2597,N,07740.2952,W,26.32,80.24,090924,,,A*70
$GPGGA,232655.500,4305.2601,N,07740.2927,W,1,06,1.53,26.9,M,-34.4,M,,*61
lng=-77.671592, lat=43.087661, altitude=26.90, speed=26.32, satellites=6, angle=80.2400, fixquality=1
$GPRMC,232655.750,A,4305.2604,N,07740.2902,W,26.58,79.35,090924,,,A*73
$GPGGA,232656.000,4305.2608,N,07740.2877,W,1,06,1.54,27.1,M,-34.4,M,,*64
lng=-77.671501, lat=43.087669, altitude=26.90, speed=26.58, satellites=6, angle=79.3500, fixquality=1
$GPRMC,232656.250,A,4305.2613,N,07740.2852,W,26.69,78.08,090924,,,A*7A
$GPGGA,232656.500,4305.2617,N,07740.2826,W,1,05,2.53,27.1,M,-34.4,M,,*6C
lng=-77.671417, lat=43.087688, altitude=27.10, speed=26.69, satellites=6, angle=78.0800, fixquality=1
$GPRMC,232656.750,A,4305.2621,N,07740.2801,W,27.23,77.03,090924,,,A*73
$GPGGA,232657.000,4305.2626,N,07740.2776,W,1,06,1.53,27.2,M,-34.4,M,,*63
lng=-77.671340, lat=43.087703, altitude=27.10, speed=27.23, satellites=5, angle=77.0300, fixquality=1
$GPRMC,232657.250,A,4305.2631,N,07740.2750,W,27.49,76.02,090924,,,A*71
$GPGGA,232657.500,4305.2636,N,07740.2725,W,1,06,1.52,27.1,M,-34.4,M,,*63
lng=-77.671249, lat=43.087718, altitude=27.20, speed=27.49, satellites=6, angle=76.0200, fixquality=1
$GPRMC,232657.750,A,4305.2641,N,07740.2699,W,27.93,75.43,090924,,,A*76
$GPGGA,232658.000,4305.2646,N,07740.2674,W,1,06,1.53,27.2,M,-34.4,M,,*69
lng=-77.671165, lat=43.087734, altitude=27.10, speed=27.93, satellites=6, angle=75.4300, fixquality=1
$GPRMC,232658.250,A,4305.2652,N,07740.2648,W,28.13,74.47,090924,,,A*70
$GPGGA,232658.500,4305.2658,N,07740.2622,W,1,06,1.54,27.1,M,-34.4,M,,*64
lng=-77.671073, lat=43.087753, altitude=27.20, speed=28.13, satellites=6, angle=74.4700, fixquality=1
$GPRMC,232658.750,A,4305.2664,N,07740.2596,W,28.41,73.33,090924,,,A*73
$GPGGA,232659.000,4305.2670,N,07740.2571,W,1,06,1.54,27.1,M,-34.4,M,,*6F
lng=-77.670997, lat=43.087776, altitude=27.10, speed=28.41, satellites=6, angle=73.3300, fixquality=1
$GPRMC,232659.250,A,4305.2676,N,07740.2545,W,28.60,72.24,090924,,,A*7E
$GPGGA,232659.500,4305.2683,N,07740.2520,W,1,06,1.54,27.0,M,-34.4,M,,*63
lng=-77.670906, lat=43.087791, altitude=27.10, speed=28.60, satellites=6, angle=72.2400, fixquality=1
$GPRMC,232659.750,A,4305.2691,N,07740.2494,W,28.70,70.70,090924,,,A*7D
$GPGGA,232700.000,4305.2699,N,07740.2469,W,1,06,1.54,26.9,M,-34.4,M,,*64
lng=-77.670822, lat=43.087818, altitude=27.00, speed=28.70, satellites=6, angle=70.7000, fixquality=1
$GPRMC,232700.250,A,4305.2706,N,07740.2443,W,28.87,68.82,090924,,,A*7C
$GPGGA,232700.500,4305.2714,N,07740.2417,W,1,06,1.54,26.9,M,-34.4,M,,*6C
lng=-77.670738, lat=43.087841, altitude=26.90, speed=28.87, satellites=6, angle=68.8200, fixquality=1
$GPRMC,232700.750,A,4305.2722,N,07740.2391,W,28.96,67.76,090924,,,A*73
$GPGGA,232701.000,4305.2729,N,07740.2364,W,1,06,1.54,27.0,M,-34.4,M,,*6D
lng=-77.670654, lat=43.087867, altitude=26.90, speed=28.96, satellites=6, angle=67.7600, fixquality=1
$GPRMC,232701.250,A,4305.2737,N,07740.2338,W,29.01,66.85,090924,,,A*72
$GPGGA,232701.500,4305.2746,N,07740.2311,W,1,06,1.54,27.2,M,-34.4,M,,*61
lng=-77.670562, lat=43.087898, altitude=27.00, speed=29.01, satellites=6, angle=66.8500, fixquality=1
$GPRMC,232701.750,A,4305.2755,N,07740.2285,W,29.08,65.38,090924,,,A*78
$GPGGA,232702.000,4305.2764,N,07740.2258,W,1,06,1.54,27.4,M,-34.4,M,,*6D
lng=-77.670478, lat=43.087924, altitude=27.20, speed=29.08, satellites=6, angle=65.3800, fixquality=1
$GPRMC,232702.250,A,4305.2773,N,07740.2232,W,29.69,64.53,090924,,,A*7D
$GPGGA,232702.500,4305.2783,N,07740.2205,W,1,06,1.54,27.5,M,-34.4,M,,*68
lng=-77.670387, lat=43.087955, altitude=27.40, speed=29.69, satellites=6, angle=64.5300, fixquality=1
$GPRMC,232702.750,A,4305.2792,N,07740.2179,W,29.94,63.77,090924,,,A*78
$GPGGA,232703.000,4305.2802,N,07740.2153,W,1,06,1.54,27.6,M,-34.4,M,,*69
lng=-77.670295, lat=43.087989, altitude=27.50, speed=29.94, satellites=6, angle=63.7700, fixquality=1
$GPRMC,232703.250,A,4305.2813,N,07740.2127,W,30.60,62.41,090924,,,A*76
$GPGGA,232703.500,4305.2824,N,07740.2101,W,1,06,1.54,27.7,M,-34.4,M,,*6E
lng=-77.670211, lat=43.088020, altitude=27.60, speed=30.60, satellites=6, angle=62.4100, fixquality=1
$GPRMC,232703.750,A,4305.2834,N,07740.2076,W,30.71,61.44,090924,,,A*75
$GPGGA,232704.000,4305.2844,N,07740.2050,W,1,06,1.54,27.8,M,-34.4,M,,*60
lng=-77.670127, lat=43.088054, altitude=27.70, speed=30.71, satellites=6, angle=61.4400, fixquality=1
$GPRMC,232704.250,A,4305.2855,N,07740.2025,W,30.52,60.51,090924,,,A*72
$GPGGA,232704.500,4305.2866,N,07740.2000,W,1,06,1.54,27.8,M,-34.4,M,,*60
lng=-77.670043, lat=43.088092, altitude=27.80, speed=30.52, satellites=6, angle=60.5100, fixquality=1
$GPRMC,232704.750,A,4305.2876,N,07740.1974,W,30.26,60.50,090924,,,A*7A
$GPGGA,232705.000,4305.2886,N,07740.1949,W,1,06,1.54,27.8,M,-34.4,M,,*6D
lng=-77.669952, lat=43.088127, altitude=27.80, speed=30.26, satellites=6, angle=60.5000, fixquality=1
$GPRMC,232705.250,A,4305.2896,N,07740.1923,W,30.03,60.99,090924,,,A*70
$GPGGA,232705.500,4305.2906,N,07740.1898,W,1,06,1.52,27.9,M,-34.4,M,,*6B
lng=-77.669876, lat=43.088157, altitude=27.80, speed=30.03, satellites=6, angle=60.9900, fixquality=1
$GPRMC,232705.750,A,4305.2916,N,07740.1873,W,29.97,61.17,090924,,,A*7A
$GPGGA,232706.000,4305.2926,N,07740.1847,W,1,06,1.54,27.9,M,-34.4,M,,*6B
lng=-77.669792, lat=43.088191, altitude=27.90, speed=29.97, satellites=6, angle=61.1700, fixquality=1
$GPRMC,232706.250,A,4305.2936,N,07740.1822,W,29.86,61.40,090924,,,A*78
$GPGGA,232706.500,4305.2946,N,07740.1796,W,1,06,1.54,27.9,M,-34.4,M,,*6B
lng=-77.669700, lat=43.088222, altitude=27.90, speed=29.86, satellites=6, angle=61.4000, fixquality=1
$GPRMC,232706.750,A,4305.2956,N,07740.1771,W,29.88,61.48,090924,,,A*74
$GPGGA,232707.000,4305.2966,N,07740.1745,W,1,06,1.54,27.9,M,-34.4,M,,*63
lng=-77.669624, lat=43.088256, altitude=27.90, speed=29.88, satellites=6, angle=61.4800, fixquality=1
$GPRMC,232707.250,A,4305.2976,N,07740.1720,W,30.09,61.35,090924,,,A*7D
$GPGGA,232707.500,4305.2987,N,07740.1695,W,1,06,1.52,27.9,M,-34.4,M,,*63
lng=-77.669532, lat=43.088291, altitude=27.90, speed=30.09, satellites=6, angle=61.3500, fixquality=1
$GPRMC,232707.750,A,4305.2997,N,07740.1670,W,30.23,60.76,090924,,,A*7D
$GPGGA,232708.000,4305.3008,N,07740.1644,W,1,06,1.54,28.0,M,-34.4,M,,*6A
lng=-77.669448, lat=43.088329, altitude=27.90, speed=30.23, satellites=6, angle=60.7600, fixquality=1
$GPRMC,232708.250,A,4305.3018,N,07740.1618,W,30.55,60.58,090924,,,A*7B
$GPGGA,232708.500,4305.3028,N,07740.1592,W,1,06,1.52,28.0,M,-34.4,M,,*63
lng=-77.669357, lat=43.088363, altitude=28.00, speed=30.55, satellites=6, angle=60.5800, fixquality=1
$GPRMC,232708.750,A,4305.3039,N,07740.1567,W,30.51,60.73,090924,,,A*7B
$GPGGA,232709.000,4305.3048,N,07740.1542,W,1,06,1.52,28.0,M,-34.4,M,,*6C
lng=-77.669281, lat=43.088394, altitude=28.00, speed=30.51, satellites=6, angle=60.7300, fixquality=1
$GPRMC,232709.250,A,4305.3059,N,07740.1516,W,30.25,60.60,090924,,,A*7E
$GPGGA,232709.500,4305.3069,N,07740.1491,W,1,06,1.52,28.1,M,-34.4,M,,*64
lng=-77.669189, lat=43.088428, altitude=28.00, speed=30.25, satellites=6, angle=60.6000, fixquality=1
$GPRMC,232709.750,A,4305.3080,N,07740.1467,W,30.03,60.35,090924,,,A*7C
$GPGGA,232710.000,4305.3090,N,07740.1443,W,1,06,1.54,28.1,M,-34.4,M,,*66
