Vers 72
USE_SERIAL_FEEDBACK=true
DEVELOPMENT_MODE=false
USE_RMC_ONLY=false

$GPRMC,224159.000,A,4305.1575,N,07740.8543,W,0.01,256.69,110924,,,A*7F
$GPGGA,224159.250,4305.1574,N,07740.8543,W,1,05,2.38,195.2,M,-34.4,M,,*56
lng=-77.680908, lat=43.085960, altitude=192.40, speed=0.01, satellites=5, angle=256.6900, fixquality=1
$GPRMC,224159.500,A,4305.1574,N,07740.8543,W,0.03,64.65,110924,,,A*46
$GPGGA,224159.750,4305.1574,N,07740.8543,W,1,05,2.37,195.2,M,-34.4,M,,*5C
lng=-77.680908, lat=43.085952, altitude=195.20, speed=0.03, satellites=5, angle=64.6500, fixquality=1
$GPGGA,224226.750,4305.1585,N,07740.8548,W,1,08,0.98,191.9,M,-34.4,M,,*57
$GPRMC,224226.750,A,4305.1585,N,07740.8548,W,0.07,187.04,110924,,,A*70
lng=-77.680915, lat=43.085979, altitude=191.90, speed=0.03, satellites=8, angle=49.3000, fixquality=1
$GPGGA,224227.000,4305.1585,N,07740.8548,W,1,08,0.98,191.7,M,-34.4,M,,*5A
$GPRMC,224227.000,A,4305.1585,N,07740.8548,W,0.04,323.95,110924,,,A*74
lng=-77.680915, lat=43.085979, altitude=191.70, speed=0.07, satellites=8, angle=187.0400, fixquality=1
$GPRMC,224233.250,A,4305.1593,N,07740.8548,W,2.93,349.30,110924,,,A*7E
$GPGGA,224233.500,4305.1595,N,07740.8549,W,1,08,1.01,191.1,M,-34.4,M,,*5D
lng=-77.680915, lat=43.085987, altitude=191.10, speed=2.93, satellites=8, angle=349.3000, fixquality=1
$GPRMC,224233.750,A,4305.1597,N,07740.8550,W,3.43,345.45,110924,,,A*74
$GPGGA,224234.000,4305.1600,N,07740.8550,W,1,08,1.01,190.8,M,-34.4,M,,*50
lng=-77.680915, lat=43.085994, altitude=191.10, speed=3.43, satellites=8, angle=345.4500, fixquality=1
$GPRMC,224234.250,A,4305.1604,N,07740.8551,W,3.78,351.53,110924,,,A*74
$GPGGA,224234.500,4305.1607,N,07740.8551,W,1,08,1.01,190.5,M,-34.4,M,,*5E
lng=-77.680915, lat=43.086002, altitude=190.80, speed=3.78, satellites=8, angle=351.5300, fixquality=1
$GPRMC,224234.750,A,4305.1610,N,07740.8551,W,4.04,359.66,110924,,,A*76
$GPGGA,224235.000,4305.1613,N,07740.8551,W,1,08,1.01,190.3,M,-34.4,M,,*59
lng=-77.680915, lat=43.086017, altitude=190.50, speed=4.04, satellites=8, angle=359.6600, fixquality=1
$GPRMC,224235.250,A,4305.1615,N,07740.8550,W,3.91,18.32,110924,,,A*4A
$GPGGA,224235.500,4305.1618,N,07740.8548,W,1,08,1.01,190.2,M,-34.4,M,,*5E
lng=-77.680915, lat=43.086025, altitude=190.30, speed=3.91, satellites=8, angle=18.3200, fixquality=1
$GPRMC,224235.750,A,4305.1619,N,07740.8546,W,3.55,42.27,110924,,,A*47
$GPGGA,224236.000,4305.1621,N,07740.8544,W,1,08,0.98,190.0,M,-34.4,M,,*5D
lng=-77.680908, lat=43.086036, altitude=190.20, speed=3.55, satellites=8, angle=42.2700, fixquality=1
$GPRMC,224236.250,A,4305.1622,N,07740.8542,W,2.58,47.51,110924,,,A*45
$GPGGA,224236.500,4305.1623,N,07740.8541,W,1,08,0.98,189.9,M,-34.4,M,,*5E
lng=-77.680900, lat=43.086036, altitude=190.00, speed=2.58, satellites=8, angle=47.5100, fixquality=1
$GPRMC,224236.750,A,4305.1622,N,07740.8542,W,0.33,60.93,110924,,,A*44
$GPGGA,224237.000,4305.1622,N,07740.8543,W,1,08,0.98,189.7,M,-34.4,M,,*57
lng=-77.680900, lat=43.086036, altitude=189.90, speed=0.33, satellites=8, angle=60.9300, fixquality=1
$GPGGA,224238.250,4305.1619,N,07740.8554,W,1,08,0.98,189.4,M,-34.4,M,,*52
$GPRMC,224238.250,A,4305.1619,N,07740.8554,W,3.00,242.63,110924$GPGGA,224238.500,4305.1618,N,07740.8557,W,1,08,0.98,189.3,M,-34.4,M,,*55
lng=-77.680923, lat=43.086036, altitude=189.40, speed=2.24, satellites=8, angle=240.3700, fixquality=1
$GPRMC,224238.750,A,4305.1617,N,07740.8561,W,3.99,252.96,110924,,,A*78
$GPGGA,224239.000,4305.1617,N,07740.8565,W,1,08,1.01,189.3,M,-34.4,M,,*5E
lng=-77.680931, lat=43.086025, altitude=189.40, speed=3.99, satellites=8, angle=252.9600, fixquality=1
$GPRMC,224239.250,A,4305.1616,N,07740.8570,W,4.73,256.29,110924,,,A*7E
$GPGGA,224239.500,4305.1616,N,07740.8575,W,1,08,1.01,189.3,M,-34.4,M,,*5B
lng=-77.680946, lat=43.086025, altitude=189.30, speed=4.73, satellites=8, angle=256.2900, fixquality=1
$GPRMC,224239.750,A,4305.1616,N,07740.8581,W,5.75,262.36,110924,,,A*7B
$GPGGA,224240.000,4305.1616,N,07740.8587,W,1,08,1.01,189.3,M,-34.4,M,,*5D
lng=-77.680961, lat=43.086025, altitude=189.30, speed=5.75, satellites=8, angle=262.3600, fixquality=1
$GPRMC,224240.250,A,4305.1616,N,07740.8594,W,6.95,265.34,110924,,,A*7C
$GPGGA,224240.500,4305.1616,N,07740.8602,W,1,08,1.01,189.3,M,-34.4,M,,*56
lng=-77.680992, lat=43.086025, altitude=189.30, speed=6.95, satellites=8, angle=265.3400, fixquality=1
$GPRMC,224240.750,A,4305.1618,N,07740.8610,W,8.06,269.76,110924,,,A*76
$GPGGA,224241.000,4305.1618,N,07740.8618,W,1,08,1.01,189.3,M,-34.4,M,,*57
lng=-77.681015, lat=43.086025, altitude=189.30, speed=8.06, satellites=8, angle=269.7600, fixquality=1
$GPRMC,224241.250,A,4305.1620,N,07740.8626,W,8.50,272.11,110924,,,A*74
$GPGGA,224241.500,4305.1621,N,07740.8634,W,1,08,1.01,189.3,M,-34.4,M,,*56
lng=-77.681045, lat=43.086036, altitude=189.30, speed=8.50, satellites=8, angle=272.1100, fixquality=1
$GPRMC,224241.750,A,4305.1622,N,07740.8643,W,9.51,274.77,110924,,,A*76
$GPGGA,224242.000,4305.1624,N,07740.8652,W,1,08,1.01,189.2,M,-34.4,M,,*54
lng=-77.681068, lat=43.086036, altitude=189.30, speed=9.51, satellites=8, angle=274.7700, fixquality=1
$GPRMC,224242.250,A,4305.1625,N,07740.8662,W,10.63,276.63,110924,,,A*4A
$GPGGA,224242.500,4305.1629,N,07740.8673,W,1,08,1.01,189.2,M,-34.4,M,,*5F
lng=-77.681106, lat=43.086044, altitude=189.20, speed=10.63, satellites=8, angle=276.6300, fixquality=1
$GPRMC,224242.750,A,4305.1633,N,07740.8685,W,11.44,277.28,110924,,,A*4B
$GPGGA,224243.000,4305.1636,N,07740.8696,W,1,08,1.01,189.2,M,-34.4,M,,*5E
lng=-77.681144, lat=43.086051, altitude=189.20, speed=11.44, satellites=8, angle=277.2800, fixquality=1
$GPRMC,224243.250,A,4305.1638,N,07740.8707,W,11.96,276.65,110924,,,A*48
$GPGGA,224243.500,4305.1640,N,07740.8718,W,1,08,1.01,189.1,M,-34.4,M,,*5E
lng=-77.681175, lat=43.086059, altitude=189.20, speed=11.96, satellites=8, angle=276.6500, fixquality=1
$GPRMC,224243.750,A,4305.1642,N,07740.8729,W,12.29,275.28,110924,,,A*41
$GPGGA,224244.000,4305.1644,N,07740.8739,W,1,08,0.98,189.1,M,-34.4,M,,*5A
lng=-77.681221, lat=43.086067, altitude=189.10, speed=12.29, satellites=8, angle=275.2800, fixquality=1
$GPRMC,224244.250,A,4305.1645,N,07740.8750,W,12.28,273.47,110924,,,A*44
$GPGGA,224244.500,4305.1645,N,07740.8761,W,1,08,1.01,189.0,M,-34.4,M,,*53
lng=-77.681251, lat=43.086074, altitude=189.10, speed=12.28, satellites=8, angle=273.4700, fixquality=1
$GPRMC,224244.750,A,4305.1646,N,07740.8772,W,12.03,270.40,110924,,,A*4F
$GPGGA,224245.000,4305.1647,N,07740.8783,W,1,08,1.01,188.9,M,-34.4,M,,*51
lng=-77.681282, lat=43.086074, altitude=189.00, speed=12.03, satellites=8, angle=270.4000, fixquality=1
$GPRMC,224245.250,A,4305.1648,N,07740.8793,W,11.56,271.11,110924,,,A*4C
$GPGGA,224245.500,4305.1649,N,07740.8804,W,1,08,1.01,188.9,M,-34.4,M,,*5A
lng=-77.681320, lat=43.086082, altitude=188.90, speed=11.56, satellites=8, angle=271.1100, fixquality=1
$GPRMC,224245.750,A,4305.1650,N,07740.8813,W,10.87,273.54,110924,,,A*49
$GPGGA,224246.000,4305.1653,N,07740.8822,W,1,08,0.98,188.7,M,-34.4,M,,*5C
lng=-77.681358, lat=43.086082, altitude=188.90, speed=10.87, satellites=8, angle=273.5400, fixquality=1
$GPRMC,224246.250,A,4305.1656,N,07740.8832,W,10.76,277.13,110924,,,A*43
$GPGGA,224246.500,4305.1659,N,07740.8841,W,1,08,1.01,188.5,M,-34.4,M,,*55
lng=-77.681388, lat=43.086093, altitude=188.70, speed=10.76, satellites=8, angle=277.1300, fixquality=1
$GPRMC,224246.750,A,4305.1663,N,07740.8850,W,10.40,285.81,110924,,,A*47
$GPGGA,224247.000,4305.1668,N,07740.8859,W,1,08,0.98,188.3,M,-34.4,M,,*5D
lng=-77.681411, lat=43.086109, altitude=188.50, speed=10.40, satellites=8, angle=285.8100, fixquality=1
$GPRMC,224247.250,A,4305.1672,N,07740.8867,W,10.38,296.23,110924,,,A*42
$GPGGA,224247.500,4305.1678,N,07740.8874,W,1,08,1.01,188.0,M,-34.4,M,,*54
lng=-77.681442, lat=43.086116, altitude=188.30, speed=10.38, satellites=8, angle=296.2300, fixquality=1
$GPRMC,224247.750,A,4305.1684,N,07740.8880,W,9.84,312.61,110924,,,A*73
$GPGGA,224248.000,4305.1690,N,07740.8885,W,1,08,1.01,187.9,M,-34.4,M,,*50
lng=-77.681472, lat=43.086139, altitude=188.00, speed=9.84, satellites=8, angle=312.6100, fixquality=1
$GPRMC,224248.250,A,4305.1698,N,07740.8889,W,9.97,326.87,110924,,,A*70
$GPGGA,224248.500,4305.1708,N,07740.8891,W,1,08,1.01,187.4,M,-34.4,M,,*5D
lng=-77.681480, lat=43.086166, altitude=187.90, speed=9.97, satellites=8, angle=326.8700, fixquality=1
$GPRMC,224248.750,A,4305.1717,N,07740.8893,W,11.19,343.86,110924,,,A*45
$GPGGA,224249.000,4305.1726,N,07740.8894,W,1,08,0.98,187.2,M,-34.4,M,,*57
lng=-77.681488, lat=43.086196, altitude=187.40, speed=11.19, satellites=8, angle=343.8600, fixquality=1
$GPRMC,224249.250,A,4305.1735,N,07740.8895,W,11.60,353.96,110924,,,A*49
$GPGGA,224249.500,4305.1746,N,07740.8894,W,1,08,1.01,186.9,M,-34.4,M,,*5F
lng=-77.681495, lat=43.086223, altitude=187.20, speed=11.60, satellites=8, angle=353.9600, fixquality=1
$GPRMC,224249.750,A,4305.1757,N,07740.8894,W,13.15,359.16,110924,,,A*4B
$GPGGA,224250.000,4305.1767,N,07740.8893,W,1,08,1.01,186.6,M,-34.4,M,,*59
lng=-77.681488, lat=43.086261, altitude=186.90, speed=13.15, satellites=8, angle=359.1600, fixquality=1
$GPRMC,224250.250,A,4305.1780,N,07740.8892,W,14.12,0.13,110924,,,A*40
$GPGGA,224250.500,4305.1792,N,07740.8890,W,1,08,1.01,186.2,M,-34.4,M,,*51
lng=-77.681488, lat=43.086303, altitude=186.60, speed=14.12, satellites=8, angle=0.1300, fixquality=1
$GPRMC,224250.750,A,4305.1804,N,07740.8888,W,15.52,1.33,110924,,,A*4B
$GPGGA,224251.000,4305.1815,N,07740.8886,W,1,08,1.01,185.8,M,-34.4,M,,*5B
lng=-77.681480, lat=43.086338, altitude=186.20, speed=15.52, satellites=8, angle=1.3300, fixquality=1
$GPRMC,224251.250,A,4305.1827,N,07740.8884,W,17.00,2.18,110924,,,A*4D
$GPGGA,224251.500,4305.1840,N,07740.8882,W,1,08,1.01,185.5,M,-34.4,M,,*57
lng=-77.681472, lat=43.086376, altitude=185.80, speed=17.00, satellites=8, angle=2.1800, fixquality=1
$GPRMC,224251.750,A,4305.1854,N,07740.8880,W,18.49,2.30,110924,,,A*40
$GPGGA,224252.000,4305.1868,N,07740.8878,W,1,08,1.01,185.2,M,-34.4,M,,*59
lng=-77.681472, lat=43.086425, altitude=185.50, speed=18.49, satellites=8, angle=2.3000, fixquality=1
$GPRMC,224252.250,A,4305.1883,N,07740.8877,W,19.83,1.22,110924,,,A*43
$GPGGA,224252.500,4305.1899,N,07740.8876,W,1,08,1.01,185.0,M,-34.4,M,,*5E
lng=-77.681465, lat=43.086475, altitude=185.20, speed=19.83, satellites=8, angle=1.2200, fixquality=1
$GPRMC,224252.750,A,4305.1915,N,07740.8875,W,21.05,0.69,110924,,,A*41
$GPGGA,224253.000,4305.1931,N,07740.8873,W,1,08,1.01,184.7,M,-34.4,M,,*5A
lng=-77.681465, lat=43.086524, altitude=185.00, speed=21.05, satellites=8, angle=0.6900, fixquality=1
$GPRMC,224253.250,A,4305.1948,N,07740.8873,W,22.16,0.21,110924,,,A*46
$GPGGA,224253.500,4305.1965,N,07740.8874,W,1,08,1.01,184.5,M,-34.4,M,,*5B
lng=-77.681449, lat=43.086582, altitude=184.70, speed=22.16, satellites=8, angle=0.2100, fixquality=1
$GPRMC,224253.750,A,4305.1982,N,07740.8874,W,23.05,359.53,110924,,,A*4B
$GPGGA,224254.000,4305.1998,N,07740.8874,W,1,08,1.01,184.2,M,-34.4,M,,*5C
lng=-77.681449, lat=43.086635, altitude=184.50, speed=23.05, satellites=8, angle=359.5300, fixquality=1
$GPRMC,224254.250,A,4305.2015,N,07740.8874,W,23.50,359.56,110924,,,A*48
$GPGGA,224254.500,4305.2032,N,07740.8875,W,1,08,1.01,183.9,M,-34.4,M,,*5E
lng=-77.681449, lat=43.086692, altitude=184.20, speed=23.50, satellites=8, angle=359.5600, fixquality=1
$GPRMC,224254.750,A,4305.2050,N,07740.8875,W,23.75,359.34,110924,,,A*4E
$GPGGA,224255.000,4305.2067,N,07740.8875,W,1,08,1.01,183.6,M,-34.4,M,,*55
lng=-77.681465, lat=43.086750, altitude=183.90, speed=23.75, satellites=8, angle=359.3400, fixquality=1
$GPRMC,224255.250,A,4305.2086,N,07740.8875,W,24.15,358.98,110924,,,A*47
$GPGGA,224255.500,4305.2103,N,07740.8876,W,1,08,1.01,183.3,M,-34.4,M,,*55
lng=-77.681465, lat=43.086807, altitude=183.60, speed=24.15, satellites=8, angle=358.9800, fixquality=1
$GPRMC,224255.750,A,4305.2121,N,07740.8877,W,24.27,358.05,110924,,,A*49
$GPGGA,224256.000,4305.2139,N,07740.8878,W,1,08,1.01,183.0,M,-34.4,M,,*57
lng=-77.681465, lat=43.086864, altitude=183.30, speed=24.27, satellites=8, angle=358.0500, fixquality=1
$GPRMC,224256.250,A,4305.2156,N,07740.8880,W,24.12,356.73,110924,,,A*4E
$GPGGA,224256.500,4305.2173,N,07740.8881,W,1,08,1.01,182.6,M,-34.4,M,,*5D
lng=-77.681472, lat=43.086929, altitude=183.00, speed=24.12, satellites=8, angle=356.7300, fixquality=1
$GPRMC,224256.750,A,4305.2190,N,07740.8883,W,23.75,355.16,110924,,,A*44
$GPGGA,224257.000,4305.2207,N,07740.8884,W,1,08,1.01,182.2,M,-34.4,M,,*58
lng=-77.681472, lat=43.086986, altitude=182.60, speed=23.75, satellites=8, angle=355.1600, fixquality=1
$GPRMC,224257.250,A,4305.2223,N,07740.8887,W,23.00,353.98,110924,,,A*4D
$GPGGA,224257.500,4305.2239,N,07740.8889,W,1,08,1.01,181.7,M,-34.4,M,,*5B
lng=-77.681480, lat=43.087036, altitude=182.20, speed=23.00, satellites=8, angle=353.9800, fixquality=1
$GPRMC,224257.750,A,4305.2254,N,07740.8892,W,21.96,352.57,110924,,,A*43
$GPGGA,224258.000,4305.2269,N,07740.8894,W,1,08,1.01,181.2,M,-34.4,M,,*5D
lng=-77.681488, lat=43.087093, altitude=181.70, speed=21.96, satellites=8, angle=352.5700, fixquality=1
$GPRMC,224258.250,A,4305.2284,N,07740.8897,W,20.80,352.39,110924,,,A*4F
$GPGGA,224258.500,4305.2297,N,07740.8899,W,1,08,1.01,180.8,M,-34.4,M,,*5F
lng=-77.681495, lat=43.087142, altitude=181.20, speed=20.80, satellites=8, angle=352.3900, fixquality=1
$GPRMC,224258.750,A,4305.2309,N,07740.8900,W,18.05,354.13,110924,,,A*49
$GPGGA,224259.000,4305.2321,N,07740.8902,W,1,08,1.01,180.5,M,-34.4,M,,*59
lng=-77.681503, lat=43.087181, altitude=180.80, speed=18.05, satellites=8, angle=354.1300, fixquality=1
$GPRMC,224259.250,A,4305.2333,N,07740.8904,W,16.36,352.98,110924,,,A*4B
$GPGGA,224259.500,4305.2343,N,07740.8906,W,1,08,1.01,180.4,M,-34.4,M,,*5D
lng=-77.681510, lat=43.087223, altitude=180.50, speed=16.36, satellites=8, angle=352.9800, fixquality=1
$GPRMC,224259.750,A,4305.2354,N,07740.8907,W,14.39,352.39,110924,,,A*4A
$GPGGA,224300.000,4305.2365,N,07740.8908,W,1,08,1.01,180.3,M,-34.4,M,,*58
lng=-77.681510, lat=43.087257, altitude=180.40, speed=14.39, satellites=8, angle=352.3900, fixquality=1
$GPRMC,224300.250,A,4305.2375,N,07740.8909,W,12.69,353.72,110924,,,A*42
$GPGGA,224300.500,4305.2383,N,07740.8910,W,1,08,1.01,180.1,M,-34.4,M,,*5E
lng=-77.681518, lat=43.087287, altitude=180.30, speed=12.69, satellites=8, angle=353.7200, fixquality=1
$GPRMC,224300.750,A,4305.2387,N,07740.8910,W,8.59,355.56,110924,,,A*7A
$GPGGA,224301.000,4305.2392,N,07740.8910,W,1,08,1.01,180.7,M,-34.4,M,,*5C
lng=-77.681518, lat=43.087314, altitude=180.10, speed=8.59, satellites=8, angle=355.5600, fixquality=1
$GPRMC,224301.250,A,4305.2397,N,07740.8911,W,6.17,350.60,110924,,,A*7A
$GPGGA,224301.500,4305.2401,N,07740.8911,W,1,08,1.01,180.6,M,-34.4,M,,*54
lng=-77.681518, lat=43.087329, altitude=180.70, speed=6.17, satellites=8, angle=350.6000, fixquality=1
$GPRMC,224301.750,A,4305.2404,N,07740.8911,W,5.29,355.94,110924,,,A*72
$GPGGA,224302.000,4305.2407,N,07740.8910,W,1,08,1.01,180.4,M,-34.4,M,,*57
lng=-77.681518, lat=43.087337, altitude=180.60, speed=5.29, satellites=8, angle=355.9400, fixquality=1
$GPRMC,224302.250,A,4305.2410,N,07740.8910,W,4.97,357.34,110924,,,A*7C
$GPGGA,224302.500,4305.2413,N,07740.8909,W,1,08,1.01,180.4,M,-34.4,M,,*5F
lng=-77.681518, lat=43.087352, altitude=180.40, speed=4.97, satellites=8, angle=357.3400, fixquality=1
$GPRMC,224302.750,A,4305.2416,N,07740.8909,W,4.64,357.78,110924,,,A*73
$GPGGA,224303.000,4305.2419,N,07740.8908,W,1,08,1.01,180.4,M,-34.4,M,,*50
lng=-77.681518, lat=43.087360, altitude=180.40, speed=4.64, satellites=8, angle=357.7800, fixquality=1
$GPRMC,224303.250,A,4305.2423,N,07740.8908,W,4.27,356.40,110924,,,A*7D
$GPGGA,224303.500,4305.2426,N,07740.8908,W,1,08,1.01,180.3,M,-34.4,M,,*5E
lng=-77.681510, lat=43.087368, altitude=180.40, speed=4.27, satellites=8, angle=356.4000, fixquality=1
$GPRMC,224303.750,A,4305.2429,N,07740.8908,W,4.31,1.66,110924,,,A*70
$GPGGA,224304.000,4305.2433,N,07740.8907,W,1,08,1.01,180.2,M,-34.4,M,,*56
lng=-77.681510, lat=43.087379, altitude=180.30, speed=4.31, satellites=8, angle=1.6600, fixquality=1
$GPRMC,224304.250,A,4305.2437,N,07740.8906,W,4.91,5.17,110924,,,A*7B
$GPGGA,224304.500,4305.2442,N,07740.8904,W,1,08,1.01,180.0,M,-34.4,M,,*54
lng=-77.681510, lat=43.087394, altitude=180.20, speed=4.91, satellites=8, angle=5.1700, fixquality=1
$GPRMC,224304.750,A,4305.2447,N,07740.8901,W,6.13,15.64,110924,,,A*43
$GPGGA,224305.000,4305.2453,N,07740.8897,W,1,08,0.98,179.9,M,-34.4,M,,*55
lng=-77.681503, lat=43.087409, altitude=180.00, speed=6.13, satellites=8, angle=15.6400, fixquality=1
$GPRMC,224305.250,A,4305.2458,N,07740.8893,W,7.26,29.69,110924,,,A*46
$GPGGA,224305.500,4305.2464,N,07740.8886,W,1,08,1.01,180.0,M,-34.4,M,,*5A
lng=-77.681488, lat=43.087425, altitude=179.90, speed=7.26, satellites=8, angle=29.6900, fixquality=1
$GPRMC,224305.750,A,4305.2470,N,07740.8879,W,9.00,39.02,110924,,,A*4B
$GPGGA,224306.000,4305.2475,N,07740.8871,W,1,08,0.98,179.8,M,-34.4,M,,*5B
lng=-77.681465, lat=43.087451, altitude=180.00, speed=9.00, satellites=8, angle=39.0200, fixquality=1
$GPRMC,224306.250,A,4305.2481,N,07740.8861,W,11.44,46.69,110924,,,A*76
$GPGGA,224306.500,4305.2486,N,07740.8852,W,1,08,1.01,179.6,M,-34.4,M,,*5C
lng=-77.681434, lat=43.087467, altitude=179.80, speed=11.44, satellites=8, angle=46.6900, fixquality=1
$GPRMC,224306.750,A,4305.2490,N,07740.8839,W,13.62,56.75,110924,,,A*74
$GPGGA,224307.000,4305.2495,N,07740.8827,W,1,08,1.01,179.5,M,-34.4,M,,*5B
lng=-77.681396, lat=43.087482, altitude=179.60, speed=13.62, satellites=8, angle=56.7500, fixquality=1
$GPRMC,224307.250,A,4305.2500,N,07740.8810,W,14.97,60.28,110924,,,A*73
$GPGGA,224307.500,4305.2501,N,07740.8795,W,1,08,1.01,179.3,M,-34.4,M,,*52
lng=-77.681350, lat=43.087501, altitude=179.50, speed=14.97, satellites=8, angle=60.2800, fixquality=1
$GPRMC,224307.750,A,4305.2505,N,07740.8778,W,16.50,66.31,110924,,,A*75
$GPGGA,224308.000,4305.2509,N,07740.8762,W,1,08,1.01,179.2,M,-34.4,M,,*59
lng=-77.681297, lat=43.087509, altitude=179.30, speed=16.50, satellites=8, angle=66.3100, fixquality=1
$GPRMC,224308.250,A,4305.2513,N,07740.8745,W,17.45,70.28,110924,,,A*7C
$GPGGA,224308.500,4305.2517,N,07740.8727,W,1,08,1.01,179.1,M,-34.4,M,,*51
lng=-77.681243, lat=43.087524, altitude=179.20, speed=17.45, satellites=8, angle=70.2800, fixquality=1
$GPRMC,224308.750,A,4305.2521,N,07740.8709,W,18.65,72.75,110924,,,A*77
$GPGGA,224309.000,4305.2525,N,07740.8690,W,1,08,1.01,179.0,M,-34.4,M,,*58
lng=-77.681182, lat=43.087532, altitude=179.10, speed=18.65, satellites=8, angle=72.7500, fixquality=1
$GPRMC,224309.250,A,4305.2529,N,07740.8669,W,20.00,74.55,110924,,,A*70
$GPGGA,224309.500,4305.2531,N,07740.8649,W,1,08,1.01,179.1,M,-34.4,M,,*5D
lng=-77.681114, lat=43.087547, altitude=179.00, speed=20.00, satellites=8, angle=74.5500, fixquality=1
$GPRMC,224309.750,A,4305.2534,N,07740.8628,W,21.42,76.41,110924,,,A*7C
$GPGGA,224310.000,4305.2537,N,07740.8607,W,1,08,1.01,179.1,M,-34.4,M,,*5C
lng=-77.681045, lat=43.087558, altitude=179.10, speed=21.42, satellites=8, angle=76.4100, fixquality=1
$GPRMC,224310.250,A,4305.2541,N,07740.8584,W,22.67,77.52,110924,,,A*71
$GPGGA,224310.500,4305.2544,N,07740.8561,W,1,08,1.01,179.1,M,-34.4,M,,*5E
lng=-77.680976, lat=43.087566, altitude=179.10, speed=22.67, satellites=8, angle=77.5200, fixquality=1
$GPRMC,224310.750,A,4305.2547,N,07740.8538,W,23.77,78.52,110924,,,A*7A
$GPGGA,224311.000,4305.2550,N,07740.8514,W,1,08,0.98,179.0,M,-34.4,M,,*5D
lng=-77.680900, lat=43.087581, altitude=179.10, speed=23.77, satellites=8, angle=78.5200, fixquality=1
$GPRMC,224311.250,A,4305.2553,N,07740.8490,W,24.52,79.55,110924,,,A*7E
$GPGGA,224311.500,4305.2555,N,07740.8467,W,1,08,1.01,178.9,M,-34.4,M,,*51
lng=-77.680816, lat=43.087589, altitude=179.00, speed=24.52, satellites=8, angle=79.5500, fixquality=1
$GPRMC,224311.750,A,4305.2558,N,07740.8443,W,25.12,80.25,110924,,,A*7A
$GPGGA,224312.000,4305.2562,N,07740.8419,W,1,08,1.01,178.8,M,-34.4,M,,*5B
lng=-77.680740, lat=43.087596, altitude=178.90, speed=25.12, satellites=8, angle=80.2500, fixquality=1
$GPRMC,224312.250,A,4305.2565,N,07740.8395,W,25.31,79.84,110924,,,A*72
$GPGGA,224312.500,4305.2569,N,07740.8371,W,1,08,1.01,178.9,M,-34.4,M,,*5D
lng=-77.680656, lat=43.087604, altitude=178.80, speed=25.31, satellites=8, angle=79.8400, fixquality=1
$GPRMC,224312.750,A,4305.2573,N,07740.8347,W,25.23,79.42,110924,,,A*76
$GPGGA,224313.000,4305.2577,N,07740.8324,W,1,08,0.98,178.8,M,-34.4,M,,*56
lng=-77.680572, lat=43.087623, altitude=178.90, speed=25.23, satellites=8, angle=79.4200, fixquality=1
$GPRMC,224313.250,A,4305.2580,N,07740.8300,W,25.13,79.92,110924,,,A*73
$GPGGA,224313.500,4305.2583,N,07740.8276,W,1,08,1.01,178.7,M,-34.4,M,,*50
lng=-77.680503, lat=43.087631, altitude=178.80, speed=25.13, satellites=8, angle=79.9200, fixquality=1
$GPRMC,224313.750,A,4305.2586,N,07740.8252,W,25.06,80.76,110924,,,A*7E
$GPGGA,224314.000,4305.2589,N,07740.8228,W,1,08,1.01,178.6,M,-34.4,M,,*52
lng=-77.680419, lat=43.087646, altitude=178.70, speed=25.06, satellites=8, angle=80.7600, fixquality=1
$GPRMC,224314.250,A,4305.2591,N,07740.8204,W,25.01,82.26,110924,,,A*79
$GPGGA,224314.500,4305.2593,N,07740.8181,W,1,08,1.01,178.4,M,-34.4,M,,*5E
lng=-77.680335, lat=43.087654, altitude=178.60, speed=25.01, satellites=8, angle=82.2600, fixquality=1
$GPRMC,224314.750,A,4305.2594,N,07740.8158,W,24.70,83.89,110924,,,A*70
$GPGGA,224315.000,4305.2594,N,07740.8134,W,1,08,0.98,178.2,M,-34.4,M,,*54
lng=-77.680267, lat=43.087654, altitude=178.40, speed=24.70, satellites=8, angle=83.8900, fixquality=1
$GPRMC,224315.250,A,4305.2594,N,07740.8112,W,24.48,85.45,110924,,,A*77
$GPGGA,224315.500,4305.2594,N,07740.8089,W,1,08,1.01,178.0,M,-34.4,M,,*55
lng=-77.680183, lat=43.087654, altitude=178.20, speed=24.48, satellites=8, angle=85.4500, fixquality=1
$GPRMC,224315.750,A,4305.2594,N,07740.8066,W,24.41,87.07,110924,,,A*7D
$GPGGA,224316.000,4305.2593,N,07740.8043,W,1,08,1.01,177.8,M,-34.4,M,,*55
lng=-77.680107, lat=43.087654, altitude=178.00, speed=24.41, satellites=8, angle=87.0700, fixquality=1
$GPRMC,224316.250,A,4305.2593,N,07740.8021,W,24.01,87.53,110924,,,A*7A
$GPGGA,224316.500,4305.2593,N,07740.7999,W,1,08,1.01,177.6,M,-34.4,M,,*5F
lng=-77.680038, lat=43.087654, altitude=177.80, speed=24.01, satellites=8, angle=87.5300, fixquality=1
$GPRMC,224316.750,A,4305.2593,N,07740.7977,W,23.31,88.38,110924,,,A*7C
$GPGGA,224317.000,4305.2593,N,07740.7956,W,1,08,1.01,177.4,M,-34.4,M,,*5A
lng=-77.679962, lat=43.087654, altitude=177.60, speed=23.31, satellites=8, angle=88.3800, fixquality=1
$GPRMC,224317.250,A,4305.2593,N,07740.7935,W,22.82,88.23,110924,,,A*7D
$GPGGA,224317.500,4305.2592,N,07740.7914,W,1,08,1.01,177.2,M,-34.4,M,,*5E
lng=-77.679893, lat=43.087654, altitude=177.40, speed=22.82, satellites=8, angle=88.2300, fixquality=1
$GPRMC,224317.750,A,4305.2592,N,07740.7893,W,22.32,88.47,110924,,,A*7D
$GPGGA,224318.000,4305.2592,N,07740.7872,W,1,08,1.01,177.0,M,-34.4,M,,*57
lng=-77.679817, lat=43.087654, altitude=177.20, speed=22.32, satellites=8, angle=88.4700, fixquality=1
$GPRMC,224318.250,A,4305.2591,N,07740.7852,W,22.10,89.17,110924,,,A*7D
$GPGGA,224318.500,4305.2591,N,07740.7832,W,1,08,1.01,176.7,M,-34.4,M,,*53
lng=-77.679756, lat=43.087654, altitude=177.00, speed=22.10, satellites=8, angle=89.1700, fixquality=1
$GPRMC,224318.750,A,4305.2591,N,07740.7812,W,21.47,89.98,110924,,,A*7A
$GPGGA,224319.000,4305.2591,N,07740.7792,W,1,08,1.01,176.4,M,-34.4,M,,*51
lng=-77.679687, lat=43.087654, altitude=176.70, speed=21.47, satellites=8, angle=89.9800, fixquality=1
$GPRMC,224319.250,A,4305.2590,N,07740.7773,W,20.52,90.89,110924,,,A*7A
$GPGGA,224319.500,4305.2590,N,07740.7756,W,1,08,1.01,176.0,M,-34.4,M,,*59
lng=-77.679618, lat=43.087646, altitude=176.40, speed=20.52, satellites=8, angle=90.8900, fixquality=1
$GPRMC,224319.750,A,4305.2590,N,07740.7739,W,18.83,91.53,110924,,,A*70
$GPGGA,224320.000,4305.2589,N,07740.7723,W,1,08,1.01,175.8,M,-34.4,M,,*57
lng=-77.679565, lat=43.087646, altitude=176.00, speed=18.83, satellites=8, angle=91.5300, fixquality=1
$GPRMC,224320.250,A,4305.2589,N,07740.7708,W,16.90,91.80,110924,,,A*77
$GPGGA,224320.500,4305.2589,N,07740.7694,W,1,08,1.01,175.5,M,-34.4,M,,*52
lng=-77.679519, lat=43.087646, altitude=175.80, speed=16.90, satellites=8, angle=91.8000, fixquality=1
$GPRMC,224320.750,A,4305.2587,N,07740.7681,W,14.61,92.84,110924,,,A*77
$GPGGA,224321.000,4305.2585,N,07740.7669,W,1,08,1.01,175.3,M,-34.4,M,,*5E
lng=-77.679466, lat=43.087646, altitude=175.50, speed=14.61, satellites=8, angle=92.8400, fixquality=1
$GPRMC,224321.250,A,4305.2583,N,07740.7658,W,12.79,94.18,110924,,,A*7F
$GPGGA,224321.500,4305.2582,N,07740.7647,W,1,08,1.01,175.0,M,-34.4,M,,*53
lng=-77.679428, lat=43.087638, altitude=175.30, speed=12.79, satellites=8, angle=94.1800, fixquality=1
$GPRMC,224321.750,A,4305.2580,N,07740.7637,W,10.97,97.02,110924,,,A*7A
$GPGGA,224322.000,4305.2578,N,07740.7627,W,1,08,0.98,174.8,M,-34.4,M,,*5E
lng=-77.679397, lat=43.087631, altitude=175.00, speed=10.97, satellites=8, angle=97.0200, fixquality=1
$GPRMC,224322.250,A,4305.2577,N,07740.7618,W,9.77,99.31,110924,,,A*41
$GPGGA,224322.500,4305.2575,N,07740.7609,W,1,08,1.01,174.5,M,-34.4,M,,*56
lng=-77.679359, lat=43.087631, altitude=174.80, speed=9.77, satellites=8, angle=99.3100, fixquality=1
$GPRMC,224322.750,A,4305.2574,N,07740.7601,W,9.02,100.36,110924,,,A*7B
$GPGGA,224323.000,4305.2573,N,07740.7593,W,1,08,1.01,174.2,M,-34.4,M,,*53
lng=-77.679336, lat=43.087623, altitude=174.50, speed=9.02, satellites=8, angle=100.3600, fixquality=1
$GPRMC,224323.250,A,4305.2572,N,07740.7585,W,8.92,98.17,110924,,,A*4D
$GPGGA,224323.500,4305.2571,N,07740.7577,W,1,08,1.01,174.0,M,-34.4,M,,*5C
lng=-77.679306, lat=43.087623, altitude=174.20, speed=8.92, satellites=8, angle=98.1700, fixquality=1
$GPRMC,224323.750,A,4305.2570,N,07740.7569,W,9.50,94.84,110924,,,A*41
$GPGGA,224324.000,4305.2569,N,07740.7559,W,1,08,1.01,173.8,M,-34.4,M,,*54
lng=-77.679283, lat=43.087612, altitude=174.00, speed=9.50, satellites=8, angle=94.8400, fixquality=1
$GPRMC,224324.250,A,4305.2569,N,07740.7549,W,10.73,93.43,110924,,,A*7C
$GPGGA,224324.500,4305.2568,N,07740.7538,W,1,08,1.01,173.7,M,-34.4,M,,*58
lng=-77.679244, lat=43.087612, altitude=173.80, speed=10.73, satellites=8, angle=93.4300, fixquality=1
$GPRMC,224324.750,A,4305.2567,N,07740.7526,W,12.35,91.35,110924,,,A*7D
$GPGGA,224325.000,4305.2567,N,07740.7513,W,1,08,1.01,173.6,M,-34.4,M,,*5B
lng=-77.679206, lat=43.087612, altitude=173.70, speed=12.35, satellites=8, angle=91.3500, fixquality=1
$GPRMC,224325.250,A,4305.2566,N,07740.7499,W,14.07,91.25,110924,,,A*7B
$GPGGA,224325.500,4305.2566,N,07740.7485,W,1,08,1.01,173.6,M,-34.4,M,,*51
lng=-77.679168, lat=43.087612, altitude=173.60, speed=14.07, satellites=8, angle=91.2500, fixquality=1
$GPRMC,224325.750,A,4305.2566,N,07740.7470,W,15.41,89.31,110924,,,A*76
$GPGGA,224326.000,4305.2566,N,07740.7454,W,1,08,1.01,173.5,M,-34.4,M,,*58
lng=-77.679115, lat=43.087612, altitude=173.60, speed=15.41, satellites=8, angle=89.3100, fixquality=1
$GPRMC,224326.250,A,4305.2566,N,07740.7438,W,16.75,88.22,110924,,,A*7B
$GPGGA,224326.500,4305.2567,N,07740.7421,W,1,08,1.01,173.4,M,-34.4,M,,*5F
lng=-77.679061, lat=43.087612, altitude=173.50, speed=16.75, satellites=8, angle=88.2200, fixquality=1
$GPRMC,224326.750,A,4305.2567,N,07740.7404,W,17.90,88.05,110924,,,A*7F
$GPGGA,224327.000,4305.2568,N,07740.7386,W,1,08,1.01,173.3,M,-34.4,M,,*59
lng=-77.679000, lat=43.087612, altitude=173.40, speed=17.90, satellites=8, angle=88.0500, fixquality=1
$GPRMC,224327.250,A,4305.2569,N,07740.7368,W,18.96,87.53,110924,,,A*7D
$GPGGA,224327.500,4305.2570,N,07740.7349,W,1,08,1.01,173.3,M,-34.4,M,,*56
lng=-77.678947, lat=43.087612, altitude=173.30, speed=18.96, satellites=8, angle=87.5300, fixquality=1
$GPRMC,224327.750,A,4305.2570,N,07740.7330,W,19.93,86.93,110924,,,A*74
$GPGGA,224328.000,4305.2571,N,07740.7311,W,1,08,1.01,173.2,M,-34.4,M,,*51
lng=-77.678878, lat=43.087612, altitude=173.30, speed=19.93, satellites=8, angle=86.9300, fixquality=1
$GPRMC,224328.250,A,4305.2572,N,07740.7291,W,20.68,86.95,110924,,,A*7E
$GPGGA,224328.500,4305.2573,N,07740.7271,W,1,08,1.01,173.2,M,-34.4,M,,*51
lng=-77.678817, lat=43.087623, altitude=173.20, speed=20.68, satellites=8, angle=86.9500, fixquality=1
$GPRMC,224328.750,A,4305.2574,N,07740.7251,W,21.58,87.14,110924,,,A*7B
$GPGGA,224329.000,4305.2575,N,07740.7230,W,1,08,1.01,173.1,M,-34.4,M,,*55
lng=-77.678749, lat=43.087623, altitude=173.20, speed=21.58, satellites=8, angle=87.1400, fixquality=1
$GPRMC,224329.250,A,4305.2576,N,07740.7209,W,22.31,88.02,110924,,,A*74
$GPGGA,224329.500,4305.2577,N,07740.7187,W,1,08,1.01,173.1,M,-34.4,M,,*5D
lng=-77.678680, lat=43.087631, altitude=173.10, speed=22.31, satellites=8, angle=88.0200, fixquality=1
$GPRMC,224329.750,A,4305.2577,N,07740.7165,W,23.09,88.29,110924,,,A*7A
$GPGGA,224330.000,4305.2578,N,07740.7143,W,1,08,1.01,173.0,M,-34.4,M,,*56
lng=-77.678604, lat=43.087631, altitude=173.10, speed=23.09, satellites=8, angle=88.2900, fixquality=1
$GPRMC,224330.250,A,4305.2578,N,07740.7120,W,23.89,88.71,110924,,,A*7C
$GPGGA,224330.500,4305.2579,N,07740.7097,W,1,08,1.01,172.9,M,-34.4,M,,*52
lng=-77.678535, lat=43.087631, altitude=173.00, speed=23.89, satellites=8, angle=88.7100, fixquality=1
$GPRMC,224330.750,A,4305.2579,N,07740.7073,W,24.69,88.30,110924,,,A*73
$GPGGA,224331.000,4305.2580,N,07740.7049,W,1,08,1.01,172.9,M,-34.4,M,,*53
lng=-77.678459, lat=43.087631, altitude=172.90, speed=24.69, satellites=8, angle=88.3000, fixquality=1
$GPRMC,224331.250,A,4305.2581,N,07740.7025,W,25.21,87.99,110924,,,A*72
$GPGGA,224331.500,4305.2582,N,07740.7001,W,1,08,1.01,172.8,M,-34.4,M,,*59
lng=-77.678375, lat=43.087638, altitude=172.90, speed=25.21, satellites=8, angle=87.9900, fixquality=1
$GPRMC,224331.750,A,4305.2583,N,07740.6977,W,25.59,87.84,110924,,,A*79
$GPGGA,224332.000,4305.2584,N,07740.6953,W,1,08,1.01,172.6,M,-34.4,M,,*58
lng=-77.678298, lat=43.087638, altitude=172.80, speed=25.59, satellites=8, angle=87.8400, fixquality=1
$GPRMC,224332.250,A,4305.2585,N,07740.6929,W,25.72,88.08,110924,,,A*70
$GPGGA,224332.500,4305.2585,N,07740.6904,W,1,08,1.01,172.3,M,-34.4,M,,*5B
lng=-77.678215, lat=43.087638, altitude=172.60, speed=25.72, satellites=8, angle=88.0800, fixquality=1
$GPRMC,224332.750,A,4305.2586,N,07740.6880,W,25.23,89.06,110924,,,A*7F
$GPGGA,224333.000,4305.2586,N,07740.6857,W,1,08,1.01,172.2,M,-34.4,M,,*5A
lng=-77.678131, lat=43.087646, altitude=172.30, speed=25.23, satellites=8, angle=89.0600, fixquality=1
$GPRMC,224333.250,A,4305.2587,N,07740.6833,W,25.16,89.48,110924,,,A*7E
$GPGGA,224333.500,4305.2587,N,07740.6809,W,1,08,1.01,172.1,M,-34.4,M,,*56
lng=-77.678054, lat=43.087646, altitude=172.20, speed=25.16, satellites=8, angle=89.4800, fixquality=1
$GPRMC,224333.750,A,4305.2587,N,07740.6786,W,24.73,89.60,110924,,,A*72
$GPGGA,224334.000,4305.2588,N,07740.6763,W,1,08,1.01,172.0,M,-34.4,M,,*59
lng=-77.677978, lat=43.087646, altitude=172.10, speed=24.73, satellites=8, angle=89.6000, fixquality=1
$GPRMC,224334.250,A,4305.2588,N,07740.6740,W,24.32,88.88,110924,,,A*77
$GPGGA,224334.500,4305.2588,N,07740.6717,W,1,08,1.01,171.9,M,-34.4,M,,*55
lng=-77.677894, lat=43.087646, altitude=172.00, speed=24.32, satellites=8, angle=88.8800, fixquality=1
$GPRMC,224334.750,A,4305.2589,N,07740.6694,W,24.10,88.67,110924,,,A*7A
$GPGGA,224335.000,4305.2589,N,07740.6672,W,1,08,1.01,171.9,M,-34.4,M,,*52
lng=-77.677825, lat=43.087646, altitude=171.90, speed=24.10, satellites=8, angle=88.6700, fixquality=1
$GPRMC,224335.250,A,4305.2590,N,07740.6649,W,23.68,88.63,110924,,,A*7A
$GPGGA,224335.500,4305.2590,N,07740.6627,W,1,08,1.01,172.0,M,-34.4,M,,*55
lng=-77.677749, lat=43.087646, altitude=171.90, speed=23.68, satellites=8, angle=88.6300, fixquality=1
$GPRMC,224335.750,A,4305.2590,N,07740.6605,W,23.28,88.50,110924,,,A*73
$GPGGA,224336.000,4305.2591,N,07740.6583,W,1,08,1.01,172.0,M,-34.4,M,,*5F
lng=-77.677680, lat=43.087646, altitude=172.00, speed=23.28, satellites=8, angle=88.5000, fixquality=1
$GPRMC,224336.250,A,4305.2591,N,07740.6562,W,22.94,89.15,110924,,,A*70
$GPGGA,224336.500,4305.2590,N,07740.6540,W,1,08,1.01,171.9,M,-34.4,M,,*5E
lng=-77.677604, lat=43.087654, altitude=172.00, speed=22.94, satellites=8, angle=89.1500, fixquality=1
$GPRMC,224336.750,A,4305.2590,N,07740.6518,W,22.54,88.68,110924,,,A*7E
$GPGGA,224337.000,4305.2590,N,07740.6497,W,1,08,1.01,171.7,M,-34.4,M,,*5F
lng=-77.677528, lat=43.087646, altitude=171.90, speed=22.54, satellites=8, angle=88.6800, fixquality=1
$GPRMC,224337.250,A,4305.2590,N,07740.6475,W,22.30,88.66,110924,,,A*7C
$GPGGA,224337.500,4305.2590,N,07740.6454,W,1,08,1.01,171.6,M,-34.4,M,,*54
lng=-77.677459, lat=43.087646, altitude=171.70, speed=22.30, satellites=8, angle=88.6600, fixquality=1
$GPRMC,224337.750,A,4305.2591,N,07740.6434,W,21.64,88.49,110924,,,A*72
$GPGGA,224338.000,4305.2592,N,07740.6414,W,1,08,1.01,171.0,M,-34.4,M,,*5E
lng=-77.677391, lat=43.087654, altitude=171.60, speed=21.64, satellites=8, angle=88.4900, fixquality=1
$GPRMC,224338.250,A,4305.2592,N,07740.6393,W,21.28,88.74,110924,,,A*77
$GPGGA,224338.500,4305.2593,N,07740.6374,W,1,08,1.01,170.8,M,-34.4,M,,*52
lng=-77.677322, lat=43.087654, altitude=171.00, speed=21.28, satellites=8, angle=88.7400, fixquality=1
$GPRMC,224338.750,A,4305.2592,N,07740.6354,W,20.92,88.88,110924,,,A*7A
$GPGGA,224339.000,4305.2593,N,07740.6335,W,1,08,1.01,170.7,M,-34.4,M,,*5C
lng=-77.677253, lat=43.087654, altitude=170.80, speed=20.92, satellites=8, angle=88.8800, fixquality=1
$GPRMC,224339.250,A,4305.2593,N,07740.6316,W,19.80,88.87,110924,,,A*7F
$GPGGA,224339.500,4305.2594,N,07740.6298,W,1,08,1.01,170.5,M,-34.4,M,,*5A
lng=-77.677200, lat=43.087654, altitude=170.70, speed=19.80, satellites=8, angle=88.8700, fixquality=1
$GPRMC,224339.750,A,4305.2593,N,07740.6281,W,18.18,88.70,110924,,,A*7D
$GPGGA,224340.000,4305.2593,N,07740.6263,W,1,08,1.01,170.5,M,-34.4,M,,*52
lng=-77.677131, lat=43.087654, altitude=170.50, speed=18.18, satellites=8, angle=88.7000, fixquality=1
$GPRMC,224340.250,A,4305.2594,N,07740.6247,W,16.54,88.88,110924,,,A*7A
$GPGGA,224340.500,4305.2590,N,07740.6229,W,1,08,1.01,170.4,M,-34.4,M,,*5B
lng=-77.677078, lat=43.087654, altitude=170.50, speed=16.54, satellites=8, angle=88.8800, fixquality=1
$GPRMC,224340.750,A,4305.2586,N,07740.6211,W,14.90,89.01,110924,,,A*75
$GPGGA,224341.000,4305.2583,N,07740.6195,W,1,08,1.01,170.2,M,-34.4,M,,*5F
lng=-77.677017, lat=43.087646, altitude=170.40, speed=14.90, satellites=8, angle=89.0100, fixquality=1
$GPRMC,224341.250,A,4305.2580,N,07740.6181,W,13.09,89.46,110924,,,A*79
$GPGGA,224341.500,4305.2579,N,07740.6167,W,1,08,1.01,170.2,M,-34.4,M,,*52
lng=-77.676971, lat=43.087631, altitude=170.20, speed=13.09, satellites=8, angle=89.4600, fixquality=1
$GPRMC,224341.750,A,4305.2579,N,07740.6155,W,11.29,88.04,110924,,,A*74
$GPGGA,224342.000,4305.2579,N,07740.6143,W,1,08,1.01,170.0,M,-34.4,M,,*50
lng=-77.676925, lat=43.087631, altitude=170.20, speed=11.29, satellites=8, angle=88.0400, fixquality=1
$GPRMC,224342.250,A,4305.2579,N,07740.6132,W,11.01,88.23,110924,,,A*7C
$GPGGA,224342.500,4305.2579,N,07740.6121,W,1,08,1.01,169.9,M,-34.4,M,,*50
lng=-77.676887, lat=43.087631, altitude=170.00, speed=11.01, satellites=8, angle=88.2300, fixquality=1
$GPRMC,224342.750,A,4305.2578,N,07740.6110,W,11.30,88.38,110924,,,A*70
$GPGGA,224343.000,4305.2578,N,07740.6098,W,1,08,1.01,169.7,M,-34.4,M,,*58
lng=-77.676849, lat=43.087631, altitude=169.90, speed=11.30, satellites=8, angle=88.3800, fixquality=1
$GPRMC,224343.250,A,4305.2578,N,07740.6087,W,12.23,88.42,110924,,,A*77
$GPGGA,224343.500,4305.2578,N,07740.6075,W,1,08,1.01,169.7,M,-34.4,M,,*5E
lng=-77.676811, lat=43.087631, altitude=169.70, speed=12.23, satellites=8, angle=88.4200, fixquality=1
$GPRMC,224343.750,A,4305.2578,N,07740.6062,W,13.29,88.10,110924,,,A*75
$GPGGA,224344.000,4305.2578,N,07740.6050,W,1,08,1.01,169.6,M,-34.4,M,,*5A
lng=-77.676773, lat=43.087631, altitude=169.70, speed=13.29, satellites=8, angle=88.1000, fixquality=1
$GPRMC,224344.250,A,4305.2578,N,07740.6036,W,14.49,88.04,110924,,,A*72
$GPGGA,224344.500,4305.2578,N,07740.6023,W,1,08,1.01,169.4,M,-34.4,M,,*59
lng=-77.676727, lat=43.087631, altitude=169.60, speed=14.49, satellites=8, angle=88.0400, fixquality=1
$GPRMC,224344.750,A,4305.2578,N,07740.6008,W,15.52,88.05,110924,,,A*70
$GPGGA,224345.000,4305.2579,N,07740.5993,W,1,08,1.01,169.3,M,-34.4,M,,*5A
lng=-77.676673, lat=43.087631, altitude=169.40, speed=15.52, satellites=8, angle=88.0500, fixquality=1
$GPRMC,224345.250,A,4305.2579,N,07740.5978,W,16.31,87.84,110924,,,A*78
$GPGGA,224345.500,4305.2580,N,07740.5962,W,1,08,1.01,169.2,M,-34.4,M,,*56
lng=-77.676628, lat=43.087631, altitude=169.30, speed=16.31, satellites=8, angle=87.8400, fixquality=1
$GPRMC,224345.750,A,4305.2580,N,07740.5946,W,17.45,88.38,110924,,,A*7C
$GPGGA,224346.000,4305.2581,N,07740.5929,W,1,08,1.01,169.0,M,-34.4,M,,*5C
lng=-77.676582, lat=43.087631, altitude=169.20, speed=17.45, satellites=8, angle=88.3800, fixquality=1
$GPRMC,224346.250,A,4305.2582,N,07740.5911,W,18.28,89.19,110924,,,A*7C
$GPGGA,224346.500,4305.2582,N,07740.5893,W,1,08,1.01,168.7,M,-34.4,M,,*5C
lng=-77.676521, lat=43.087638, altitude=169.00, speed=18.28, satellites=8, angle=89.1900, fixquality=1
$GPRMC,224346.750,A,4305.2583,N,07740.5874,W,19.46,89.08,110924,,,A*73
$GPGGA,224347.000,4305.2584,N,07740.5855,W,1,08,1.01,168.4,M,-34.4,M,,*57
lng=-77.676460, lat=43.087638, altitude=168.70, speed=19.46, satellites=8, angle=89.0800, fixquality=1
$GPRMC,224347.250,A,4305.2584,N,07740.5836,W,20.33,89.07,110924,,,A*71
$GPGGA,224347.500,4305.2585,N,07740.5817,W,1,08,1.01,168.1,M,-34.4,M,,*50
lng=-77.676391, lat=43.087638, altitude=168.40, speed=20.33, satellites=8, angle=89.0700, fixquality=1
$GPRMC,224347.750,A,4305.2585,N,07740.5797,W,20.90,88.84,110924,,,A*72
$GPGGA,224348.000,4305.2586,N,07740.5777,W,1,08,1.01,168.0,M,-34.4,M,,*51
lng=-77.676322, lat=43.087638, altitude=168.10, speed=20.90, satellites=8, angle=88.8400, fixquality=1
$GPRMC,224348.250,A,4305.2587,N,07740.5756,W,21.69,88.52,110924,,,A*7B
$GPGGA,224348.500,4305.2587,N,07740.5735,W,1,08,1.01,167.8,M,-34.4,M,,*54
lng=-77.676261, lat=43.087646, altitude=168.00, speed=21.69, satellites=8, angle=88.5200, fixquality=1
$GPRMC,224348.750,A,4305.2588,N,07740.5714,W,21.78,88.63,110924,,,A*75
$GPGGA,224349.000,4305.2588,N,07740.5693,W,1,08,1.01,167.6,M,-34.4,M,,*5C
lng=-77.676185, lat=43.087646, altitude=167.80, speed=21.78, satellites=8, angle=88.6300, fixquality=1
$GPRMC,224349.250,A,4305.2589,N,07740.5672,W,22.10,89.34,110924,,,A*7F
$GPGGA,224349.500,4305.2590,N,07740.5652,W,1,08,1.01,167.4,M,-34.4,M,,*5F
lng=-77.676124, lat=43.087646, altitude=167.60, speed=22.10, satellites=8, angle=89.3400, fixquality=1
$GPRMC,224349.750,A,4305.2590,N,07740.5631,W,22.17,89.40,110924,,,A*71
$GPGGA,224350.000,4305.2591,N,07740.5610,W,1,08,1.01,167.3,M,-34.4,M,,*52
lng=-77.676048, lat=43.087646, altitude=167.40, speed=22.17, satellites=8, angle=89.4000, fixquality=1
$GPRMC,224350.250,A,4305.2592,N,07740.5588,W,22.36,89.23,110924,,,A*79
$GPGGA,224350.500,4305.2592,N,07740.5567,W,1,08,1.01,167.1,M,-34.4,M,,*55
lng=-77.675979, lat=43.087654, altitude=167.30, speed=22.36, satellites=8, angle=89.2300, fixquality=1
$GPRMC,224350.750,A,4305.2592,N,07740.5546,W,22.19,89.25,110924,,,A*75
$GPGGA,224351.000,4305.2593,N,07740.5526,W,1,08,1.01,166.9,M,-34.4,M,,*5C
lng=-77.675910, lat=43.087654, altitude=167.10, speed=22.19, satellites=8, angle=89.2500, fixquality=1
$GPRMC,224351.250,A,4305.2593,N,07740.5505,W,21.81,89.10,110924,,,A*73
$GPGGA,224351.500,4305.2594,N,07740.5484,W,1,08,1.01,166.7,M,-34.4,M,,*59
lng=-77.675834, lat=43.087654, altitude=166.90, speed=21.81, satellites=8, angle=89.1000, fixquality=1
$GPRMC,224351.750,A,4305.2594,N,07740.5464,W,21.31,88.52,110924,,,A*7B
$GPGGA,224352.000,4305.2595,N,07740.5445,W,1,08,1.01,166.7,M,-34.4,M,,*53
lng=-77.675773, lat=43.087654, altitude=166.70, speed=21.31, satellites=8, angle=88.5200, fixquality=1
$GPRMC,224352.250,A,4305.2595,N,07740.5425,W,20.98,88.39,110924,,,A*76
$GPGGA,224352.500,4305.2596,N,07740.5405,W,1,08,1.01,166.6,M,-34.4,M,,*50
lng=-77.675704, lat=43.087654, altitude=166.70, speed=20.98, satellites=8, angle=88.3900, fixquality=1
$GPRMC,224352.750,A,4305.2596,N,07740.5386,W,20.60,88.05,110924,,,A*76
$GPGGA,224353.000,4305.2597,N,07740.5367,W,1,08,1.01,166.5,M,-34.4,M,,*55
lng=-77.675643, lat=43.087661, altitude=166.60, speed=20.60, satellites=8, angle=88.0500, fixquality=1
$GPRMC,224353.250,A,4305.2597,N,07740.5348,W,20.29,88.20,110924,,,A*7B
$GPGGA,224353.500,4305.2597,N,07740.5329,W,1,08,1.01,166.4,M,-34.4,M,,*5B
lng=-77.675575, lat=43.087661, altitude=166.50, speed=20.29, satellites=8, angle=88.2000, fixquality=1
$GPRMC,224353.750,A,4305.2598,N,07740.5310,W,20.21,88.99,110924,,,A*76
$GPGGA,224354.000,4305.2598,N,07740.5291,W,1,08,1.01,166.4,M,-34.4,M,,*54
lng=-77.675514, lat=43.087661, altitude=166.40, speed=20.21, satellites=8, angle=88.9900, fixquality=1
$GPRMC,224354.250,A,4305.2598,N,07740.5273,W,19.81,89.65,110924,,,A*72
$GPGGA,224354.500,4305.2598,N,07740.5255,W,1,08,1.01,166.3,M,-34.4,M,,*5E
lng=-77.675453, lat=43.087661, altitude=166.40, speed=19.81, satellites=8, angle=89.6500, fixquality=1
$GPRMC,224354.750,A,4305.2599,N,07740.5237,W,19.43,88.48,110924,,,A*76
$GPGGA,224355.000,4305.2599,N,07740.5219,W,1,08,0.98,166.1,M,-34.4,M,,*50
lng=-77.675399, lat=43.087661, altitude=166.30, speed=19.43, satellites=8, angle=88.4800, fixquality=1
$GPRMC,224355.250,A,4305.2600,N,07740.5202,W,18.85,87.82,110924,,,A*75
$GPGGA,224355.500,4305.2601,N,07740.5185,W,1,08,1.01,166.0,M,-34.4,M,,*51
lng=-77.675331, lat=43.087661, altitude=166.10, speed=18.85, satellites=8, angle=87.8200, fixquality=1
$GPRMC,224355.750,A,4305.2602,N,07740.5167,W,18.62,87.21,110924,,,A*72
$GPGGA,224356.000,4305.2602,N,07740.5150,W,1,08,1.01,165.9,M,-34.4,M,,*56
lng=-77.675277, lat=43.087669, altitude=166.00, speed=18.62, satellites=8, angle=87.2100, fixquality=1
$GPRMC,224356.250,A,4305.2603,N,07740.5132,W,18.53,86.95,110924,,,A*79
$GPGGA,224356.500,4305.2604,N,07740.5114,W,1,08,1.01,165.8,M,-34.4,M,,*54
lng=-77.675216, lat=43.087669, altitude=165.90, speed=18.53, satellites=8, angle=86.9500, fixquality=1
$GPRMC,224356.750,A,4305.2604,N,07740.5096,W,18.73,88.07,110924,,,A*73
$GPGGA,224357.000,4305.2604,N,07740.5078,W,1,08,1.01,165.6,M,-34.4,M,,*55
lng=-77.675163, lat=43.087669, altitude=165.80, speed=18.73, satellites=8, angle=88.0700, fixquality=1
$GPRMC,224357.250,A,4305.2604,N,07740.5061,W,18.74,88.80,110924,,,A*77
$GPGGA,224357.500,4305.2604,N,07740.5043,W,1,08,1.01,165.5,M,-34.4,M,,*5B
lng=-77.675094, lat=43.087669, altitude=165.60, speed=18.74, satellites=8, angle=88.8000, fixquality=1
$GPRMC,224357.750,A,4305.2605,N,07740.5025,W,18.83,89.46,110924,,,A*70
$GPGGA,224358.000,4305.2605,N,07740.5007,W,1,08,1.01,165.4,M,-34.4,M,,*51
lng=-77.675041, lat=43.087680, altitude=165.50, speed=18.83, satellites=8, angle=89.4600, fixquality=1
$GPRMC,224358.250,A,4305.2605,N,07740.4990,W,18.79,90.33,110924,,,A*73
$GPGGA,224358.500,4305.2605,N,07740.4972,W,1,08,1.01,165.2,M,-34.4,M,,*58
lng=-77.674980, lat=43.087680, altitude=165.40, speed=18.79, satellites=8, angle=90.3300, fixquality=1
$GPRMC,224358.750,A,4305.2604,N,07740.4955,W,18.45,91.36,110924,,,A*75
$GPGGA,224359.000,4305.2604,N,07740.4938,W,1,08,1.01,164.9,M,-34.4,M,,*59
lng=-77.674926, lat=43.087669, altitude=165.20, speed=18.45, satellites=8, angle=91.3600, fixquality=1
$GPRMC,224359.250,A,4305.2603,N,07740.4921,W,18.32,92.64,110924,,,A*71
$GPGGA,224359.500,4305.2602,N,07740.4904,W,1,08,1.01,164.8,M,-34.4,M,,*54
lng=-77.674873, lat=43.087669, altitude=164.90, speed=18.32, satellites=8, angle=92.6400, fixquality=1
$GPRMC,224359.750,A,4305.2599,N,07740.4887,W,17.59,96.91,110924,,,A*75
$GPGGA,224400.000,4305.2597,N,07740.4871,W,1,08,1.01,164.7,M,-34.4,M,,*59
lng=-77.674812, lat=43.087661, altitude=164.80, speed=17.59, satellites=8, angle=96.9100, fixquality=1
$GPRMC,224400.250,A,4305.2594,N,07740.4857,W,17.03,102.45,110924,,,A*41
$GPGGA,224400.500,4305.2588,N,07740.4842,W,1,08,1.01,164.5,M,-34.4,M,,*50
lng=-77.674766, lat=43.087654, altitude=164.70, speed=17.03, satellites=8, angle=102.4500, fixquality=1
$GPRMC,224400.750,A,4305.2582,N,07740.4828,W,16.73,110.24,110924,,,A*49
$GPGGA,224401.000,4305.2576,N,07740.4817,W,1,08,1.01,164.4,M,-34.4,M,,*54
lng=-77.674713, lat=43.087638, altitude=164.50, speed=16.73, satellites=8, angle=110.2400, fixquality=1
$GPRMC,224401.250,A,4305.2570,N,07740.4805,W,15.99,117.00,110924,,,A*49
$GPGGA,224401.500,4305.2563,N,07740.4793,W,1,08,1.01,164.4,M,-34.4,M,,*56
lng=-77.674674, lat=43.087612, altitude=164.40, speed=15.99, satellites=8, angle=117.0000, fixquality=1
$GPRMC,224401.750,A,4305.2554,N,07740.4781,W,16.20,122.01,110924,,,A*4F
$GPGGA,224402.000,4305.2547,N,07740.4768,W,1,08,1.01,164.4,M,-34.4,M,,*52
lng=-77.674636, lat=43.087589, altitude=164.40, speed=16.20, satellites=8, angle=122.0100, fixquality=1
$GPRMC,224402.250,A,4305.2541,N,07740.4755,W,16.19,120.84,110924,,,A*41
$GPGGA,224402.500,4305.2536,N,07740.4742,W,1,08,1.01,164.2,M,-34.4,M,,*5F
lng=-77.674591, lat=43.087566, altitude=164.40, speed=16.19, satellites=8, angle=120.8400, fixquality=1
$GPRMC,224402.750,A,4305.2532,N,07740.4727,W,16.10,116.09,110924,,,A*4C
$GPGGA,224403.000,4305.2528,N,07740.4712,W,1,08,1.01,164.0,M,-34.4,M,,*53
lng=-77.674545, lat=43.087558, altitude=164.20, speed=16.10, satellites=8, angle=116.0900, fixquality=1
$GPRMC,224403.250,A,4305.2525,N,07740.4698,W,15.74,110.75,110924,,,A*47
$GPGGA,224403.500,4305.2523,N,07740.4683,W,1,08,1.01,163.7,M,-34.4,M,,*54
lng=-77.674491, lat=43.087539, altitude=164.00, speed=15.74, satellites=8, angle=110.7500, fixquality=1
$GPRMC,224403.750,A,4305.2522,N,07740.4668,W,15.74,100.81,110924,,,A*40
$GPGGA,224404.000,4305.2523,N,07740.4652,W,1,08,1.01,163.4,M,-34.4,M,,*59
lng=-77.674446, lat=43.087532, altitude=163.70, speed=15.74, satellites=8, angle=100.8100, fixquality=1
$GPRMC,224404.250,A,4305.2526,N,07740.4636,W,16.15,89.54,110924,,,A*71
$GPGGA,224404.500,4305.2530,N,07740.4621,W,1,08,1.01,163.0,M,-34.4,M,,*5E
lng=-77.674392, lat=43.087539, altitude=163.40, speed=16.15, satellites=8, angle=89.5400, fixquality=1
$GPRMC,224404.750,A,4305.2536,N,07740.4609,W,15.57,76.01,110924,,,A*7C
$GPGGA,224405.000,4305.2540,N,07740.4595,W,1,08,1.01,163.0,M,-34.4,M,,*51
lng=-77.674346, lat=43.087558, altitude=163.00, speed=15.57, satellites=8, angle=76.0100, fixquality=1
$GPRMC,224405.250,A,4305.2545,N,07740.4582,W,15.63,66.23,110924,,,A*7A
$GPGGA,224405.500,4305.2551,N,07740.4569,W,1,08,1.01,162.4,M,-34.4,M,,*52
lng=-77.674301, lat=43.087574, altitude=163.00, speed=15.63, satellites=8, angle=66.2300, fixquality=1
$GPRMC,224405.750,A,4305.2557,N,07740.4556,W,15.71,58.75,110924,,,A*78
$GPGGA,224406.000,4305.2564,N,07740.4543,W,1,08,1.01,162.0,M,-34.4,M,,*5E
lng=-77.674263, lat=43.087596, altitude=162.40, speed=15.71, satellites=8, angle=58.7500, fixquality=1
$GPRMC,224406.250,A,4305.2570,N,07740.4530,W,16.15,58.15,110924,,,A*7C
$GPGGA,224406.500,4305.2576,N,07740.4517,W,1,08,1.01,161.8,M,-34.4,M,,*52
lng=-77.674217, lat=43.087612, altitude=162.00, speed=16.15, satellites=8, angle=58.1500, fixquality=1
$GPRMC,224406.750,A,4305.2583,N,07740.4503,W,16.55,60.31,110924,,,A*7C
$GPGGA,224407.000,4305.2589,N,07740.4489,W,1,08,1.01,161.7,M,-34.4,M,,*5F
lng=-77.674171, lat=43.087638, altitude=161.80, speed=16.55, satellites=8, angle=60.3100, fixquality=1
$GPRMC,224407.250,A,4305.2595,N,07740.4474,W,16.93,63.25,110924,,,A*72
$GPGGA,224407.500,4305.2600,N,07740.4460,W,1,08,1.01,161.6,M,-34.4,M,,*5E
lng=-77.674118, lat=43.087654, altitude=161.70, speed=16.93, satellites=8, angle=63.2500, fixquality=1
$GPRMC,224407.750,A,4305.2604,N,07740.4445,W,17.21,71.87,110924,,,A*7D
$GPGGA,224408.000,4305.2608,N,07740.4429,W,1,08,1.01,161.7,M,-34.4,M,,*50
lng=-77.674072, lat=43.087669, altitude=161.60, speed=17.21, satellites=8, angle=71.8700, fixquality=1
$GPRMC,224408.250,A,4305.2614,N,07740.4413,W,17.85,77.24,110924,,,A*74
$GPGGA,224408.500,4305.2617,N,07740.4395,W,1,08,1.01,161.6,M,-34.4,M,,*5A
lng=-77.674026, lat=43.087688, altitude=161.70, speed=17.85, satellites=8, angle=77.2400, fixquality=1
$GPRMC,224408.750,A,4305.2619,N,07740.4378,W,18.43,83.01,110924,,,A*7F
$GPGGA,224409.000,4305.2620,N,07740.4359,W,1,08,0.98,161.3,M,-34.4,M,,*5E
lng=-77.673965, lat=43.087696, altitude=161.60, speed=18.43, satellites=8, angle=83.0100, fixquality=1
$GPRMC,224409.250,A,4305.2621,N,07740.4340,W,19.48,86.71,110924,,,A*73
$GPGGA,224409.500,4305.2621,N,07740.4316,W,1,08,1.01,161.0,M,-34.4,M,,*53
lng=-77.673904, lat=43.087703, altitude=161.30, speed=19.48, satellites=8, angle=86.7100, fixquality=1
$GPRMC,224409.750,A,4305.2621,N,07740.4295,W,22.14,89.33,110924,,,A*77
$GPGGA,224410.000,4305.2622,N,07740.4274,W,1,08,1.01,160.8,M,-34.4,M,,*51
lng=-77.673828, lat=43.087703, altitude=161.00, speed=22.14, satellites=8, angle=89.3300, fixquality=1
$GPRMC,224410.250,A,4305.2622,N,07740.4252,W,23.10,88.84,110924,,,A*7A
$GPGGA,224410.500,4305.2623,N,07740.4229,W,1,08,0.98,160.8,M,-34.4,M,,*5C
lng=-77.673751, lat=43.087703, altitude=160.80, speed=23.10, satellites=8, angle=88.8400, fixquality=1
$GPRMC,224410.750,A,4305.2623,N,07740.4207,W,23.94,88.94,110924,,,A*73
$GPGGA,224411.000,4305.2623,N,07740.4184,W,1,08,0.98,160.6,M,-34.4,M,,*52
lng=-77.673683, lat=43.087703, altitude=160.80, speed=23.94, satellites=8, angle=88.9400, fixquality=1
$GPRMC,224411.250,A,4305.2624,N,07740.4161,W,24.07,89.06,110924,,,A*74
$GPGGA,224411.500,4305.2625,N,07740.4139,W,1,08,1.01,160.5,M,-34.4,M,,*55
lng=-77.673599, lat=43.087703, altitude=160.60, speed=24.07, satellites=8, angle=89.0600, fixquality=1
$GPRMC,224411.750,A,4305.2625,N,07740.4116,W,23.68,88.99,110924,,,A*79
$GPGGA,224412.000,4305.2626,N,07740.4093,W,1,08,1.01,160.4,M,-34.4,M,,*50
lng=-77.673530, lat=43.087711, altitude=160.50, speed=23.68, satellites=8, angle=88.9900, fixquality=1
$GPRMC,224412.250,A,4305.2626,N,07740.4071,W,23.59,88.90,110924,,,A*77
$GPGGA,224412.500,4305.2627,N,07740.4049,W,1,08,1.01,160.2,M,-34.4,M,,*55
lng=-77.673454, lat=43.087711, altitude=160.40, speed=23.59, satellites=8, angle=88.9000, fixquality=1
$GPRMC,224412.750,A,4305.2628,N,07740.4027,W,23.34,89.17,110924,,,A*7A
$GPGGA,224413.000,4305.2628,N,07740.4005,W,1,08,1.01,160.1,M,-34.4,M,,*55
lng=-77.673377, lat=43.087711, altitude=160.20, speed=23.34, satellites=8, angle=89.1700, fixquality=1
$GPRMC,224413.250,A,4305.2628,N,07740.3983,W,22.56,88.57,110924,,,A*7E
$GPGGA,224413.500,4305.2629,N,07740.3962,W,1,08,1.01,160.0,M,-34.4,M,,*5F
lng=-77.673309, lat=43.087711, altitude=160.10, speed=22.56, satellites=8, angle=88.5700, fixquality=1
$GPRMC,224413.750,A,4305.2630,N,07740.3941,W,22.18,88.33,110924,,,A*74
$GPGGA,224414.000,4305.2630,N,07740.3920,W,1,08,1.01,159.8,M,-34.4,M,,*51
lng=-77.673233, lat=43.087718, altitude=160.00, speed=22.18, satellites=8, angle=88.3300, fixquality=1
$GPRMC,224414.250,A,4305.2630,N,07740.3898,W,22.50,88.79,110924,,,A*71
$GPGGA,224414.500,4305.2630,N,07740.3877,W,1,08,1.01,159.7,M,-34.4,M,,*58
lng=-77.673164, lat=43.087718, altitude=159.80, speed=22.50, satellites=8, angle=88.7900, fixquality=1
$GPRMC,224414.750,A,4305.2631,N,07740.3855,W,22.94,88.82,110924,,,A*78
$GPGGA,224415.000,4305.2631,N,07740.3834,W,1,08,1.01,159.5,M,-34.4,M,,*58
lng=-77.673095, lat=43.087718, altitude=159.70, speed=22.94, satellites=8, angle=88.8200, fixquality=1
$GPRMC,224415.250,A,4305.2631,N,07740.3812,W,23.63,89.04,110924,,,A*79
$GPGGA,224415.500,4305.2631,N,07740.3790,W,1,08,1.01,159.3,M,-34.4,M,,*5A
lng=-77.673019, lat=43.087718, altitude=159.50, speed=23.63, satellites=8, angle=89.0400, fixquality=1
$GPRMC,224415.750,A,4305.2631,N,07740.3768,W,23.99,88.31,110924,,,A*7C
$GPGGA,224416.000,4305.2632,N,07740.3746,W,1,08,1.01,159.1,M,-34.4,M,,*56
lng=-77.672950, lat=43.087718, altitude=159.30, speed=23.99, satellites=8, angle=88.3100, fixquality=1
$GPRMC,224416.250,A,4305.2632,N,07740.3723,W,24.45,87.31,110924,,,A*7F
$GPGGA,224416.500,4305.2633,N,07740.3700,W,1,08,1.01,159.1,M,-34.4,M,,*50
lng=-77.672866, lat=43.087718, altitude=159.10, speed=24.45, satellites=8, angle=87.3100, fixquality=1
$GPRMC,224416.750,A,4305.2634,N,07740.3677,W,24.87,86.20,110924,,,A*73
$GPGGA,224417.000,4305.2635,N,07740.3652,W,1,08,1.01,159.1,M,-34.4,M,,*54
lng=-77.672798, lat=43.087718, altitude=159.10, speed=24.87, satellites=8, angle=86.2000, fixquality=1
$GPRMC,224417.250,A,4305.2637,N,07740.3628,W,25.54,85.06,110924,,,A*76
$GPGGA,224417.500,4305.2638,N,07740.3604,W,1,08,1.01,159.0,M,-34.4,M,,*5E
lng=-77.672714, lat=43.087726, altitude=159.10, speed=25.54, satellites=8, angle=85.0600, fixquality=1
$GPRMC,224417.750,A,4305.2640,N,07740.3579,W,25.86,83.69,110924,,,A*74
$GPGGA,224418.000,4305.2643,N,07740.3554,W,1,08,1.01,158.8,M,-34.4,M,,*57
lng=-77.672630, lat=43.087734, altitude=159.00, speed=25.86, satellites=8, angle=83.6900, fixquality=1
$GPRMC,224418.250,A,4305.2645,N,07740.3529,W,26.13,83.41,110924,,,A*7B
$GPGGA,224418.500,4305.2648,N,07740.3504,W,1,08,1.01,158.7,M,-34.4,M,,*53
lng=-77.672554, lat=43.087745, altitude=158.80, speed=26.13, satellites=8, angle=83.4100, fixquality=1
$GPRMC,224418.750,A,4305.2650,N,07740.3479,W,26.63,82.88,110924,,,A*7D
$GPGGA,224419.000,4305.2653,N,07740.3454,W,1,08,1.01,158.6,M,-34.4,M,,*58
lng=-77.672462, lat=43.087753, altitude=158.70, speed=26.63, satellites=8, angle=82.8800, fixquality=1
$GPRMC,224419.250,A,4305.2656,N,07740.3428,W,27.05,82.63,110924,,,A*7F
$GPGGA,224419.500,4305.2658,N,07740.3402,W,1,08,1.01,158.5,M,-34.4,M,,*56
lng=-77.672378, lat=43.087760, altitude=158.60, speed=27.05, satellites=8, angle=82.6300, fixquality=1
$GPRMC,224419.750,A,4305.2661,N,07740.3377,W,27.40,82.03,110924,,,A*74
$GPGGA,224420.000,4305.2664,N,07740.3351,W,1,08,1.01,158.3,M,-34.4,M,,*51
lng=-77.672294, lat=43.087768, altitude=158.50, speed=27.40, satellites=8, angle=82.0300, fixquality=1
$GPRMC,224420.250,A,4305.2667,N,07740.3325,W,27.58,81.82,110924,,,A*79
$GPGGA,224420.500,4305.2670,N,07740.3298,W,1,08,1.01,158.2,M,-34.4,M,,*54
lng=-77.672210, lat=43.087776, altitude=158.30, speed=27.58, satellites=8, angle=81.8200, fixquality=1
$GPRMC,224420.750,A,4305.2673,N,07740.3272,W,28.15,81.17,110924,,,A*70
$GPGGA,224421.000,4305.2677,N,07740.3246,W,1,08,1.01,158.1,M,-34.4,M,,*57
lng=-77.672119, lat=43.087783, altitude=158.20, speed=28.15, satellites=8, angle=81.1700, fixquality=1
$GPRMC,224421.250,A,4305.2680,N,07740.3219,W,28.19,80.11,110924,,,A*7E
$GPGGA,224421.500,4305.2684,N,07740.3193,W,1,08,1.01,158.0,M,-34.4,M,,*54
lng=-77.672027, lat=43.087802, altitude=158.10, speed=28.19, satellites=8, angle=80.1100, fixquality=1
$GPRMC,224421.750,A,4305.2688,N,07740.3166,W,28.40,78.52,110924,,,A*74
$GPGGA,224422.000,4305.2692,N,07740.3140,W,1,08,1.01,157.9,M,-34.4,M,,*5D
lng=-77.671943, lat=43.087810, altitude=158.00, speed=28.40, satellites=8, angle=78.5200, fixquality=1
$GPRMC,224422.250,A,4305.2697,N,07740.3113,W,29.02,77.59,110924,,,A*7D
$GPGGA,224422.500,4305.2702,N,07740.3086,W,1,08,1.01,157.8,M,-34.4,M,,*5A
lng=-77.671859, lat=43.087825, altitude=157.90, speed=29.02, satellites=8, angle=77.5900, fixquality=1
$GPRMC,224422.750,A,4305.2707,N,07740.3060,W,29.55,76.18,110924,,,A*73
$GPGGA,224423.000,4305.2712,N,07740.3033,W,1,08,1.01,157.8,M,-34.4,M,,*51
lng=-77.671768, lat=43.087841, altitude=157.80, speed=29.55, satellites=8, angle=76.1800, fixquality=1
$GPRMC,224423.250,A,4305.2718,N,07740.3006,W,29.76,74.83,110924,,,A*78
$GPGGA,224423.500,4305.2724,N,07740.2979,W,1,08,1.01,157.7,M,-34.4,M,,*58
lng=-77.671676, lat=43.087867, altitude=157.80, speed=29.76, satellites=8, angle=74.8300, fixquality=1
$GPRMC,224423.750,A,4305.2730,N,07740.2951,W,30.41,73.39,110924,,,A*77
$GPGGA,224424.000,4305.2737,N,07740.2924,W,1,08,1.01,157.6,M,-34.4,M,,*51
lng=-77.671585, lat=43.087882, altitude=157.70, speed=30.41, satellites=8, angle=73.3900, fixquality=1
$GPRMC,224424.250,A,4305.2743,N,07740.2897,W,30.74,72.04,110924,,,A*73
$GPGGA,224424.500,4305.2750,N,07740.2869,W,1,08,1.01,157.7,M,-34.4,M,,*5C
lng=-77.671493, lat=43.087905, altitude=157.60, speed=30.74, satellites=8, angle=72.0400, fixquality=1
$GPRMC,224424.750,A,4305.2758,N,07740.2841,W,30.96,70.86,110924,,,A*73
$GPGGA,224425.000,4305.2765,N,07740.2814,W,1,08,1.01,157.6,M,-34.4,M,,*55
lng=-77.671401, lat=43.087932, altitude=157.70, speed=30.96, satellites=8, angle=70.8600, fixquality=1
$GPRMC,224425.250,A,4305.2773,N,07740.2786,W,31.40,69.74,110924,,,A*75
$GPGGA,224425.500,4305.2780,N,07740.2758,W,1,08,1.01,157.6,M,-34.4,M,,*5C
lng=-77.671310, lat=43.087955, altitude=157.60, speed=31.40, satellites=8, angle=69.7400, fixquality=1
$GPRMC,224425.750,A,4305.2788,N,07740.2730,W,31.56,68.03,110924,,,A*7F
$GPGGA,224426.000,4305.2797,N,07740.2702,W,1,08,0.98,157.6,M,-34.4,M,,*52
lng=-77.671218, lat=43.087978, altitude=157.60, speed=31.56, satellites=8, angle=68.0300, fixquality=1
$GPRMC,224426.250,A,4305.2805,N,07740.2674,W,31.82,66.79,110924,,,A*78
$GPGGA,224426.500,4305.2814,N,07740.2647,W,1,08,1.01,157.5,M,-34.4,M,,*51
lng=-77.671127, lat=43.088005, altitude=157.60, speed=31.82, satellites=8, angle=66.7900, fixquality=1
$GPRMC,224426.750,A,4305.2823,N,07740.2619,W,31.93,65.09,110924,,,A*76
$GPGGA,224427.000,4305.2833,N,07740.2592,W,1,08,1.01,157.4,M,-34.4,M,,*5A
lng=-77.671028, lat=43.088035, altitude=157.50, speed=31.93, satellites=8, angle=65.0900, fixquality=1
$GPRMC,224427.250,A,4305.2843,N,07740.2564,W,32.19,63.31,110924,,,A*71
$GPGGA,224427.500,4305.2853,N,07740.2537,W,1,07,1.17,157.2,M,-34.4,M,,*58
lng=-77.670936, lat=43.088069, altitude=157.40, speed=32.19, satellites=8, angle=63.3100, fixquality=1
$GPRMC,224427.750,A,4305.2863,N,07740.2510,W,32.51,62.04,110924,,,A*7E
$GPGGA,224428.000,4305.2874,N,07740.2482,W,1,07,1.17,157.3,M,-34.4,M,,*59
lng=-77.670852, lat=43.088100, altitude=157.20, speed=32.51, satellites=7, angle=62.0400, fixquality=1
$GPRMC,224428.250,A,4305.2885,N,07740.2455,W,32.61,61.34,110924,,,A*7F
$GPGGA,224428.500,4305.2895,N,07740.2428,W,1,07,1.17,157.2,M,-34.4,M,,*52
lng=-77.670761, lat=43.088142, altitude=157.30, speed=32.61, satellites=7, angle=61.3400, fixquality=1
$GPRMC,224428.750,A,4305.2906,N,07740.2401,W,32.85,60.80,110924,,,A*75
$GPGGA,224429.000,4305.2918,N,07740.2373,W,1,07,1.17,157.2,M,-34.4,M,,*5B
lng=-77.670669, lat=43.088176, altitude=157.20, speed=32.85, satellites=7, angle=60.8000, fixquality=1
$GPRMC,224429.250,A,4305.2929,N,07740.2346,W,33.11,60.39,110924,,,A*76
$GPGGA,224429.500,4305.2940,N,07740.2318,W,1,07,1.17,157.1,M,-34.4,M,,*5D
lng=-77.670570, lat=43.088214, altitude=157.20, speed=33.11, satellites=7, angle=60.3900, fixquality=1
$GPRMC,224429.750,A,4305.2952,N,07740.2291,W,33.35,59.83,110924,,,A*79
$GPGGA,224430.000,4305.2964,N,07740.2263,W,1,07,1.17,157.2,M,-34.4,M,,*58
lng=-77.670486, lat=43.088256, altitude=157.10, speed=33.35, satellites=7, angle=59.8300, fixquality=1
$GPRMC,224430.250,A,4305.2975,N,07740.2236,W,33.61,59.64,110924,,,A*74
$GPGGA,224430.500,4305.2987,N,07740.2208,W,1,08,1.02,157.2,M,-34.4,M,,*56
lng=-77.670394, lat=43.088291, altitude=157.20, speed=33.61, satellites=7, angle=59.6400, fixquality=1
$GPRMC,224430.750,A,4305.2999,N,07740.2180,W,33.70,59.40,110924,,,A*7B
$GPGGA,224431.000,4305.3011,N,07740.2152,W,1,08,1.02,157.3,M,-34.4,M,,*58
lng=-77.670295, lat=43.088329, altitude=157.20, speed=33.70, satellites=8, angle=59.4000, fixquality=1
$GPRMC,224431.250,A,4305.3023,N,07740.2124,W,34.20,59.98,110924,,,A*7F
$GPGGA,224431.500,4305.3035,N,07740.2096,W,1,08,1.02,157.3,M,-34.4,M,,*52
lng=-77.670204, lat=43.088371, altitude=157.30, speed=34.20, satellites=8, angle=59.9800, fixquality=1
$GPRMC,224431.750,A,4305.3046,N,07740.2068,W,34.44,60.13,110924,,,A*7B
$GPGGA,224432.000,4305.3058,N,07740.2039,W,1,08,1.02,157.3,M,-34.4,M,,*5A
lng=-77.670120, lat=43.088413, altitude=157.30, speed=34.44, satellites=8, angle=60.1300, fixquality=1
$GPRMC,224432.250,A,4305.3070,N,07740.2011,W,34.65,59.73,110924,,,A*79
$GPGGA,224432.500,4305.3083,N,07740.1982,W,1,09,0.97,157.4,M,-34.4,M,,*58
lng=-77.670021, lat=43.088451, altitude=157.30, speed=34.65, satellites=8, angle=59.7300, fixquality=1
