Vers 72
USE_SERIAL_FEEDBACK=true
DEVELOPMENT_MODE=false
USE_RMC_ONLY=false

$GPRMC,222429.250,A,4308.3036,N,07726.2635,W,0.22,223.84,030924,,,A*7A
$GPGGA,222429.500,4308.3036,N,07726.2635,W,1,04,2.10,181.5,M,-34.4,M,,*5D
lng=-77.437728, lat=43.138393, altitude=181.40, speed=0.22, satellites=4, angle=223.8400, fixquality=1
$GPRMC,222429.750,A,4308.3036,N,07726.2634,W,0.18,252.79,030924,,,A*73
$GPGGA,222430.000,4308.3036,N,07726.2634,W,1,04,2.10,181.2,M,-34.4,M,,*56
lng=-77.437721, lat=43.138393, altitude=181.50, speed=0.18, satellites=4, angle=252.7900, fixquality=1
$GPGGA,222457.250,4308.3035,N,07726.2645,W,1,05,1.63,176.9,M,-34.4,M,,*50
$GPRMC,222457.250,A,4308.3035,N,07726.2645,W,0.04,251.14,030924,,,A*7F
lng=-77.437744, lat=43.138393, altitude=176.90, speed=0.01, satellites=5, angle=278.0000, fixquality=1
$GPGGA,222457.500,4308.3035,N,07726.2645,W,1,05,1.63,176.9,M,-34.4,M,,*52
$GPRMC,222457.500,A,4308.3035,N,07726.2645,W,0.02,114.33,030924,,,A*7C
lng=-77.437744, lat=43.138393, altitude=176.90, speed=0.04, satellites=5, angle=251.1400, fixquality=1
$GPGGA,223625.250,4308.3051,N,07726.2641,W,1,07,1.41,173.6,M,-34.4,M,,*58
$GPRMC,223625.250,A,4308.3051,N,07726.2641,W,0.87,352.25,030924,,,A*74
lng=-77.437736, lat=43.138420, altitude=173.60, speed=0.72, satellites=7, angle=352.3600, fixquality=1
$GPGGA,223625.500,4308.3053,N,07726.2641,W,1,07,1.41,173.6,M,-34.4,M,,*58
$GPRMC,223625.500,A,4308.3053,N,07726.2641,W,1.06,352.55,030924,,,A*7B
lng=-77.437736, lat=43.138420, altitude=173.60, speed=0.87, satellites=7, angle=352.2500, fixquality=1
$GPGGA,223626.500,4308.3064,N,07726.2641,W,1,07,1.41,173.6,M,-34.4,M,,*5F
$GPRMC,223626.500,A,4308.3064,N,07726.2641,W,2.04,0.06,030924,,,A*7F
lng=-77.437736, lat=43.138442, altitude=173.60, speed=1.51, satellites=7, angle=354.1000, fixquality=1
$GPGGA,223626.750,4308.3067,N,07726.2641,W,1,07,1.41,173.5,M,-34.4,M,,*58
$GPRMC,223626.750,A,4308.3067,N,07726.2641,W,2.03,2.68,030924,,,A*76
lng=-77.437736, lat=43.138442, altitude=173.50, speed=2.04, satellites=7, angle=0.0600, fixquality=1
$GPRMC,223627.250,A,4308.3074,N,07726.2642,W,2.66,6.50,030924,,,A*7F
$GPGGA,223627.500,4308.3077,N,07726.2641,W,1,07,1.41,173.4,M,-34.4,M,,*5E
lng=-77.437736, lat=43.138462, altitude=173.50, speed=2.66, satellites=7, angle=6.5000, fixquality=1
$GPRMC,223627.750,A,4308.3080,N,07726.2641,W,2.10,9.36,030924,,,A*7C
$GPGGA,223628.000,4308.3082,N,07726.2640,W,1,07,1.41,173.4,M,-34.4,M,,*5F
lng=-77.437736, lat=43.138469, altitude=173.40, speed=2.10, satellites=7, angle=9.3600, fixquality=1
$GPGGA,223630.000,4308.3095,N,07726.2640,W,1,07,1.41,173.1,M,-34.4,M,,*55
$GPRMC,223630.000,A,4308.3095,N,07726.2640,W,0.53,4.68,030924,,$GPGGA,223630.250,4308.3096,N,07726.2640,W,1,07,1.41,173.1,M,-34.4,M,,*51
lng=-77.437736, lat=43.138492, altitude=173.10, speed=0.57, satellites=7, angle=11.1500, fixquality=1
$GPRMC,223630.500,A,4308.3096,N,07726.2640,W,0.41,6.09,030924,,,A*7E
$GPGGA,223630.750,4308.3097,N,07726.2640,W,1,07,1.41,173.1,M,-34.4,M,,*55
lng=-77.437736, lat=43.138492, altitude=173.10, speed=0.41, satellites=7, angle=6.0900, fixquality=1
$GPGGA,223632.250,4308.3108,N,07726.2638,W,1,07,1.41,173.0,M,-34.4,M,,*5B
$GPRMC,223632.250,A,4308.3108,N,07726.2638,W,1.24,8.65,030924,,,A*71
lng=-77.437728, lat=43.138515, altitude=173.00, speed=1.07, satellites=7, angle=9.7400, fixquality=1
$GPGGA,223632.500,4308.3111,N,07726.2635,W,1,07,1.41,173.0,M,-34.4,M,,*5C
$GPRMC,223632.500,A,4308.3111,N,07726.2635,W,1.51,11.14,030924,,,A*4A
lng=-77.437728, lat=43.138515, altitude=173.00, speed=1.24, satellites=7, angle=8.6500, fixquality=1
$GPRMC,223632.750,A,4308.3115,N,07726.2634,W,2.58,8.79,030924,,,A*71
$GPGGA,223633.000,4308.3117,N,07726.2635,W,1,07,1.41,173.1,M,-34.4,M,,*5F
lng=-77.437721, lat=43.138526, altitude=173.00, speed=2.58, satellites=7, angle=8.7900, fixquality=1
$GPRMC,223633.250,A,4308.3121,N,07726.2633,W,2.60,359.20,030924,,,A*75
$GPGGA,223633.500,4308.3125,N,07726.2631,W,1,07,1.41,173.2,M,-34.4,M,,*5C
lng=-77.437721, lat=43.138534, altitude=173.10, speed=2.60, satellites=7, angle=359.2000, fixquality=1
$GPRMC,223633.750,A,4308.3130,N,07726.2629,W,2.67,4.29,030924,,,A*7E
$GPGGA,223634.000,4308.3134,N,07726.2628,W,1,07,1.41,173.4,M,-34.4,M,,*50
lng=-77.437713, lat=43.138549, altitude=173.20, speed=2.67, satellites=7, angle=4.2900, fixquality=1
$GPRMC,223634.250,A,4308.3137,N,07726.2627,W,3.07,356.38,030924,,,A*76
$GPGGA,223634.500,4308.3139,N,07726.2627,W,1,07,1.41,173.4,M,-34.4,M,,*57
lng=-77.437713, lat=43.138557, altitude=173.40, speed=3.07, satellites=7, angle=356.3800, fixquality=1
$GPRMC,223634.750,A,4308.3142,N,07726.2628,W,3.12,337.07,030924,,,A*71
$GPGGA,223635.000,4308.3145,N,07726.2628,W,1,07,1.22,173.3,M,-34.4,M,,*55
lng=-77.437713, lat=43.138565, altitude=173.40, speed=3.12, satellites=7, angle=337.0700, fixquality=1
$GPRMC,223635.250,A,4308.3148,N,07726.2626,W,2.84,337.56,030924,,,A*7B
$GPGGA,223635.500,4308.3151,N,07726.2624,W,1,07,1.22,173.3,M,-34.4,M,,*59
lng=-77.437713, lat=43.138584, altitude=173.30, speed=2.84, satellites=7, angle=337.5600, fixquality=1
$GPRMC,223635.750,A,4308.3153,N,07726.2625,W,3.63,318.76,030924,,,A*70
$GPGGA,223636.000,4308.3155,N,07726.2626,W,1,07,1.22,173.2,M,-34.4,M,,*58
lng=-77.437713, lat=43.138591, altitude=173.30, speed=3.63, satellites=7, angle=318.7600, fixquality=1
$GPRMC,223636.250,A,4308.3157,N,07726.2627,W,3.20,307.33,030924,,,A*78
$GPGGA,223636.500,4308.3160,N,07726.2626,W,1,07,1.22,173.1,M,-34.4,M,,*58
lng=-77.437713, lat=43.138599, altitude=173.20, speed=3.20, satellites=7, angle=307.3300, fixquality=1
$GPRMC,223636.750,A,4308.3163,N,07726.2627,W,2.80,288.56,030924,,,A*74
$GPGGA,223637.000,4308.3166,N,07726.2628,W,1,07,1.22,173.1,M,-34.4,M,,*54
lng=-77.437713, lat=43.138607, altitude=173.10, speed=2.80, satellites=7, angle=288.5600, fixquality=1
$GPRMC,223637.250,A,4308.3167,N,07726.2629,W,1.85,279.26,030924,,,A*75
$GPGGA,223637.500,4308.3168,N,07726.2628,W,1,07,1.22,173.1,M,-34.4,M,,*5F
lng=-77.437713, lat=43.138614, altitude=173.10, speed=1.85, satellites=7, angle=279.2600, fixquality=1
$GPGGA,223638.500,4308.3170,N,07726.2614,W,1,07,1.22,173.1,M,-34.4,M,,*56
$GPRMC,223638.500,A,4308.3170,N,07726.2614,W,2.07,100.20,030924,,,A*72
lng=-77.437690, lat=43.138614, altitude=173.10, speed=1.37, satellites=7, angle=100.4000, fixquality=1
$GPGGA,223638.750,4308.3171,N,07726.2610,W,1,07,1.22,173.0,M,-34.4,M,,*55
$GPRMC,223638.750,A,4308.3171,N,07726.2610,W,2.95,89.61,030924,,,A*4E
lng=-77.437690, lat=43.138614, altitude=173.00, speed=2.07, satellites=7, angle=100.2000, fixquality=1
$GPGGA,223639.000,4308.3171,N,07726.2604,W,1,07,1.22,173.0,M,-34.4,M,,*53
$GPRMC,223639.000,A,4308.3171,N,07726.2604,W,4.16,93.29,030924,,,A*42
lng=-77.437667, lat=43.138614, altitude=173.00, speed=2.95, satellites=7, angle=89.6100, fixquality=1
$GPGGA,223639.250,4308.3172,N,07726.2598,W,1,07,1.41,173.0,M,-34.4,M,,*54
$GPRMC,223639.250,A,4308.3172,N,07726.2598,W,5.38,91.71,030924,,,A*42
lng=-77.437660, lat=43.138622, altitude=173.00, speed=4.16, satellites=7, angle=93.2900, fixquality=1
$GPGGA,223639.500,4308.3171,N,07726.2591,W,1,07,1.41,172.9,M,-34.4,M,,*54
$GPRMC,223639.500,A,4308.3171,N,07726.2591,W,6.09,93.64,030924,,,A*4D
lng=-77.437652, lat=43.138614, altitude=172.90, speed=5.38, satellites=7, angle=91.7100, fixquality=1
$GPGGA,223639.750,4308.3171,N,07726.2583,W,1,07,1.41,172.9,M,-34.4,M,,*50
$GPRMC,223639.750,A,4308.3171,N,07726.2583,W,6.90,94.54,030924,,,A*4D
lng=-77.437637, lat=43.138614, altitude=172.90, speed=6.09, satellites=7, angle=93.6400, fixquality=1
$GPGGA,223640.000,4308.3170,N,07726.2575,W,1,07,1.41,172.8,M,-34.4,M,,*55
$GPRMC,223640.000,A,4308.3170,N,07726.2575,W,7.58,94.03,030924,,,A*4E
lng=-77.437622, lat=43.138614, altitude=172.80, speed=6.90, satellites=7, angle=94.5400, fixquality=1
$GPGGA,223640.250,4308.3170,N,07726.2566,W,1,07,1.41,172.7,M,-34.4,M,,*5F
$GPRMC,223640.250,A,4308.3170,N,07726.2566,W,8.12,93.46,030924,,,A*4C
lng=-77.437614, lat=43.138614, altitude=172.70, speed=7.58, satellites=7, angle=94.0300, fixquality=1
$GPGGA,223640.500,4308.3170,N,07726.2556,W,1,07,1.41,172.7,M,-34.4,M,,*5E
$GPRMC,223640.500,A,4308.3170,N,07726.2556,W,8.90,94.57,030924,,,A*40
lng=-77.437591, lat=43.138614, altitude=172.70, speed=8.12, satellites=7, angle=93.4600, fixquality=1
$GPGGA,223640.750,4308.3169,N,07726.2546,W,1,07,1.41,172.6,M,-34.4,M,,*51
$GPRMC,223640.750,A,4308.3169,N,07726.2546,W,9.53,94.34,030924,,,A*45
lng=-77.437576, lat=43.138614, altitude=172.60, speed=8.90, satellites=7, angle=94.5700, fixquality=1
$GPGGA,223641.000,4308.3169,N,07726.2536,W,1,07,1.41,172.5,M,-34.4,M,,*56
$GPRMC,223641.000,A,4308.3169,N,07726.2536,W,10.04,92.43,030924,,,A*7D
lng=-77.437553, lat=43.138614, altitude=172.50, speed=9.53, satellites=7, angle=94.3400, fixquality=1
$GPGGA,223641.250,4308.3168,N,07726.2524,W,1,07,1.41,172.4,M,-34.4,M,,*52
$GPRMC,223641.250,A,4308.3168,N,07726.2524,W,10.93,92.91,030924,,,A*79
lng=-77.437538, lat=43.138614, altitude=172.40, speed=10.04, satellites=7, angle=92.4300, fixquality=1
$GPGGA,223641.500,4308.3168,N,07726.2512,W,1,07,1.41,172.4,M,-34.4,M,,*55
$GPRMC,223641.500,A,4308.3168,N,07726.2512,W,11.63,92.78,030924,,,A*77
lng=-77.437515, lat=43.138614, altitude=172.40, speed=10.93, satellites=7, angle=92.9100, fixquality=1
$GPGGA,223641.750,4308.3167,N,07726.2499,W,1,07,1.41,172.3,M,-34.4,M,,*58
$GPRMC,223641.750,A,4308.3167,N,07726.2499,W,12.18,92.91,030924,,,A*75
lng=-77.437500, lat=43.138614, altitude=172.30, speed=11.63, satellites=7, angle=92.7800, fixquality=1
$GPGGA,223642.000,4308.3166,N,07726.2486,W,1,07,1.41,172.2,M,-34.4,M,,*57
$GPRMC,223642.000,A,4308.3166,N,07726.2486,W,12.65,93.08,030924,,,A*70
lng=-77.437477, lat=43.138607, altitude=172.20, speed=12.18, satellites=7, angle=92.9100, fixquality=1
$GPGGA,223642.250,4308.3165,N,07726.2472,W,1,07,1.41,172.1,M,-34.4,M,,*5B
$GPRMC,223642.250,A,4308.3165,N,07726.2472,W,13.14,93.47,030924,,,A*73
lng=-77.437454, lat=43.138607, altitude=172.10, speed=12.65, satellites=7, angle=93.0800, fixquality=1
$GPGGA,223642.500,4308.3164,N,07726.2458,W,1,07,1.41,172.0,M,-34.4,M,,*51
$GPRMC,223642.500,A,4308.3164,N,07726.2458,W,13.74,93.81,030924,,,A*74
lng=-77.437423, lat=43.138607, altitude=172.00, speed=13.14, satellites=7, angle=93.4700, fixquality=1
$GPGGA,223642.750,4308.3163,N,07726.2444,W,1,07,1.41,171.9,M,-34.4,M,,*56
$GPRMC,223642.750,A,4308.3163,N,07726.2444,W,14.35,93.89,030924,,,A*73
lng=-77.437408, lat=43.138607, altitude=171.90, speed=13.74, satellites=7, angle=93.8100, fixquality=1
$GPGGA,223643.000,4308.3162,N,07726.2429,W,1,07,1.41,171.9,M,-34.4,M,,*5F
$GPRMC,223643.000,A,4308.3162,N,07726.2429,W,14.82,94.26,030924,,,A*74
lng=-77.437377, lat=43.138607, altitude=171.90, speed=14.35, satellites=7, angle=93.8900, fixquality=1
$GPGGA,223643.250,4308.3161,N,07726.2413,W,1,07,1.41,171.7,M,-34.4,M,,*5C
$GPRMC,223643.250,A,4308.3161,N,07726.2413,W,15.34,94.51,030924,,,A*75
lng=-77.437355, lat=43.138599, altitude=171.70, speed=14.82, satellites=7, angle=94.2600, fixquality=1
$GPGGA,223643.500,4308.3160,N,07726.2394,W,1,07,1.41,171.7,M,-34.4,M,,*57
$GPRMC,223643.500,A,4308.3160,N,07726.2394,W,15.82,94.12,030924,,,A*74
lng=-77.437324, lat=43.138599, altitude=171.70, speed=15.34, satellites=7, angle=94.5100, fixquality=1
$GPGGA,223643.750,4308.3159,N,07726.2375,W,1,07,1.41,171.6,M,-34.4,M,,*54
$GPRMC,223643.750,A,4308.3159,N,07726.2375,W,16.27,94.07,030924$GPGGA,223644.000,4308.3159,N,07726.2356,W,1,07,1.41,171.5,M,-34.4,M,,*53
lng=-77.437286, lat=43.138599, altitude=171.60, speed=15.82, satellites=7, angle=94.1200, fixquality=1
$GPRMC,223644.250,A,4308.3159,N,07726.2336,W,17.51,93.58,030924,,,A*76
$GPGGA,223644.500,4308.3159,N,07726.2316,W,1,07,1.41,171.3,M,-34.4,M,,*54
lng=-77.437225, lat=43.138599, altitude=171.60, speed=17.51, satellites=7, angle=93.5800, fixquality=1
$GPRMC,223644.750,A,4308.3159,N,07726.2295,W,18.36,92.62,030924,,,A*7D
$GPGGA,223645.000,4308.3159,N,07726.2275,W,1,07,1.41,171.1,M,-34.4,M,,*56
lng=-77.437156, lat=43.138599, altitude=171.30, speed=18.36, satellites=7, angle=92.6200, fixquality=1
$GPRMC,223645.250,A,4308.3159,N,07726.2255,W,18.95,91.59,030924,,,A*77
$GPGGA,223645.500,4308.3159,N,07726.2236,W,1,07,1.41,170.9,M,-34.4,M,,*5D
lng=-77.437095, lat=43.138599, altitude=171.10, speed=18.95, satellites=7, angle=91.5900, fixquality=1
$GPRMC,223645.750,A,4308.3159,N,07726.2216,W,19.37,90.98,030924,,,A*70
$GPGGA,223646.000,4308.3159,N,07726.2197,W,1,07,1.41,170.8,M,-34.4,M,,*52
lng=-77.437026, lat=43.138599, altitude=170.90, speed=19.37, satellites=7, angle=90.9800, fixquality=1
$GPRMC,223646.250,A,4308.3159,N,07726.2177,W,19.64,90.73,030924,,,A*71
$GPGGA,223646.500,4308.3159,N,07726.2158,W,1,07,1.41,170.6,M,-34.4,M,,*5A
lng=-77.436965, lat=43.138599, altitude=170.80, speed=19.64, satellites=7, angle=90.7300, fixquality=1
$GPRMC,223646.750,A,4308.3159,N,07726.2139,W,19.85,90.57,030924,,,A*77
$GPGGA,223647.000,4308.3159,N,07726.2119,W,1,07,1.22,170.3,M,-34.4,M,,*5B
lng=-77.436897, lat=43.138599, altitude=170.60, speed=19.85, satellites=7, angle=90.5700, fixquality=1
$GPRMC,223647.250,A,4308.3159,N,07726.2100,W,20.11,90.84,030924,,,A*70
$GPGGA,223647.500,4308.3159,N,07726.2080,W,1,07,1.41,170.1,M,-34.4,M,,*58
lng=-77.436836, lat=43.138599, altitude=170.30, speed=20.11, satellites=7, angle=90.8400, fixquality=1
$GPRMC,223647.750,A,4308.3159,N,07726.2061,W,20.16,91.34,030924,,,A*7E
$GPGGA,223648.000,4308.3159,N,07726.2041,W,1,07,1.41,170.0,M,-34.4,M,,*5E
lng=-77.436767, lat=43.138599, altitude=170.10, speed=20.16, satellites=7, angle=91.3400, fixquality=1
$GPRMC,223648.250,A,4308.3159,N,07726.2021,W,20.23,91.31,030924,,,A*73
$GPGGA,223648.500,4308.3159,N,07726.2001,W,1,07,1.41,169.9,M,-34.4,M,,*5E
lng=-77.436698, lat=43.138599, altitude=170.00, speed=20.23, satellites=7, angle=91.3100, fixquality=1
$GPRMC,223648.750,A,4308.3158,N,07726.1982,W,20.43,91.11,030924,,,A*70
$GPGGA,223649.000,4308.3158,N,07726.1963,W,1,07,1.22,169.8,M,-34.4,M,,*51
lng=-77.436637, lat=43.138599, altitude=169.90, speed=20.43, satellites=7, angle=91.1100, fixquality=1
$GPRMC,223649.250,A,4308.3158,N,07726.1944,W,20.46,91.29,030924,,,A*70
$GPGGA,223649.500,4308.3157,N,07726.1925,W,1,07,1.41,169.7,M,-34.4,M,,*53
lng=-77.436569, lat=43.138599, altitude=169.80, speed=20.46, satellites=7, angle=91.2900, fixquality=1
$GPRMC,223649.750,A,4308.3156,N,07726.1905,W,20.53,93.14,030924,,,A*76
$GPGGA,223650.000,4308.3155,N,07726.1886,W,1,07,1.41,169.5,M,-34.4,M,,*56
lng=-77.436508, lat=43.138591, altitude=169.70, speed=20.53, satellites=7, angle=93.1400, fixquality=1
$GPRMC,223650.250,A,4308.3155,N,07726.1867,W,20.52,92.98,030924,,,A*79
$GPGGA,223650.500,4308.3154,N,07726.1848,W,1,07,1.41,169.3,M,-34.4,M,,*56
lng=-77.436439, lat=43.138591, altitude=169.50, speed=20.52, satellites=7, angle=92.9800, fixquality=1
$GPRMC,223650.750,A,4308.3154,N,07726.1829,W,20.45,92.25,030924,,,A*77
$GPGGA,223651.000,4308.3154,N,07726.1810,W,1,07,1.41,169.1,M,-34.4,M,,*5D
lng=-77.436386, lat=43.138591, altitude=169.30, speed=20.45, satellites=7, angle=92.2500, fixquality=1
$GPRMC,223651.250,A,4308.3154,N,07726.1791,W,20.23,91.89,030924,,,A*7A
$GPGGA,223651.500,4308.3153,N,07726.1772,W,1,07,1.41,168.9,M,-34.4,M,,*5D
lng=-77.436317, lat=43.138591, altitude=169.10, speed=20.23, satellites=7, angle=91.8900, fixquality=1
$GPRMC,223651.750,A,4308.3153,N,07726.1754,W,19.85,91.14,030924,,,A*73
$GPGGA,223652.000,4308.3153,N,07726.1735,W,1,07,1.41,168.7,M,-34.4,M,,*56
lng=-77.436256, lat=43.138591, altitude=168.90, speed=19.85, satellites=7, angle=91.1400, fixquality=1
$GPRMC,223652.250,A,4308.3153,N,07726.1717,W,19.39,90.33,030924,,,A*71
$GPGGA,223652.500,4308.3153,N,07726.1699,W,1,07,1.41,168.4,M,-34.4,M,,*57
lng=-77.436195, lat=43.138591, altitude=168.70, speed=19.39, satellites=7, angle=90.3300, fixquality=1
$GPRMC,223652.750,A,4308.3153,N,07726.1682,W,19.04,89.76,030924,,,A*7E
$GPGGA,223653.000,4308.3153,N,07726.1664,W,1,07,1.41,168.1,M,-34.4,M,,*54
lng=-77.436134, lat=43.138591, altitude=168.40, speed=19.04, satellites=7, angle=89.7600, fixquality=1
$GPRMC,223653.250,A,4308.3153,N,07726.1646,W,18.57,89.68,030924,,,A*7A
$GPGGA,223653.500,4308.3153,N,07726.1629,W,1,07,1.41,167.7,M,-34.4,M,,*51
lng=-77.436073, lat=43.138591, altitude=168.10, speed=18.57, satellites=7, angle=89.6800, fixquality=1
$GPRMC,223653.750,A,4308.3153,N,07726.1612,W,18.24,89.98,030924,,,A*75
$GPGGA,223654.000,4308.3154,N,07726.1595,W,1,07,1.41,167.4,M,-34.4,M,,*53
lng=-77.436019, lat=43.138591, altitude=167.70, speed=18.24, satellites=7, angle=89.9800, fixquality=1
$GPRMC,223654.250,A,4308.3154,N,07726.1579,W,18.15,90.20,030924,,,A*77
$GPGGA,223654.500,4308.3154,N,07726.1562,W,1,07,1.41,167.1,M,-34.4,M,,*5B
lng=-77.435958, lat=43.138591, altitude=167.40, speed=18.15, satellites=7, angle=90.2000, fixquality=1
$GPRMC,223654.750,A,4308.3155,N,07726.1545,W,18.17,89.44,030924,,,A*74
$GPGGA,223655.000,4308.3155,N,07726.1528,W,1,07,1.41,166.8,M,-34.4,M,,*58
lng=-77.435905, lat=43.138591, altitude=167.10, speed=18.17, satellites=7, angle=89.4400, fixquality=1
$GPRMC,223655.250,A,4308.3156,N,07726.1511,W,18.21,88.10,030924,,,A*77
$GPGGA,223655.500,4308.3157,N,07726.1495,W,1,07,1.41,166.5,M,-34.4,M,,*55
lng=-77.435844, lat=43.138591, altitude=166.80, speed=18.21, satellites=7, angle=88.1000, fixquality=1
$GPRMC,223655.750,A,4308.3158,N,07726.1478,W,18.26,86.65,030924,,,A*79
$GPGGA,223656.000,4308.3160,N,07726.1461,W,1,07,1.22,166.4,M,-34.4,M,,*58
lng=-77.435798, lat=43.138599, altitude=166.50, speed=18.26, satellites=7, angle=86.6500, fixquality=1
$GPRMC,223656.250,A,4308.3162,N,07726.1444,W,18.45,84.58,030924,,,A*70
$GPGGA,223656.500,4308.3164,N,07726.1427,W,1,07,1.41,166.1,M,-34.4,M,,*5B
lng=-77.435745, lat=43.138607, altitude=166.40, speed=18.45, satellites=7, angle=84.5800, fixquality=1
$GPRMC,223656.750,A,4308.3167,N,07726.1412,W,18.71,80.17,030924,,,A*7B
$GPGGA,223657.000,4308.3170,N,07726.1396,W,1,07,1.41,165.7,M,-34.4,M,,*52
lng=-77.435684, lat=43.138614, altitude=166.10, speed=18.71, satellites=7, angle=80.1700, fixquality=1
$GPRMC,223657.250,A,4308.3174,N,07726.1380,W,18.73,76.72,030924,,,A*79
$GPGGA,223657.500,4308.3178,N,07726.1364,W,1,07,1.41,165.3,M,-34.4,M,,*56
lng=-77.435638, lat=43.138622, altitude=165.70, speed=18.73, satellites=7, angle=76.7200, fixquality=1
$GPRMC,223657.750,A,4308.3183,N,07726.1348,W,18.75,69.98,030924,,,A*7C
$GPGGA,223658.000,4308.3188,N,07726.1332,W,1,07,1.41,165.0,M,-34.4,M,,*53
lng=-77.435577, lat=43.138637, altitude=165.30, speed=18.75, satellites=7, angle=69.9800, fixquality=1
$GPRMC,223658.250,A,4308.3194,N,07726.1316,W,18.82,64.77,030924,,,A*7F
$GPGGA,223658.500,4308.3201,N,07726.1300,W,1,07,1.41,165.0,M,-34.4,M,,*55
lng=-77.435531, lat=43.138656, altitude=165.00, speed=18.82, satellites=7, angle=64.7700, fixquality=1
$GPRMC,223658.750,A,4308.3208,N,07726.1286,W,18.58,59.59,030924,,,A*71
$GPGGA,223659.000,4308.3215,N,07726.1271,W,1,07,1.41,164.9,M,-34.4,M,,*5B
lng=-77.435470, lat=43.138679, altitude=165.00, speed=18.58, satellites=7, angle=59.5900, fixquality=1
$GPRMC,223659.250,A,4308.3223,N,07726.1257,W,18.39,54.81,030924,,,A*7F
$GPGGA,223659.500,4308.3231,N,07726.1243,W,1,07,1.41,164.7,M,-34.4,M,,*57
lng=-77.435424, lat=43.138706, altitude=164.90, speed=18.39, satellites=7, angle=54.8100, fixquality=1
$GPRMC,223659.750,A,4308.3240,N,07726.1230,W,18.35,50.35,030924,,,A*79
$GPGGA,223700.000,4308.3248,N,07726.1217,W,1,07,1.41,164.5,M,-34.4,M,,*52
lng=-77.435386, lat=43.138736, altitude=164.70, speed=18.35, satellites=7, angle=50.3500, fixquality=1
$GPRMC,223700.250,A,4308.3258,N,07726.1205,W,18.60,45.78,030924,,,A*73
$GPGGA,223700.500,4308.3269,N,07726.1194,W,1,07,1.41,164.4,M,-34.4,M,,*5D
lng=-77.435340, lat=43.138759, altitude=164.50, speed=18.60, satellites=7, angle=45.7800, fixquality=1
$GPRMC,223700.750,A,4308.3279,N,07726.1183,W,18.89,39.71,030924,,,A*7D
$GPGGA,223701.000,4308.3289,N,07726.1172,W,1,07,1.41,164.2,M,-34.4,M,,*59
lng=-77.435302, lat=43.138801, altitude=164.40, speed=18.89, satellites=7, angle=39.7100, fixquality=1
$GPRMC,223701.250,A,4308.3300,N,07726.1163,W,18.85,36.07,030924,,,A*7A
$GPGGA,223701.500,4308.3312,N,07726.1155,W,1,07,1.41,163.9,M,-34.4,M,,*56
lng=-77.435272, lat=43.138835, altitude=164.20, speed=18.85, satellites=7, angle=36.0700, fixquality=1
$GPRMC,223701.750,A,4308.3323,N,07726.1145,W,18.94,35.45,030924,,,A*7F
$GPGGA,223702.000,4308.3334,N,07726.1136,W,1,07,1.22,163.8,M,-34.4,M,,*55
lng=-77.435234, lat=43.138874, altitude=163.90, speed=18.94, satellites=7, angle=35.4500, fixquality=1
$GPRMC,223702.250,A,4308.3345,N,07726.1129,W,18.95,31.01,030924,,,A*76
$GPGGA,223702.500,4308.3357,N,07726.1121,W,1,07,1.41,163.8,M,-34.4,M,,*56
lng=-77.435211, lat=43.138908, altitude=163.80, speed=18.95, satellites=7, angle=31.0100, fixquality=1
$GPRMC,223702.750,A,4308.3369,N,07726.1115,W,18.55,25.38,030924,,,A*71
$GPGGA,223703.000,4308.3381,N,07726.1109,W,1,07,1.41,163.6,M,-34.4,M,,*5D
lng=-77.435188, lat=43.138950, altitude=163.80, speed=18.55, satellites=7, angle=25.3800, fixquality=1
$GPRMC,223703.250,A,4308.3394,N,07726.1104,W,18.58,19.10,030924,,,A*7F
$GPGGA,223703.500,4308.3407,N,07726.1101,W,1,07,1.41,163.5,M,-34.4,M,,*5A
lng=-77.435173, lat=43.138988, altitude=163.60, speed=18.58, satellites=7, angle=19.1000, fixquality=1
$GPRMC,223703.750,A,4308.3420,N,07726.1098,W,18.78,14.81,030924,,,A*71
$GPGGA,223704.000,4308.3433,N,07726.1094,W,1,07,1.41,163.2,M,-34.4,M,,*55
lng=-77.435165, lat=43.139030, altitude=163.50, speed=18.78, satellites=7, angle=14.8100, fixquality=1
$GPRMC,223704.250,A,4308.3446,N,07726.1092,W,18.88,11.23,030924,,,A*7B
$GPGGA,223704.500,4308.3460,N,07726.1091,W,1,07,1.41,162.8,M,-34.4,M,,*58
lng=-77.435157, lat=43.139080, altitude=163.20, speed=18.88, satellites=7, angle=11.2300, fixquality=1
$GPRMC,223704.750,A,4308.3473,N,07726.1090,W,19.05,7.45,030924,,,A*49
$GPGGA,223705.000,4308.3486,N,07726.1089,W,1,07,1.41,162.4,M,-34.4,M,,*51
lng=-77.435150, lat=43.139118, altitude=162.80, speed=19.05, satellites=7, angle=7.4500, fixquality=1
$GPRMC,223705.250,A,4308.3500,N,07726.1089,W,19.03,4.52,030924,,,A*43
$GPGGA,223705.500,4308.3513,N,07726.1090,W,1,07,1.41,162.0,M,-34.4,M,,*55
lng=-77.435150, lat=43.139167, altitude=162.40, speed=19.03, satellites=7, angle=4.5200, fixquality=1
$GPRMC,223705.750,A,4308.3526,N,07726.1090,W,19.03,2.33,030924,,,A*4B
$GPGGA,223706.000,4308.3540,N,07726.1090,W,1,07,1.41,161.6,M,-34.4,M,,*50
lng=-77.435150, lat=43.139209, altitude=162.00, speed=19.03, satellites=7, angle=2.3300, fixquality=1
$GPRMC,223706.250,A,4308.3554,N,07726.1091,W,19.63,0.67,030924,,,A*4C
$GPGGA,223706.500,4308.3569,N,07726.1091,W,1,07,1.41,161.4,M,-34.4,M,,*5D
lng=-77.435150, lat=43.139259, altitude=161.60, speed=19.63, satellites=7, angle=0.6700, fixquality=1
$GPRMC,223706.750,A,4308.3583,N,07726.1092,W,20.14,0.38,030924,,,A*40
$GPGGA,223707.000,4308.3598,N,07726.1092,W,1,07,1.41,161.2,M,-34.4,M,,*52
lng=-77.435157, lat=43.139305, altitude=161.40, speed=20.14, satellites=7, angle=0.3800, fixquality=1
$GPRMC,223707.250,A,4308.3613,N,07726.1093,W,20.68,0.16,030924,,,A*48
$GPGGA,223707.500,4308.3628,N,07726.1094,W,1,07,1.41,160.9,M,-34.4,M,,*53
lng=-77.435157, lat=43.139354, altitude=161.20, speed=20.68, satellites=7, angle=0.1600, fixquality=1
$GPRMC,223707.750,A,4308.3644,N,07726.1095,W,21.36,359.57,030924,,,A*49
$GPGGA,223708.000,4308.3659,N,07726.1096,W,1,07,1.41,160.7,M,-34.4,M,,*53
lng=-77.435157, lat=43.139404, altitude=160.90, speed=21.36, satellites=7, angle=359.5700, fixquality=1
$GPRMC,223708.250,A,4308.3674,N,07726.1097,W,21.60,359.55,030924,,,A*43
$GPGGA,223708.500,4308.3690,N,07726.1098,W,1,07,1.41,160.5,M,-34.4,M,,*5F
lng=-77.435165, lat=43.139453, altitude=160.70, speed=21.60, satellites=7, angle=359.5500, fixquality=1
$GPRMC,223708.750,A,4308.3705,N,07726.1099,W,21.84,359.83,030924,,,A*4E
$GPGGA,223709.000,4308.3721,N,07726.1100,W,1,07,1.41,160.2,M,-34.4,M,,*57
lng=-77.435165, lat=43.139511, altitude=160.50, speed=21.84, satellites=7, angle=359.8300, fixquality=1
$GPRMC,223709.250,A,4308.3738,N,07726.1100,W,22.33,0.27,030924,,,A*4B
$GPGGA,223709.500,4308.3754,N,07726.1100,W,1,07,1.41,160.0,M,-34.4,M,,*52
lng=-77.435165, lat=43.139568, altitude=160.20, speed=22.33, satellites=7, angle=0.2700, fixquality=1
$GPRMC,223709.750,A,4308.3770,N,07726.1101,W,22.65,0.87,030924,,,A*4A
$GPGGA,223710.000,4308.3786,N,07726.1101,W,1,07,1.41,159.8,M,-34.4,M,,*53
lng=-77.435165, lat=43.139614, altitude=160.00, speed=22.65, satellites=7, angle=0.8700, fixquality=1
$GPRMC,223710.250,A,4308.3803,N,07726.1101,W,22.77,1.24,030924,,,A*47
$GPGGA,223710.500,4308.3819,N,07726.1101,W,1,07,1.41,159.6,M,-34.4,M,,*51
lng=-77.435165, lat=43.139671, altitude=159.80, speed=22.77, satellites=7, angle=1.2400, fixquality=1
$GPRMC,223710.750,A,4308.3835,N,07726.1101,W,22.85,1.43,030924,,,A*4B
$GPGGA,223711.000,4308.3850,N,07726.1101,W,1,07,1.41,159.5,M,-34.4,M,,*5B
lng=-77.435165, lat=43.139720, altitude=159.60, speed=22.85, satellites=7, angle=1.4300, fixquality=1
$GPRMC,223711.250,A,4308.3866,N,07726.1101,W,22.43,2.25,030924,,,A*40
$GPGGA,223711.500,4308.3881,N,07726.1101,W,1,07,1.41,159.4,M,-34.4,M,,*53
lng=-77.435165, lat=43.139778, altitude=159.50, speed=22.43, satellites=7, angle=2.2500, fixquality=1
$GPRMC,223711.750,A,4308.3896,N,07726.1101,W,22.14,2.32,030924,,,A*4E
$GPGGA,223712.000,4308.3912,N,07726.1101,W,1,07,1.41,159.4,M,-34.4,M,,*5E
lng=-77.435165, lat=43.139827, altitude=159.40, speed=22.14, satellites=7, angle=2.3200, fixquality=1
$GPRMC,223712.250,A,4308.3927,N,07726.1101,W,22.06,1.53,030924,,,A*44
$GPGGA,223712.500,4308.3942,N,07726.1101,W,1,07,1.41,159.4,M,-34.4,M,,*5E
lng=-77.435165, lat=43.139877, altitude=159.40, speed=22.06, satellites=7, angle=1.5300, fixquality=1
$GPRMC,223712.750,A,4308.3957,N,07726.1101,W,21.82,1.75,030924,,,A*4D
$GPGGA,223713.000,4308.3971,N,07726.1101,W,1,07,1.41,159.4,M,-34.4,M,,*5A
lng=-77.435165, lat=43.139926, altitude=159.40, speed=21.82, satellites=7, angle=1.7500, fixquality=1
$GPRMC,223713.250,A,4308.3986,N,07726.1101,W,21.70,1.66,030924,,,A*4A
$GPGGA,223713.500,4308.4001,N,07726.1102,W,1,07,1.41,159.4,M,-34.4,M,,*55
lng=-77.435165, lat=43.139972, altitude=159.40, speed=21.70, satellites=7, angle=1.6600, fixquality=1
$GPRMC,223713.750,A,4308.4015,N,07726.1101,W,21.45,1.78,030924,,,A*42
$GPGGA,223714.000,4308.4030,N,07726.1101,W,1,07,1.41,159.4,M,-34.4,M,,*56
lng=-77.435165, lat=43.140022, altitude=159.40, speed=21.45, satellites=7, angle=1.7800, fixquality=1
$GPRMC,223714.250,A,4308.4044,N,07726.1101,W,21.10,2.03,030924,,,A*4B
$GPGGA,223714.500,4308.4059,N,07726.1101,W,1,07,1.41,159.4,M,-34.4,M,,*5C
lng=-77.435165, lat=43.140071, altitude=159.40, speed=21.10, satellites=7, angle=2.0300, fixquality=1
$GPRMC,223714.750,A,4308.4073,N,07726.1100,W,20.75,2.35,030924,,,A*4C
$GPGGA,223715.000,4308.4087,N,07726.1100,W,1,07,1.41,159.4,M,-34.4,M,,*5A
lng=-77.435165, lat=43.140121, altitude=159.40, speed=20.75, satellites=7, angle=2.3500, fixquality=1
$GPRMC,223715.250,A,4308.4101,N,07726.1100,W,20.29,2.19,030924,,,A*4B
$GPGGA,223715.500,4308.4114,N,07726.1100,W,1,07,1.41,159.4,M,-34.4,M,,*54
lng=-77.435165, lat=43.140171, altitude=159.40, speed=20.29, satellites=7, angle=2.1900, fixquality=1
$GPRMC,223715.750,A,4308.4127,N,07726.1100,W,19.58,2.37,030924,,,A*4A
$GPGGA,223716.000,4308.4141,N,07726.1100,W,1,07,1.41,159.4,M,-34.4,M,,*52
lng=-77.435165, lat=43.140209, altitude=159.40, speed=19.58, satellites=7, angle=2.3700, fixquality=1
$GPRMC,223716.250,A,4308.4153,N,07726.1100,W,19.01,2.65,030924,,,A*44
$GPGGA,223716.500,4308.4166,N,07726.1100,W,1,07,1.41,159.5,M,-34.4,M,,*53
lng=-77.435165, lat=43.140258, altitude=159.40, speed=19.01, satellites=7, angle=2.6500, fixquality=1
$GPRMC,223716.750,A,4308.4178,N,07726.1100,W,18.37,2.76,030924,,,A*4E
$GPGGA,223717.000,4308.4191,N,07726.1099,W,1,07,1.41,159.2,M,-34.4,M,,*59
lng=-77.435165, lat=43.140300, altitude=159.50, speed=18.37, satellites=7, angle=2.7600, fixquality=1
$GPRMC,223717.250,A,4308.4203,N,07726.1099,W,17.86,3.08,030924,,,A*49
$GPGGA,223717.500,4308.4216,N,07726.1098,W,1,07,1.41,159.0,M,-34.4,M,,*53
lng=-77.435165, lat=43.140338, altitude=159.20, speed=17.86, satellites=7, angle=3.0800, fixquality=1
$GPRMC,223717.750,A,4308.4227,N,07726.1098,W,17.35,3.05,030924,,,A*4E
$GPGGA,223718.000,4308.4239,N,07726.1098,W,1,07,1.41,158.8,M,-34.4,M,,*5D
lng=-77.435165, lat=43.140380, altitude=159.00, speed=17.35, satellites=7, angle=3.0500, fixquality=1
$GPRMC,223718.250,A,4308.4252,N,07726.1100,W,16.91,3.38,030924,,,A*47
$GPGGA,223718.500,4308.4265,N,07726.1103,W,1,07,1.41,158.7,M,-34.4,M,,*5D
lng=-77.435165, lat=43.140422, altitude=158.80, speed=16.91, satellites=7, angle=3.3800, fixquality=1
$GPRMC,223718.750,A,4308.4277,N,07726.1106,W,16.68,3.87,030924,,,A*41
$GPGGA,223719.000,4308.4289,N,07726.1105,W,1,07,1.41,158.7,M,-34.4,M,,*5D
lng=-77.435180, lat=43.140460, altitude=158.70, speed=16.68, satellites=7, angle=3.8700, fixquality=1
$GPRMC,223719.250,A,4308.4300,N,07726.1106,W,16.33,4.33,030924,,,A*42
$GPGGA,223719.500,4308.4310,N,07726.1105,W,1,07,1.41,158.8,M,-34.4,M,,*56
lng=-77.435180, lat=43.140502, altitude=158.70, speed=16.33, satellites=7, angle=4.3300, fixquality=1
$GPRMC,223719.750,A,4308.4319,N,07726.1105,W,15.50,5.95,030924,,,A*47
$GPGGA,223720.000,4308.4328,N,07726.1104,W,1,07,1.41,159.2,M,-34.4,M,,*58
lng=-77.435173, lat=43.140537, altitude=158.80, speed=15.50, satellites=7, angle=5.9500, fixquality=1
$GPRMC,223720.250,A,4308.4336,N,07726.1102,W,14.43,7.93,030924,,,A*45
$GPGGA,223720.500,4308.4343,N,07726.1101,W,1,07,1.41,159.4,M,-34.4,M,,*53
lng=-77.435173, lat=43.140560, altitude=159.20, speed=14.43, satellites=7, angle=7.9300, fixquality=1
$GPRMC,223720.750,A,4308.4347,N,07726.1101,W,12.47,9.62,030924,,,A*47
$GPGGA,223721.000,4308.4350,N,07726.1100,W,1,07,1.41,159.5,M,-34.4,M,,*55
lng=-77.435165, lat=43.140575, altitude=159.40, speed=12.47, satellites=7, angle=9.6200, fixquality=1
$GPRMC,223721.250,A,4308.4350,N,07726.1103,W,8.98,6.30,030924,,,A*76
$GPGGA,223721.500,4308.4351,N,07726.1104,W,1,07,1.41,159.1,M,-34.4,M,,*51
lng=-77.435173, lat=43.140583, altitude=159.50, speed=8.98, satellites=7, angle=6.3000, fixquality=1
$GPRMC,223721.750,A,4308.4352,N,07726.1104,W,6.41,2.86,030924,,,A*75
$GPGGA,223722.000,4308.4356,N,07726.1100,W,1,07,1.41,158.7,M,-34.4,M,,*53
lng=-77.435173, lat=43.140583, altitude=159.10, speed=6.41, satellites=7, angle=2.8600, fixquality=1
$GPRMC,223722.250,A,4308.4358,N,07726.1099,W,5.79,5.15,030924,,,A*79
$GPGGA,223722.500,4308.4361,N,07726.1099,W,1,07,1.41,158.2,M,-34.4,M,,*56
lng=-77.435165, lat=43.140602, altitude=158.70, speed=5.79, satellites=7, angle=5.1500, fixquality=1
$GPRMC,223722.750,A,4308.4366,N,07726.1097,W,5.77,356.76,030924,,,A*71
$GPGGA,223723.000,4308.4369,N,07726.1097,W,1,07,1.41,157.5,M,-34.4,M,,*5C
lng=-77.435165, lat=43.140609, altitude=158.20, speed=5.77, satellites=7, angle=356.7600, fixquality=1
$GPRMC,223723.250,A,4308.4373,N,07726.1098,W,6.14,349.97,030924,,,A*79
$GPGGA,223723.500,4308.4375,N,07726.1101,W,1,07,1.41,157.1,M,-34.4,M,,*5E
lng=-77.435165, lat=43.140625, altitude=157.50, speed=6.14, satellites=7, angle=349.9700, fixquality=1
$GPRMC,223723.750,A,4308.4378,N,07726.1105,W,7.37,338.43,030924,,,A*7D
$GPGGA,223724.000,4308.4382,N,07726.1109,W,1,07,1.22,156.9,M,-34.4,M,,*50
lng=-77.435173, lat=43.140632, altitude=157.10, speed=7.37, satellites=7, angle=338.4300, fixquality=1
$GPRMC,223724.250,A,4308.4387,N,07726.1114,W,7.79,328.58,030924,,,A*7E
$GPGGA,223724.500,4308.4392,N,07726.1122,W,1,07,1.41,156.4,M,-34.4,M,,*55
lng=-77.435188, lat=43.140640, altitude=156.90, speed=7.79, satellites=7, angle=328.5800, fixquality=1
$GPRMC,223724.750,A,4308.4397,N,07726.1131,W,10.70,313.93,030924,,,A*4D
$GPGGA,223725.000,4308.4403,N,07726.1139,W,1,07,1.22,155.9,M,-34.4,M,,*5F
lng=-77.435218, lat=43.140659, altitude=156.40, speed=10.70, satellites=7, angle=313.9300, fixquality=1
$GPRMC,223725.250,A,4308.4408,N,07726.1149,W,11.83,308.03,030924,,,A*49
$GPGGA,223725.500,4308.4412,N,07726.1159,W,1,07,1.41,155.5,M,-34.4,M,,*55
lng=-77.435249, lat=43.140682, altitude=155.90, speed=11.83, satellites=7, angle=308.0300, fixquality=1
$GPRMC,223725.750,A,4308.4415,N,07726.1171,W,12.37,296.28,030924,,,A*48
$GPGGA,223726.000,4308.4416,N,07726.1185,W,1,07,1.22,155.3,M,-34.4,M,,*55
lng=-77.435287, lat=43.140689, altitude=155.50, speed=12.37, satellites=7, angle=296.2800, fixquality=1
$GPRMC,223726.250,A,4308.4419,N,07726.1200,W,13.83,285.01,030924,,,A*40
$GPGGA,223726.500,4308.4422,N,07726.1216,W,1,07,1.41,155.0,M,-34.4,M,,*58
lng=-77.435333, lat=43.140697, altitude=155.30, speed=13.83, satellites=7, angle=285.0100, fixquality=1
$GPRMC,223726.750,A,4308.4424,N,07726.1233,W,15.48,276.98,030924,,,A*46
$GPGGA,223727.000,4308.4425,N,07726.1249,W,1,07,1.22,154.7,M,-34.4,M,,*52
lng=-77.435394, lat=43.140705, altitude=155.00, speed=15.48, satellites=7, angle=276.9800, fixquality=1
$GPRMC,223727.250,A,4308.4425,N,07726.1265,W,16.67,274.47,030924,,,A*4E
$GPGGA,223727.500,4308.4425,N,07726.1284,W,1,07,1.41,154.4,M,-34.4,M,,*50
lng=-77.435440, lat=43.140705, altitude=154.70, speed=16.67, satellites=7, angle=274.4700, fixquality=1
$GPRMC,223727.750,A,4308.4425,N,07726.1303,W,18.28,273.02,030924,,,A*49
$GPGGA,223728.000,4308.4425,N,07726.1323,W,1,07,1.22,154.1,M,-34.4,M,,*56
lng=-77.435508, lat=43.140705, altitude=154.40, speed=18.28, satellites=7, angle=273.0200, fixquality=1
$GPRMC,223728.250,A,4308.4426,N,07726.1344,W,19.77,272.99,030924,,,A*4B
$GPGGA,223728.500,4308.4427,N,07726.1366,W,1,07,1.22,153.9,M,-34.4,M,,*5F
lng=-77.435569, lat=43.140705, altitude=154.10, speed=19.77, satellites=7, angle=272.9900, fixquality=1
$GPRMC,223728.750,A,4308.4428,N,07726.1390,W,21.63,273.67,030924,,,A*47
$GPGGA,223729.000,4308.4429,N,07726.1413,W,1,07,1.22,153.7,M,-34.4,M,,*5E
lng=-77.435653, lat=43.140712, altitude=153.90, speed=21.63, satellites=7, angle=273.6700, fixquality=1
$GPRMC,223729.250,A,4308.4429,N,07726.1438,W,23.31,273.38,030924,,,A*48
$GPGGA,223729.500,4308.4430,N,07726.1464,W,1,07,1.22,153.5,M,-34.4,M,,*51
lng=-77.435737, lat=43.140712, altitude=153.70, speed=23.31, satellites=7, angle=273.3800, fixquality=1
$GPRMC,223729.750,A,4308.4431,N,07726.1491,W,25.23,272.64,030924,,,A*4A
$GPGGA,223730.000,4308.4433,N,07726.1519,W,1,07,1.22,153.3,M,-34.4,M,,*52
lng=-77.435813, lat=43.140712, altitude=153.50, speed=25.23, satellites=7, angle=272.6400, fixquality=1
$GPRMC,223730.250,A,4308.4435,N,07726.1549,W,27.34,273.16,030924,,,A*47
$GPGGA,223730.500,4308.4437,N,07726.1581,W,1,07,1.22,153.1,M,-34.4,M,,*50
lng=-77.435913, lat=43.140724, altitude=153.30, speed=27.34, satellites=7, angle=273.1600, fixquality=1
$GPRMC,223730.750,A,4308.4438,N,07726.1614,W,30.32,272.77,030924,,,A*42
$GPGGA,223731.000,4308.4440,N,07726.1648,W,1,07,1.22,152.8,M,-34.4,M,,*5A
lng=-77.436027, lat=43.140731, altitude=153.10, speed=30.32, satellites=7, angle=272.7700, fixquality=1
$GPRMC,223731.250,A,4308.4443,N,07726.1685,W,33.42,274.18,030924,,,A*49
$GPGGA,223731.500,4308.4445,N,07726.1722,W,1,07,1.22,152.5,M,-34.4,M,,*5A
lng=-77.436141, lat=43.140739, altitude=152.80, speed=33.42, satellites=7, angle=274.1800, fixquality=1
$GPRMC,223731.750,A,4308.4448,N,07726.1761,W,35.72,274.81,030924,,,A*49
$GPGGA,223732.000,4308.4451,N,07726.1797,W,1,07,1.22,152.2,M,-34.4,M,,*50
lng=-77.436271, lat=43.140747, altitude=152.50, speed=35.72, satellites=7, angle=274.8100, fixquality=1
$GPRMC,223732.250,A,4308.4453,N,07726.1836,W,37.60,274.79,030924,,,A*4E
$GPGGA,223732.500,4308.4457,N,07726.1875,W,1,06,1.28,152.1,M,-34.4,M,,*58
lng=-77.436393, lat=43.140754, altitude=152.20, speed=37.60, satellites=7, angle=274.7900, fixquality=1
$GPRMC,223732.750,A,4308.4459,N,07726.1914,W,39.33,275.02,030924,,,A*45
$GPGGA,223733.000,4308.4462,N,07726.1955,W,1,07,1.22,152.0,M,-34.4,M,,*53
lng=-77.436523, lat=43.140762, altitude=152.10, speed=39.33, satellites=6, angle=275.0200, fixquality=1
$GPRMC,223733.250,A,4308.4465,N,07726.1996,W,40.80,275.65,030924,,,A*43
$GPGGA,223733.500,4308.4468,N,07726.2037,W,1,07,1.22,151.9,M,-34.4,M,,*58
lng=-77.436660, lat=43.140769, altitude=152.00, speed=40.80, satellites=7, angle=275.6500, fixquality=1
$GPRMC,223733.750,A,4308.4472,N,07726.2078,W,41.78,276.21,030924,,,A*4F
$GPGGA,223734.000,4308.4475,N,07726.2119,W,1,07,1.22,151.8,M,-34.4,M,,*5A
lng=-77.436798, lat=43.140789, altitude=151.90, speed=41.78, satellites=7, angle=276.2100, fixquality=1
$GPRMC,223734.250,A,4308.4478,N,07726.2161,W,41.79,276.61,030924,,,A*4B
$GPGGA,223734.500,4308.4481,N,07726.2201,W,1,07,1.41,151.8,M,-34.4,M,,*5B
lng=-77.436935, lat=43.140796, altitude=151.80, speed=41.79, satellites=7, angle=276.6100, fixquality=1
$GPRMC,223734.750,A,4308.4484,N,07726.2242,W,42.10,277.24,030924,,,A*43
$GPGGA,223735.000,4308.4488,N,07726.2282,W,1,07,1.22,151.9,M,-34.4,M,,*59
lng=-77.437065, lat=43.140804, altitude=151.80, speed=42.10, satellites=7, angle=277.2400, fixquality=1
$GPRMC,223735.250,A,4308.4491,N,07726.2322,W,41.97,277.65,030924,,,A*4D
$GPGGA,223735.500,4308.4494,N,07726.2362,W,1,07,1.22,152.0,M,-34.4,M,,*54
lng=-77.437210, lat=43.140819, altitude=151.90, speed=41.97, satellites=7, angle=277.6500, fixquality=1
$GPRMC,223735.750,A,4308.4498,N,07726.2403,W,41.83,277.77,030924,,,A*43
$GPGGA,223736.000,4308.4502,N,07726.2443,W,1,07,1.22,152.0,M,-34.4,M,,*58
lng=-77.437339, lat=43.140827, altitude=152.00, speed=41.83, satellites=7, angle=277.7700, fixquality=1
$GPRMC,223736.250,A,4308.4507,N,07726.2483,W,40.61,278.14,030924,,,A*4D
$GPGGA,223736.500,4308.4512,N,07726.2523,W,1,07,1.41,152.1,M,-34.4,M,,*5F
lng=-77.437477, lat=43.140846, altitude=152.00, speed=40.61, satellites=7, angle=278.1400, fixquality=1
$GPRMC,223736.750,A,4308.4516,N,07726.2563,W,40.51,277.89,030924,,,A*4F
$GPGGA,223737.000,4308.4520,N,07726.2602,W,1,07,1.22,152.0,M,-34.4,M,,*5E
lng=-77.437606, lat=43.140861, altitude=152.10, speed=40.51, satellites=7, angle=277.8900, fixquality=1
$GPRMC,223737.250,A,4308.4523,N,07726.2642,W,40.89,277.74,030924,,,A*4A
$GPGGA,223737.500,4308.4527,N,07726.2683,W,1,07,1.41,152.1,M,-34.4,M,,*51
lng=-77.437736, lat=43.140869, altitude=152.00, speed=40.89, satellites=7, angle=277.7400, fixquality=1
$GPRMC,223737.750,A,4308.4531,N,07726.2723,W,40.73,278.04,030924,,,A*47
$GPGGA,223738.000,4308.4535,N,07726.2763,W,1,07,1.22,152.0,M,-34.4,M,,*53
lng=-77.437873, lat=43.140884, altitude=152.10, speed=40.73, satellites=7, angle=278.0400, fixquality=1
$GPRMC,223738.250,A,4308.4539,N,07726.2803,W,40.88,278.20,030924,,,A*4A
$GPGGA,223738.500,4308.4544,N,07726.2843,W,1,07,1.22,152.0,M,-34.4,M,,*5D
lng=-77.438003, lat=43.140903, altitude=152.00, speed=40.88, satellites=7, angle=278.2000, fixquality=1
$GPRMC,223738.750,A,4308.4548,N,07726.2883,W,40.93,278.14,030924,,,A*4C
$GPGGA,223739.000,4308.4552,N,07726.2922,W,1,07,1.22,152.0,M,-34.4,M,,*58
lng=-77.438133, lat=43.140911, altitude=152.00, speed=40.93, satellites=7, angle=278.1400, fixquality=1
$GPRMC,223739.250,A,4308.4556,N,07726.2961,W,41.01,278.21,030924,,,A*46
$GPGGA,223739.500,4308.4561,N,07726.3001,W,1,07,1.41,151.9,M,-34.4,M,,*5B
lng=-77.438262, lat=43.140926, altitude=152.00, speed=41.01, satellites=7, angle=278.2100, fixquality=1
$GPRMC,223739.750,A,4308.4566,N,07726.3039,W,41.00,278.75,030924,,,A*45
$GPGGA,223740.000,4308.4570,N,07726.3078,W,1,07,1.22,151.9,M,-34.4,M,,*5B
lng=-77.438392, lat=43.140941, altitude=151.90, speed=41.00, satellites=7, angle=278.7500, fixquality=1
$GPRMC,223740.250,A,4308.4574,N,07726.3116,W,40.89,278.96,030924,,,A*4C
$GPGGA,223740.500,4308.4580,N,07726.3154,W,1,07,1.41,151.9,M,-34.4,M,,*5B
lng=-77.438522, lat=43.140956, altitude=151.90, speed=40.89, satellites=7, angle=278.9600, fixquality=1
$GPRMC,223740.750,A,4308.4585,N,07726.3191,W,39.23,278.69,030924,,,A*46
$GPGGA,223741.000,4308.4590,N,07726.3228,W,1,07,1.22,151.9,M,-34.4,M,,*53
lng=-77.438652, lat=43.140975, altitude=151.90, speed=39.23, satellites=7, angle=278.6900, fixquality=1
$GPRMC,223741.250,A,4308.4594,N,07726.3265,W,38.98,278.61,030924,,,A*43
$GPGGA,223741.500,4308.4600,N,07726.3301,W,1,07,1.22,151.9,M,-34.4,M,,*56
lng=-77.438774, lat=43.140991, altitude=151.90, speed=38.98, satellites=7, angle=278.6100, fixquality=1
$GPRMC,223741.750,A,4308.4605,N,07726.3338,W,38.64,278.63,030924,,,A*45
$GPGGA,223742.000,4308.4611,N,07726.3374,W,1,07,1.22,152.0,M,-34.4,M,,*58
lng=-77.438896, lat=43.141006, altitude=151.90, speed=38.64, satellites=7, angle=278.6300, fixquality=1
$GPRMC,223742.250,A,4308.4616,N,07726.3409,W,38.51,278.52,030924,,,A*40
$GPGGA,223742.500,4308.4620,N,07726.3445,W,1,07,1.22,152.0,M,-34.4,M,,*5A
lng=-77.439010, lat=43.141025, altitude=152.00, speed=38.51, satellites=7, angle=278.5200, fixquality=1
$GPRMC,223742.750,A,4308.4626,N,07726.3480,W,37.71,278.65,030924,,,A*4E
$GPGGA,223743.000,4308.4632,N,07726.3514,W,1,07,1.22,152.1,M,-34.4,M,,*59
lng=-77.439132, lat=43.141040, altitude=152.00, speed=37.71, satellites=7, angle=278.6500, fixquality=1
$GPRMC,223743.250,A,4308.4636,N,07726.3549,W,37.56,278.68,030924,,,A*47
$GPGGA,223743.500,4308.4641,N,07726.3582,W,1,07,1.22,152.1,M,-34.4,M,,*57
lng=-77.439247, lat=43.141056, altitude=152.10, speed=37.56, satellites=7, angle=278.6800, fixquality=1
$GPRMC,223743.750,A,4308.4646,N,07726.3614,W,35.81,278.63,030924,,,A*4D
$GPGGA,223744.000,4308.4650,N,07726.3646,W,1,07,1.22,152.1,M,-34.4,M,,*5E
lng=-77.439353, lat=43.141071, altitude=152.10, speed=35.81, satellites=7, angle=278.6300, fixquality=1
$GPRMC,223744.250,A,4308.4653,N,07726.3676,W,34.29,278.33,030924,,,A*49
$GPGGA,223744.500,4308.4656,N,07726.3705,W,1,07,1.22,152.2,M,-34.4,M,,*58
lng=-77.439460, lat=43.141090, altitude=152.10, speed=34.29, satellites=7, angle=278.3300, fixquality=1
$GPRMC,223744.750,A,4308.4659,N,07726.3734,W,32.11,277.50,030924,,,A*46
$GPGGA,223745.000,4308.4662,N,07726.3762,W,1,07,1.22,152.2,M,-34.4,M,,*5A
lng=-77.439559, lat=43.141098, altitude=152.20, speed=32.11, satellites=7, angle=277.5000, fixquality=1
$GPRMC,223745.250,A,4308.4666,N,07726.3790,W,30.66,277.17,030924,,,A*41
$GPGGA,223745.500,4308.4668,N,07726.3817,W,1,07,1.22,152.1,M,-34.4,M,,*5B
lng=-77.439651, lat=43.141113, altitude=152.20, speed=30.66, satellites=7, angle=277.1700, fixquality=1
$GPRMC,223745.750,A,4308.4671,N,07726.3843,W,29.43,276.82,030924,,,A*41
$GPGGA,223746.000,4308.4674,N,07726.3870,W,1,07,1.22,152.1,M,-34.4,M,,*51
lng=-77.439735, lat=43.141120, altitude=152.10, speed=29.43, satellites=7, angle=276.8200, fixquality=1
$GPRMC,223746.250,A,4308.4676,N,07726.3895,W,28.39,276.53,030924,,,A*4B
$GPGGA,223746.500,4308.4678,N,07726.3920,W,1,07,1.22,152.1,M,-34.4,M,,*5C
lng=-77.439826, lat=43.141128, altitude=152.10, speed=28.39, satellites=7, angle=276.5300, fixquality=1
$GPRMC,223746.750,A,4308.4680,N,07726.3944,W,27.08,276.25,030924,,,A*46
$GPGGA,223747.000,4308.4683,N,07726.3968,W,1,07,1.22,152.0,M,-34.4,M,,*51
lng=-77.439910, lat=43.141128, altitude=152.10, speed=27.08, satellites=7, angle=276.2500, fixquality=1
$GPRMC,223747.250,A,4308.4685,N,07726.3992,W,26.21,276.37,030924,,,A*45
$GPGGA,223747.500,4308.4687,N,07726.4015,W,1,07,1.22,151.9,M,-34.4,M,,*5E
lng=-77.439987, lat=43.141136, altitude=152.00, speed=26.21, satellites=7, angle=276.3700, fixquality=1
$GPRMC,223747.750,A,4308.4689,N,07726.4038,W,25.49,276.58,030924,,,A*46
$GPGGA,223748.000,4308.4691,N,07726.4061,W,1,07,1.22,151.8,M,-34.4,M,,*51
lng=-77.440063, lat=43.141147, altitude=151.90, speed=25.49, satellites=7, angle=276.5800, fixquality=1
$GPRMC,223748.250,A,4308.4692,N,07726.4083,W,24.75,276.41,030924,,,A*40
$GPGGA,223748.500,4308.4694,N,07726.4105,W,1,07,1.22,151.7,M,-34.4,M,,*5D
lng=-77.440139, lat=43.141155, altitude=151.80, speed=24.75, satellites=7, angle=276.4100, fixquality=1
$GPRMC,223748.750,A,4308.4696,N,07726.4127,W,24.04,276.78,030924,,,A*42
$GPGGA,223749.000,4308.4698,N,07726.4148,W,1,07,1.22,151.5,M,-34.4,M,,*5E
lng=-77.440208, lat=43.141162, altitude=151.70, speed=24.04, satellites=7, angle=276.7800, fixquality=1
$GPRMC,223749.250,A,4308.4700,N,07726.4170,W,23.37,277.10,030924,,,A*42
$GPGGA,223749.500,4308.4702,N,07726.4190,W,1,07,1.22,151.4,M,-34.4,M,,*5D
lng=-77.440284, lat=43.141170, altitude=151.50, speed=23.37, satellites=7, angle=277.1000, fixquality=1
$GPRMC,223749.750,A,4308.4704,N,07726.4210,W,22.46,277.76,030924,,,A*41
$GPGGA,223750.000,4308.4705,N,07726.4230,W,1,07,1.22,151.2,M,-34.4,M,,*58
lng=-77.440345, lat=43.141170, altitude=151.40, speed=22.46, satellites=7, angle=277.7600, fixquality=1
$GPRMC,223750.250,A,4308.4708,N,07726.4250,W,21.89,278.03,030924,,,A*49
$GPGGA,223750.500,4308.4710,N,07726.4268,W,1,07,1.22,151.1,M,-34.4,M,,*57
lng=-77.440414, lat=43.141178, altitude=151.20, speed=21.89, satellites=7, angle=278.0300, fixquality=1
$GPRMC,223750.750,A,4308.4711,N,07726.4286,W,20.90,278.06,030924,,,A*43
$GPGGA,223751.000,4308.4713,N,07726.4304,W,1,07,1.22,150.9,M,-34.4,M,,*52
lng=-77.440475, lat=43.141185, altitude=151.10, speed=20.90, satellites=7, angle=278.0600, fixquality=1
$GPRMC,223751.250,A,4308.4714,N,07726.4321,W,19.97,277.24,030924,,,A*4C
$GPGGA,223751.500,4308.4715,N,07726.4337,W,1,07,1.22,150.8,M,-34.4,M,,*50
lng=-77.440536, lat=43.141185, altitude=150.90, speed=19.97, satellites=7, angle=277.2400, fixquality=1
$GPRMC,223751.750,A,4308.4715,N,07726.4351,W,18.52,276.68,030924,,,A*4E
$GPGGA,223752.000,4308.4717,N,07726.4366,W,1,07,1.22,150.7,M,-34.4,M,,*5F
lng=-77.440582, lat=43.141193, altitude=150.80, speed=18.52, satellites=7, angle=276.6800, fixquality=1
$GPRMC,223752.250,A,4308.4719,N,07726.4377,W,16.89,277.85,030924,,,A*4A
$GPGGA,223752.500,4308.4721,N,07726.4387,W,1,07,1.22,150.6,M,-34.4,M,,*51
lng=-77.440628, lat=43.141193, altitude=150.70, speed=16.89, satellites=7, angle=277.8500, fixquality=1
$GPRMC,223752.750,A,4308.4722,N,07726.4389,W,14.19,277.32,030924,,,A*41
$GPGGA,223753.000,4308.4724,N,07726.4393,W,1,07,1.22,150.6,M,-34.4,M,,*55
lng=-77.440650, lat=43.141201, altitude=150.60, speed=14.19, satellites=7, angle=277.3200, fixquality=1
$GPRMC,223753.250,A,4308.4726,N,07726.4397,W,11.67,276.75,030924,,,A*40
$GPGGA,223753.500,4308.4729,N,07726.4403,W,1,07,1.42,150.7,M,-34.4,M,,*54
lng=-77.440658, lat=43.141212, altitude=150.60, speed=11.67, satellites=7, angle=276.7500, fixquality=1
$GPRMC,223753.750,A,4308.4732,N,07726.4408,W,9.98,279.50,030924,,,A*70
$GPGGA,223754.000,4308.4735,N,07726.4413,W,1,07,1.22,150.6,M,-34.4,M,,*5D
lng=-77.440681, lat=43.141220, altitude=150.70, speed=9.98, satellites=7, angle=279.5000, fixquality=1
$GPRMC,223754.250,A,4308.4738,N,07726.4416,W,7.77,286.44,030924,,,A*7D
$GPGGA,223754.500,4308.4741,N,07726.4420,W,1,07,1.42,150.7,M,-34.4,M,,*5C
lng=-77.440689, lat=43.141227, altitude=150.60, speed=7.77, satellites=7, angle=286.4400, fixquality=1
$GPRMC,223754.750,A,4308.4743,N,07726.4420,W,5.49,293.52,030924,,,A*7D
$GPGGA,223755.000,4308.4744,N,07726.4422,W,1,07,1.22,150.8,M,-34.4,M,,*56
lng=-77.440696, lat=43.141235, altitude=150.70, speed=5.49, satellites=7, angle=293.5200, fixquality=1
$GPRMC,223755.250,A,4308.4745,N,07726.4425,W,4.64,293.61,030924,,,A*74
$GPGGA,223755.500,4308.4747,N,07726.4427,W,1,07,1.42,151.0,M,-34.4,M,,*5A
lng=-77.440704, lat=43.141242, altitude=150.80, speed=4.64, satellites=7, angle=293.6100, fixquality=1
$GPRMC,223755.750,A,4308.4748,N,07726.4430,W,4.18,293.13,030924,,,A*76
$GPGGA,223756.000,4308.4749,N,07726.4432,W,1,07,1.42,151.2,M,-34.4,M,,*54
lng=-77.440711, lat=43.141242, altitude=151.00, speed=4.18, satellites=7, angle=293.1300, fixquality=1
$GPRMC,223756.250,A,4308.4751,N,07726.4434,W,3.97,300.95,030924,,,A*79
$GPGGA,223756.500,4308.4752,N,07726.4435,W,1,07,1.42,151.3,M,-34.4,M,,*5D
lng=-77.440719, lat=43.141250, altitude=151.20, speed=3.97, satellites=7, angle=300.9500, fixquality=1
$GPRMC,223756.750,A,4308.4753,N,07726.4436,W,3.14,303.26,030924,,,A*7C
$GPGGA,223757.000,4308.4754,N,07726.4436,W,1,07,1.22,151.5,M,-34.4,M,,*5C
lng=-77.440719, lat=43.141250, altitude=151.30, speed=3.14, satellites=7, angle=303.2600, fixquality=1
$GPRMC,223757.250,A,4308.4754,N,07726.4436,W,2.20,303.26,030924,,,A*79
$GPGGA,223757.500,4308.4754,N,07726.4436,W,1,07,1.22,151.7,M,-34.4,M,,*5B
lng=-77.440719, lat=43.141258, altitude=151.50, speed=2.20, satellites=7, angle=303.2600, fixquality=1
$GPGGA,223800.250,4308.4743,N,07726.4421,W,1,07,1.22,152.3,M,-34.4,M,,*53
$GPRMC,223800.250,A,4308.4743,N,07726.4421,W,0.41,303.26,030924$GPGGA,223800.500,4308.4742,N,07726.4421,W,1,07,1.22,152.4,M,-34.4,M,,*57
lng=-77.440696, lat=43.141235, altitude=152.30, speed=0.43, satellites=7, angle=303.2600, fixquality=1
$GPRMC,223800.750,A,4308.4741,N,07726.4420,W,0.38,303.26,030924,,,A*79
$GPGGA,223801.000,4308.4741,N,07726.4420,W,1,07,1.22,152.4,M,-34.4,M,,*51
lng=-77.440696, lat=43.141235, altitude=152.30, speed=0.38, satellites=7, angle=303.2600, fixquality=1
$GPRMC,223803.250,A,4308.4750,N,07726.4427,W,4.24,325.83,030924,,,A*7A
$GPGGA,223803.500,4308.4755,N,07726.4436,W,1,07,1.42,152.8,M,-34.4,M,,*5E
lng=-77.440711, lat=43.141250, altitude=152.60, speed=4.24, satellites=7, angle=325.8300, fixquality=1
$GPRMC,223803.750,A,4308.4760,N,07726.4441,W,8.06,328.51,030924,,,A*72
$GPGGA,223804.000,4308.4767,N,07726.4447,W,1,07,1.22,153.0,M,-34.4,M,,*54
lng=-77.440742, lat=43.141269, altitude=152.80, speed=8.06, satellites=7, angle=328.5100, fixquality=1
$GPRMC,223804.250,A,4308.4773,N,07726.4452,W,9.41,335.38,030924,,,A*71
$GPGGA,223804.500,4308.4780,N,07726.4455,W,1,07,1.42,153.2,M,-34.4,M,,*5F
lng=-77.440757, lat=43.141292, altitude=153.00, speed=9.41, satellites=7, angle=335.3800, fixquality=1
$GPRMC,223804.750,A,4308.4789,N,07726.4457,W,11.06,347.05,030924,,,A*45
$GPGGA,223805.000,4308.4802,N,07726.4457,W,1,07,1.42,153.4,M,-34.4,M,,*5A
lng=-77.440765, lat=43.141315, altitude=153.20, speed=11.06, satellites=7, angle=347.0500, fixquality=1
$GPRMC,223805.250,A,4308.4815,N,07726.4455,W,13.77,359.92,030924,,,A*4C
$GPGGA,223805.500,4308.4827,N,07726.4453,W,1,07,1.42,153.7,M,-34.4,M,,*5F
lng=-77.440757, lat=43.141357, altitude=153.40, speed=13.77, satellites=7, angle=359.9200, fixquality=1
$GPRMC,223805.750,A,4308.4841,N,07726.4449,W,16.98,10.08,030924,,,A*7C
$GPGGA,223806.000,4308.4854,N,07726.4445,W,1,07,1.42,154.0,M,-34.4,M,,*5A
lng=-77.440750, lat=43.141399, altitude=153.70, speed=16.98, satellites=7, angle=10.0800, fixquality=1
$GPRMC,223806.250,A,4308.4868,N,07726.4441,W,18.52,13.34,030924,,,A*7D
$GPGGA,223806.500,4308.4884,N,07726.4434,W,1,07,1.42,154.1,M,-34.4,M,,*55
lng=-77.440742, lat=43.141445, altitude=154.00, speed=18.52, satellites=7, angle=13.3400, fixquality=1
$GPRMC,223806.750,A,4308.4898,N,07726.4427,W,20.78,17.04,030924,,,A*73
$GPGGA,223807.000,4308.4913,N,07726.4419,W,1,07,1.42,154.5,M,-34.4,M,,*55
lng=-77.440711, lat=43.141494, altitude=154.10, speed=20.78, satellites=7, angle=17.0400, fixquality=1
$GPRMC,223807.250,A,4308.4928,N,07726.4411,W,22.58,19.56,030924,,,A*71
$GPGGA,223807.500,4308.4944,N,07726.4402,W,1,07,1.42,154.8,M,-34.4,M,,*55
lng=-77.440681, lat=43.141544, altitude=154.50, speed=22.58, satellites=7, angle=19.5600, fixquality=1
$GPRMC,223807.750,A,4308.4961,N,07726.4392,W,24.63,21.62,030924,,,A*77
$GPGGA,223808.000,4308.4978,N,07726.4382,W,1,07,1.23,155.1,M,-34.4,M,,*50
lng=-77.440650, lat=43.141601, altitude=154.80, speed=24.63, satellites=7, angle=21.6200, fixquality=1
$GPRMC,223808.250,A,4308.4996,N,07726.4372,W,26.16,21.70,030924,,,A*78
$GPGGA,223808.500,4308.5014,N,07726.4362,W,1,07,1.42,155.4,M,-34.4,M,,*5B
lng=-77.440620, lat=43.141658, altitude=155.10, speed=26.16, satellites=7, angle=21.7000, fixquality=1
$GPRMC,223808.750,A,4308.5033,N,07726.4352,W,27.62,20.40,030924,,,A*78
$GPGGA,223809.000,4308.5052,N,07726.4342,W,1,07,1.22,155.7,M,-34.4,M,,*5A
lng=-77.440582, lat=43.141723, altitude=155.40, speed=27.62, satellites=7, angle=20.4000, fixquality=1
$GPRMC,223809.250,A,4308.5073,N,07726.4331,W,30.18,20.43,030924,,,A*75
$GPGGA,223809.500,4308.5093,N,07726.4320,W,1,06,1.43,156.0,M,-34.4,M,,*54
lng=-77.440551, lat=43.141788, altitude=155.70, speed=30.18, satellites=7, angle=20.4300, fixquality=1
$GPRMC,223809.750,A,4308.5114,N,07726.4309,W,32.01,19.57,030924,,,A*7E
$GPGGA,223810.000,4308.5136,N,07726.4299,W,1,07,1.22,156.3,M,-34.4,M,,*51
lng=-77.440513, lat=43.141853, altitude=156.00, speed=32.01, satellites=6, angle=19.5700, fixquality=1
$GPRMC,223810.250,A,4308.5157,N,07726.4289,W,33.17,19.14,030924,,,A*7C
$GPGGA,223810.500,4308.5179,N,07726.4278,W,1,07,1.42,156.7,M,-34.4,M,,*52
lng=-77.440475, lat=43.141925, altitude=156.30, speed=33.17, satellites=7, angle=19.1400, fixquality=1
$GPRMC,223810.750,A,4308.5201,N,07726.4267,W,33.96,19.68,030924,,,A*7B
$GPGGA,223811.000,4308.5223,N,07726.4256,W,1,07,1.22,157.1,M,-34.4,M,,*57
lng=-77.440444, lat=43.142002, altitude=156.70, speed=33.96, satellites=7, angle=19.6800, fixquality=1
$GPRMC,223811.250,A,4308.5246,N,07726.4245,W,35.17,19.91,030924,,,A*75
$GPGGA,223811.500,4308.5271,N,07726.4233,W,1,07,1.42,157.4,M,-34.4,M,,*55
lng=-77.440406, lat=43.142074, altitude=157.10, speed=35.17, satellites=7, angle=19.9100, fixquality=1
$GPRMC,223811.750,A,4308.5296,N,07726.4222,W,36.45,19.69,030924,,,A*7F
$GPGGA,223812.000,4308.5320,N,07726.4210,W,1,07,1.42,157.8,M,-34.4,M,,*5B
lng=-77.440376, lat=43.142162, altitude=157.40, speed=36.45, satellites=7, angle=19.6900, fixquality=1
$GPRMC,223812.250,A,4308.5345,N,07726.4199,W,37.28,19.03,030924,,,A*73
$GPGGA,223812.500,4308.5370,N,07726.4187,W,1,07,1.42,158.1,M,-34.4,M,,*50
lng=-77.440330, lat=43.142246, altitude=157.80, speed=37.28, satellites=7, angle=19.0300, fixquality=1
$GPRMC,223812.750,A,4308.5395,N,07726.4174,W,37.63,18.99,030924,,,A*75
$GPGGA,223813.000,4308.5420,N,07726.4161,W,1,07,1.42,158.3,M,-34.4,M,,*5C
lng=-77.440292, lat=43.142326, altitude=158.10, speed=37.63, satellites=7, angle=18.9900, fixquality=1
$GPRMC,223813.250,A,4308.5446,N,07726.4148,W,37.89,18.93,030924,,,A*79
$GPGGA,223813.500,4308.5472,N,07726.4135,W,1,07,1.42,158.5,M,-34.4,M,,*59
lng=-77.440254, lat=43.142406, altitude=158.30, speed=37.89, satellites=7, angle=18.9300, fixquality=1
$GPRMC,223813.750,A,4308.5498,N,07726.4122,W,38.36,18.92,030924,,,A*79
$GPGGA,223814.000,4308.5524,N,07726.4110,W,1,07,1.42,158.7,M,-34.4,M,,*5C
lng=-77.440200, lat=43.142498, altitude=158.50, speed=38.36, satellites=7, angle=18.9200, fixquality=1
$GPRMC,223814.250,A,4308.5550,N,07726.4098,W,38.75,18.59,030924,,,A*7E
$GPGGA,223814.500,4308.5577,N,07726.4085,W,1,07,1.42,158.8,M,-34.4,M,,*5D
lng=-77.440162, lat=43.142585, altitude=158.70, speed=38.75, satellites=7, angle=18.5900, fixquality=1
$GPRMC,223814.750,A,4308.5603,N,07726.4072,W,39.00,18.62,030924,,,A*71
$GPGGA,223815.000,4308.5629,N,07726.4059,W,1,07,1.42,158.9,M,-34.4,M,,*51
lng=-77.440116, lat=43.142665, altitude=158.80, speed=39.00, satellites=7, angle=18.6200, fixquality=1
$GPRMC,223815.250,A,4308.5656,N,07726.4047,W,39.34,18.68,030924,,,A*7E
$GPGGA,223815.500,4308.5683,N,07726.4034,W,1,07,1.42,158.9,M,-34.4,M,,*5F
lng=-77.440078, lat=43.142757, altitude=158.90, speed=39.34, satellites=7, angle=18.6800, fixquality=1
$GPRMC,223815.750,A,4308.5709,N,07726.4021,W,39.00,18.91,030924,,,A*71
$GPGGA,223816.000,4308.5735,N,07726.4008,W,1,07,1.42,158.9,M,-34.4,M,,*5A
lng=-77.440040, lat=43.142845, altitude=158.90, speed=39.00, satellites=7, angle=18.9100, fixquality=1
$GPRMC,223816.250,A,4308.5761,N,07726.3996,W,38.70,19.06,030924,,,A*72
$GPGGA,223816.500,4308.5786,N,07726.3983,W,1,07,1.42,158.9,M,-34.4,M,,*5A
lng=-77.439987, lat=43.142936, altitude=158.90, speed=38.70, satellites=7, angle=19.0600, fixquality=1
$GPRMC,223816.750,A,4308.5812,N,07726.3970,W,38.05,19.30,030924,,,A*73
$GPGGA,223817.000,4308.5836,N,07726.3958,W,1,07,1.42,158.9,M,-34.4,M,,*5C
lng=-77.439949, lat=43.143016, altitude=158.90, speed=38.05, satellites=7, angle=19.3000, fixquality=1
$GPRMC,223817.250,A,4308.5861,N,07726.3945,W,38.04,19.67,030924,,,A*76
$GPGGA,223817.500,4308.5885,N,07726.3933,W,1,07,1.42,159.1,M,-34.4,M,,*55
lng=-77.439910, lat=43.143100, altitude=158.90, speed=38.04, satellites=7, angle=19.6700, fixquality=1
$GPRMC,223817.750,A,4308.5910,N,07726.3920,W,38.03,19.88,030924,,,A*71
$GPGGA,223818.000,4308.5935,N,07726.3908,W,1,07,1.42,159.3,M,-34.4,M,,*5F
lng=-77.439865, lat=43.143180, altitude=159.10, speed=38.03, satellites=7, angle=19.8800, fixquality=1
$GPRMC,223818.250,A,4308.5959,N,07726.3895,W,38.00,20.14,030924,,,A*75
$GPGGA,223818.500,4308.5984,N,07726.3883,W,1,07,1.42,159.4,M,-34.4,M,,*55
lng=-77.439826, lat=43.143260, altitude=159.30, speed=38.00, satellites=7, angle=20.1400, fixquality=1
$GPRMC,223818.750,A,4308.6009,N,07726.3871,W,37.82,19.96,030924,,,A*70
$GPGGA,223819.000,4308.6034,N,07726.3858,W,1,07,1.42,159.4,M,-34.4,M,,*56
lng=-77.439788, lat=43.143352, altitude=159.40, speed=37.82, satellites=7, angle=19.9600, fixquality=1
$GPRMC,223819.250,A,4308.6059,N,07726.3846,W,38.01,19.85,030924,,,A*73
$GPGGA,223819.500,4308.6084,N,07726.3834,W,1,07,1.42,159.5,M,-34.4,M,,*53
lng=-77.439743, lat=43.143432, altitude=159.40, speed=38.01, satellites=7, angle=19.8500, fixquality=1
$GPRMC,223819.750,A,4308.6109,N,07726.3821,W,38.22,19.87,030924,,,A*70
$GPGGA,223820.000,4308.6135,N,07726.3808,W,1,07,1.42,159.6,M,-34.4,M,,*5B
lng=-77.439704, lat=43.143512, altitude=159.50, speed=38.22, satellites=7, angle=19.8700, fixquality=1
$GPRMC,223820.250,A,4308.6161,N,07726.3795,W,38.47,20.35,030924,,,A*71
$GPGGA,223820.500,4308.6186,N,07726.3782,W,1,07,1.42,159.6,M,-34.4,M,,*5B
lng=-77.439659, lat=43.143604, altitude=159.60, speed=38.47, satellites=7, angle=20.3500, fixquality=1
$GPRMC,223820.750,A,4308.6212,N,07726.3768,W,38.73,21.06,030924,,,A*77
$GPGGA,223821.000,4308.6238,N,07726.3755,W,1,07,1.22,159.7,M,-34.4,M,,*54
lng=-77.439613, lat=43.143684, altitude=159.60, speed=38.73, satellites=7, angle=21.0600, fixquality=1
$GPRMC,223821.250,A,4308.6263,N,07726.3741,W,38.99,21.16,030924,,,A*7B
$GPGGA,223821.500,4308.6289,N,07726.3726,W,1,07,1.42,159.7,M,-34.4,M,,*59
lng=-77.439567, lat=43.143775, altitude=159.70, speed=38.99, satellites=7, angle=21.1600, fixquality=1
$GPRMC,223821.750,A,4308.6315,N,07726.3712,W,39.35,21.69,030924,,,A*77
$GPGGA,223822.000,4308.6341,N,07726.3698,W,1,07,1.42,159.7,M,-34.4,M,,*5E
lng=-77.439521, lat=43.143856, altitude=159.70, speed=39.35, satellites=7, angle=21.6900, fixquality=1
$GPRMC,223822.250,A,4308.6367,N,07726.3684,W,39.45,22.07,030924,,,A*76
$GPGGA,223822.500,4308.6393,N,07726.3669,W,1,07,1.42,159.6,M,-34.4,M,,*5B
lng=-77.439468, lat=43.143943, altitude=159.70, speed=39.45, satellites=7, angle=22.0700, fixquality=1
$GPRMC,223822.750,A,4308.6419,N,07726.3655,W,39.67,22.40,030924,,,A*72
$GPGGA,223823.000,4308.6444,N,07726.3640,W,1,07,1.22,159.4,M,-34.4,M,,*5D
lng=-77.439430, lat=43.144035, altitude=159.60, speed=39.67, satellites=7, angle=22.4000, fixquality=1
$GPRMC,223823.250,A,4308.6470,N,07726.3625,W,39.92,22.61,030924,,,A*77
$GPGGA,223823.500,4308.6496,N,07726.3610,W,1,07,1.42,159.3,M,-34.4,M,,*53
lng=-77.439369, lat=43.144115, altitude=159.40, speed=39.92, satellites=7, angle=22.6100, fixquality=1
$GPRMC,223823.750,A,4308.6522,N,07726.3596,W,40.03,22.95,030924,,,A*72
$GPGGA,223824.000,4308.6548,N,07726.3581,W,1,07,1.42,159.2,M,-34.4,M,,*59
lng=-77.439323, lat=43.144207, altitude=159.30, speed=40.03, satellites=7, angle=22.9500, fixquality=1
$GPRMC,223824.250,A,4308.6573,N,07726.3566,W,40.04,23.07,030924,,,A*76
$GPGGA,223824.500,4308.6599,N,07726.3551,W,1,07,1.42,159.2,M,-34.4,M,,*5D
lng=-77.439277, lat=43.144287, altitude=159.20, speed=40.04, satellites=7, angle=23.0700, fixquality=1
$GPRMC,223824.750,A,4308.6624,N,07726.3535,W,39.77,23.29,030924,,,A*72
$GPGGA,223825.000,4308.6650,N,07726.3520,W,1,07,1.22,159.2,M,-34.4,M,,*5F
lng=-77.439224, lat=43.144374, altitude=159.20, speed=39.77, satellites=7, angle=23.2900, fixquality=1
$GPRMC,223825.250,A,4308.6676,N,07726.3504,W,40.13,23.66,030924,,,A*74
$GPGGA,223825.500,4308.6702,N,07726.3488,W,1,07,1.42,159.2,M,-34.4,M,,*59
lng=-77.439178, lat=43.144458, altitude=159.20, speed=40.13, satellites=7, angle=23.6600, fixquality=1
$GPRMC,223825.750,A,4308.6729,N,07726.3472,W,40.33,23.80,030924,,,A*70
$GPGGA,223826.000,4308.6755,N,07726.3456,W,1,07,1.22,159.2,M,-34.4,M,,*58
