Vers 72
USE_SERIAL_FEEDBACK=true
DEVELOPMENT_MODE=false
USE_RMC_ONLY=false

$GPGGA,144147.000,4308.4737,N,07726.4282,W,1,03,2.10,184.4,M,-34.4,M,,*5A
$GPRMC,144147.000,A,4308.4737,N,07726.4282,W,0.24,313.61,040924,,,A*74
lng=-77.440467, lat=43.141227, altitude=184.40, speed=0.11, satellites=3, angle=196.2000, fixquality=1
$GPGGA,144147.250,4308.4738,N,07726.4281,W,1,03,2.10,184.4,M,-34.4,M,,*51
$GPRMC,144147.250,A,4308.4738,N,07726.4281,W,0.21,315.83,040924,,,A*70
lng=-77.440467, lat=43.141227, altitude=184.40, speed=0.24, satellites=3, angle=313.6100, fixquality=1
$GPGGA,144150.250,4308.4749,N,07726.4275,W,1,04,1.93,184.4,M,-34.4,M,,*55
$GPRMC,144150.250,A,4308.4749,N,07726.4275,W,0.20,332.08,040924,,,A*7C
lng=-77.440460, lat=43.141250, altitude=184.40, speed=0.20, satellites=4, angle=344.4300, fixquality=1
$GPGGA,144150.500,4308.4750,N,07726.4275,W,1,04,1.93,184.4,M,-34.4,M,,*5F
$GPRMC,144150.500,A,4308.4750,N,07726.4275,W,0.23,321.53,040924,,,A*79
lng=-77.440460, lat=43.141250, altitude=184.40, speed=0.20, satellites=4, angle=332.0800, fixquality=1
$GPGGA,144152.250,4308.4752,N,07726.4294,W,1,04,1.93,184.4,M,-34.4,M,,*52
$GPRMC,144152.250,A,4308.4752,N,07726.4294,W,1.87,279.14,040924,,,A*74
lng=-77.440483, lat=43.141250, altitude=184.40, speed=1.32, satellites=4, angle=283.1600, fixquality=1
$GPGGA,144152.500,4308.4753,N,07726.4298,W,1,04,1.93,184.4,M,-34.4,M,,*5D
$GPRMC,144152.500,A,4308.4753,N,07726.4298,W,2.88,287.25,040924,,,A*74
lng=-77.440498, lat=43.141250, altitude=184.40, speed=1.87, satellites=4, angle=279.1400, fixquality=1
$GPGGA,144152.750,4308.4753,N,07726.4302,W,1,04,1.93,184.4,M,-34.4,M,,*58
$GPRMC,144152.750,A,4308.4753,N,07726.4302,W,3.60,286.94,040924,,,A*7D
lng=-77.440505, lat=43.141250, altitude=184.40, speed=2.88, satellites=4, angle=287.2500, fixquality=1
$GPGGA,144153.000,4308.4754,N,07726.4308,W,1,04,1.93,184.4,M,-34.4,M,,*56
$GPRMC,144153.000,A,4308.4754,N,07726.4308,W,4.86,288.03,040924,,,A*7C
lng=-77.440513, lat=43.141258, altitude=184.40, speed=3.60, satellites=4, angle=286.9400, fixquality=1
$GPGGA,144153.250,4308.4755,N,07726.4315,W,1,04,7.57,184.5,M,-34.4,M,,*53
$GPRMC,144153.250,A,4308.4755,N,07726.4315,W,5.59,287.66,040924,,,A*79
lng=-77.440528, lat=43.141258, altitude=184.50, speed=4.86, satellites=4, angle=288.0300, fixquality=1
$GPGGA,144153.500,4308.4755,N,07726.4321,W,1,04,7.57,184.5,M,-34.4,M,,*56
$GPRMC,144153.500,A,4308.4755,N,07726.4321,W,5.93,285.64,040924,,,A*7A
lng=-77.440536, lat=43.141258, altitude=184.50, speed=5.59, satellites=4, angle=287.6600, fixquality=1
$GPGGA,144153.750,4308.4756,N,07726.4327,W,1,04,1.93,184.5,M,-34.4,M,,*5A
$GPRMC,144153.750,A,4308.4756,N,07726.4327,W,6.00,286.46,040924$GPGGA,144154.000,4308.4757,N,07726.4334,W,1,04,7.55,184.5,M,-34.4,M,,*50
lng=-77.440544, lat=43.141258, altitude=184.50, speed=5.93, satellites=4, angle=285.6400, fixquality=1
$GPRMC,144154.250,A,4308.4757,N,07726.4341,W,6.29,280.25,040924,,,A*79
$GPGGA,144154.500,4308.4757,N,07726.4349,W,1,04,7.53,184.5,M,-34.4,M,,*59
lng=-77.440567, lat=43.141258, altitude=184.50, speed=6.29, satellites=4, angle=280.2500, fixquality=1
$GPRMC,144154.750,A,4308.4757,N,07726.4356,W,6.42,278.27,040924,,,A*72
$GPGGA,144155.000,4308.4758,N,07726.4363,W,1,04,7.52,184.5,M,-34.4,M,,*5B
lng=-77.440589, lat=43.141258, altitude=184.50, speed=6.42, satellites=4, angle=278.2700, fixquality=1
$GPRMC,144155.250,A,4308.4759,N,07726.4367,W,5.54,280.00,040924,,,A*7C
$GPGGA,144155.500,4308.4759,N,07726.4372,W,1,04,7.50,184.5,M,-34.4,M,,*5D
lng=-77.440605, lat=43.141269, altitude=184.50, speed=5.54, satellites=4, angle=280.0000, fixquality=1
$GPRMC,144155.750,A,4308.4759,N,07726.4376,W,4.76,281.27,040924,,,A*7C
$GPGGA,144156.000,4308.4760,N,07726.4380,W,1,04,1.93,184.5,M,-34.4,M,,*55
lng=-77.440628, lat=43.141269, altitude=184.50, speed=4.76, satellites=4, angle=281.2700, fixquality=1
$GPRMC,144156.250,A,4308.4759,N,07726.4384,W,4.11,277.77,040924,,,A*7A
$GPGGA,144156.500,4308.4760,N,07726.4388,W,1,04,7.47,184.5,M,-34.4,M,,*57
lng=-77.440643, lat=43.141269, altitude=184.50, speed=4.11, satellites=4, angle=277.7700, fixquality=1
$GPRMC,144156.750,A,4308.4760,N,07726.4393,W,4.36,278.28,040924,,,A*73
$GPGGA,144157.000,4308.4760,N,07726.4399,W,1,04,7.45,184.5,M,-34.4,M,,*51
lng=-77.440658, lat=43.141269, altitude=184.50, speed=4.36, satellites=4, angle=278.2800, fixquality=1
$GPRMC,144157.250,A,4308.4761,N,07726.4405,W,5.61,284.73,040924,,,A*70
$GPGGA,144157.500,4308.4761,N,07726.4411,W,1,04,7.44,184.5,M,-34.4,M,,*53
lng=-77.440673, lat=43.141269, altitude=184.50, speed=5.61, satellites=4, angle=284.7300, fixquality=1
$GPRMC,144157.750,A,4308.4762,N,07726.4418,W,6.51,286.76,040924,,,A*7D
$GPGGA,144158.000,4308.4763,N,07726.4426,W,1,04,7.43,184.5,M,-34.4,M,,*58
lng=-77.440696, lat=43.141269, altitude=184.50, speed=6.51, satellites=4, angle=286.7600, fixquality=1
$GPRMC,144158.250,A,4308.4764,N,07726.4435,W,8.03,283.68,040924,,,A*7D
$GPGGA,144158.500,4308.4765,N,07726.4444,W,1,04,7.41,184.5,M,-34.4,M,,*5D
lng=-77.440719, lat=43.141277, altitude=184.50, speed=8.03, satellites=4, angle=283.6800, fixquality=1
$GPRMC,144158.750,A,4308.4766,N,07726.4453,W,8.56,285.25,040924,,,A*75
$GPGGA,144159.000,4308.4768,N,07726.4463,W,1,04,7.40,184.5,M,-34.4,M,,*50
lng=-77.440757, lat=43.141277, altitude=184.50, speed=8.56, satellites=4, angle=285.2500, fixquality=1
$GPRMC,144159.250,A,4308.4770,N,07726.4473,W,10.33,287.39,040924,,,A*41
$GPGGA,144159.500,4308.4772,N,07726.4483,W,1,04,1.93,184.6,M,-34.4,M,,*5B
lng=-77.440788, lat=43.141284, altitude=184.50, speed=10.33, satellites=4, angle=287.3900, fixquality=1
$GPRMC,144159.750,A,4308.4774,N,07726.4494,W,11.06,287.96,040924,,,A*4B
$GPGGA,144200.000,4308.4776,N,07726.4506,W,1,04,1.93,184.6,M,-34.4,M,,*59
lng=-77.440818, lat=43.141292, altitude=184.60, speed=11.06, satellites=4, angle=287.9600, fixquality=1
$GPRMC,144200.250,A,4308.4778,N,07726.4519,W,11.91,286.70,040924,,,A*4E
$GPGGA,144200.500,4308.4780,N,07726.4532,W,1,04,1.93,184.6,M,-34.4,M,,*52
lng=-77.440864, lat=43.141300, altitude=184.60, speed=11.91, satellites=4, angle=286.7000, fixquality=1
$GPRMC,144200.750,A,4308.4781,N,07726.4547,W,12.92,285.46,040924,,,A*40
$GPGGA,144201.000,4308.4783,N,07726.4563,W,1,04,1.93,184.6,M,-34.4,M,,*51
lng=-77.440910, lat=43.141300, altitude=184.60, speed=12.92, satellites=4, angle=285.4600, fixquality=1
$GPRMC,144201.250,A,4308.4785,N,07726.4578,W,14.36,284.41,040924,,,A*42
$GPGGA,144201.500,4308.4787,N,07726.4594,W,1,04,1.93,184.6,M,-34.4,M,,*58
lng=-77.440963, lat=43.141307, altitude=184.60, speed=14.36, satellites=4, angle=284.4100, fixquality=1
$GPRMC,144201.750,A,4308.4789,N,07726.4610,W,15.45,283.45,040924,,,A*40
$GPGGA,144202.000,4308.4791,N,07726.4627,W,1,04,1.93,184.6,M,-34.4,M,,*52
lng=-77.441017, lat=43.141315, altitude=184.60, speed=15.45, satellites=4, angle=283.4500, fixquality=1
$GPRMC,144202.250,A,4308.4793,N,07726.4644,W,16.95,283.19,040924,,,A*4B
$GPGGA,144202.500,4308.4796,N,07726.4663,W,1,04,1.93,184.6,M,-34.4,M,,*50
lng=-77.441070, lat=43.141323, altitude=184.60, speed=16.95, satellites=4, angle=283.1900, fixquality=1
$GPRMC,144202.750,A,4308.4798,N,07726.4681,W,18.30,283.11,040924,,,A*45
$GPGGA,144203.000,4308.4800,N,07726.4701,W,1,04,1.93,184.6,M,-34.4,M,,*51
lng=-77.441139, lat=43.141334, altitude=184.60, speed=18.30, satellites=4, angle=283.1100, fixquality=1
$GPRMC,144203.250,A,4308.4802,N,07726.4721,W,19.65,283.04,040924,,,A*43
$GPGGA,144203.500,4308.4804,N,07726.4742,W,1,04,1.93,184.6,M,-34.4,M,,*57
lng=-77.441200, lat=43.141334, altitude=184.60, speed=19.65, satellites=4, angle=283.0400, fixquality=1
$GPRMC,144203.750,A,4308.4807,N,07726.4762,W,20.77,283.01,040924,,,A*48
$GPGGA,144204.000,4308.4810,N,07726.4784,W,1,04,1.93,184.7,M,-34.4,M,,*5B
lng=-77.441268, lat=43.141342, altitude=184.60, speed=20.77, satellites=4, angle=283.0100, fixquality=1
$GPRMC,144204.250,A,4308.4812,N,07726.4806,W,21.75,282.56,040924,,,A*43
$GPGGA,144204.500,4308.4814,N,07726.4830,W,1,04,1.93,184.7,M,-34.4,M,,*5A
lng=-77.441337, lat=43.141349, altitude=184.70, speed=21.75, satellites=4, angle=282.5600, fixquality=1
$GPRMC,144204.750,A,4308.4817,N,07726.4854,W,23.40,282.84,040924,,,A*4F
$GPGGA,144205.000,4308.4820,N,07726.4881,W,1,04,1.93,184.7,M,-34.4,M,,*53
lng=-77.441421, lat=43.141365, altitude=184.70, speed=23.40, satellites=4, angle=282.8400, fixquality=1
$GPRMC,144205.250,A,4308.4822,N,07726.4908,W,24.92,282.28,040924,,,A*4B
$GPGGA,144205.500,4308.4825,N,07726.4935,W,1,04,1.93,184.7,M,-34.4,M,,*5D
lng=-77.441513, lat=43.141372, altitude=184.70, speed=24.92, satellites=4, angle=282.2800, fixquality=1
$GPRMC,144205.750,A,4308.4828,N,07726.4964,W,26.40,282.43,040924,,,A*4E
$GPGGA,144206.000,4308.4827,N,07726.5006,W,1,04,1.93,184.8,M,-34.4,M,,*5E
lng=-77.441612, lat=43.141380, altitude=184.70, speed=26.40, satellites=4, angle=282.4300, fixquality=1
$GPRMC,144206.250,A,4308.4828,N,07726.5043,W,29.16,280.38,040924,,,A*47
$GPGGA,144206.500,4308.4829,N,07726.5081,W,1,04,1.93,184.8,M,-34.4,M,,*5A
lng=-77.441741, lat=43.141380, altitude=184.80, speed=29.16, satellites=4, angle=280.3800, fixquality=1
$GPRMC,144206.750,A,4308.4829,N,07726.5119,W,31.14,279.09,040924,,,A*42
$GPGGA,144207.000,4308.4830,N,07726.5155,W,1,04,1.93,184.9,M,-34.4,M,,*5F
lng=-77.441864, lat=43.141380, altitude=184.80, speed=31.14, satellites=4, angle=279.0900, fixquality=1
$GPRMC,144207.250,A,4308.4831,N,07726.5191,W,32.72,278.22,040924,,,A*44
$GPGGA,144207.500,4308.4832,N,07726.5227,W,1,04,1.93,184.9,M,-34.4,M,,*5E
lng=-77.441986, lat=43.141380, altitude=184.90, speed=32.72, satellites=4, angle=278.2200, fixquality=1
$GPRMC,144207.750,A,4308.4833,N,07726.5264,W,33.84,276.99,040924,,,A*4C
$GPGGA,144208.000,4308.4833,N,07726.5302,W,1,04,1.93,184.9,M,-34.4,M,,*53
lng=-77.442108, lat=43.141391, altitude=184.90, speed=33.84, satellites=4, angle=276.9900, fixquality=1
$GPRMC,144208.250,A,4308.4834,N,07726.5340,W,35.30,276.20,040924,,,A*4D
$GPGGA,144208.500,4308.4836,N,07726.5375,W,1,04,1.93,184.9,M,-34.4,M,,*53
lng=-77.442237, lat=43.141391, altitude=184.90, speed=35.30, satellites=4, angle=276.2000, fixquality=1
$GPRMC,144208.750,A,4308.4836,N,07726.5413,W,35.97,275.73,040924,,,A*43
$GPGGA,144209.000,4308.4836,N,07726.5452,W,1,04,1.93,185.0,M,-34.4,M,,*5D
lng=-77.442359, lat=43.141391, altitude=184.90, speed=35.97, satellites=4, angle=275.7300, fixquality=1
$GPRMC,144209.250,A,4308.4837,N,07726.5490,W,36.55,274.76,040924,,,A*44
$GPGGA,144209.500,4308.4838,N,07726.5528,W,1,04,1.93,185.0,M,-34.4,M,,*5A
lng=-77.442481, lat=43.141399, altitude=185.00, speed=36.55, satellites=4, angle=274.7600, fixquality=1
$GPRMC,144209.750,A,4308.4837,N,07726.5566,W,36.78,273.58,040924,,,A*4D
$GPGGA,144210.000,4308.4837,N,07726.5603,W,1,04,1.93,185.0,M,-34.4,M,,*52
lng=-77.442611, lat=43.141399, altitude=185.00, speed=36.78, satellites=4, angle=273.5800, fixquality=1
$GPRMC,144210.250,A,4308.4838,N,07726.5641,W,37.07,272.82,040924,,,A*46
$GPGGA,144210.500,4308.4838,N,07726.5678,W,1,04,1.93,185.0,M,-34.4,M,,*54
lng=-77.442733, lat=43.141399, altitude=185.00, speed=37.07, satellites=4, angle=272.8200, fixquality=1
$GPRMC,144210.750,A,4308.4839,N,07726.5716,W,37.29,272.78,040924,,,A*48
$GPGGA,144211.000,4308.4839,N,07726.5753,W,1,04,1.93,185.0,M,-34.4,M,,*59
lng=-77.442863, lat=43.141399, altitude=185.00, speed=37.29, satellites=4, angle=272.7800, fixquality=1
$GPRMC,144211.250,A,4308.4839,N,07726.5791,W,37.59,272.41,040924,,,A*4E
$GPGGA,144211.500,4308.4839,N,07726.5828,W,1,04,1.93,185.0,M,-34.4,M,,*5F
lng=-77.442985, lat=43.141399, altitude=185.00, speed=37.59, satellites=4, angle=272.4100, fixquality=1
$GPRMC,144211.750,A,4308.4840,N,07726.5865,W,37.66,272.30,040924,,,A*4B
$GPGGA,144212.000,4308.4841,N,07726.5901,W,1,04,1.93,185.1,M,-34.4,M,,*5D
lng=-77.443107, lat=43.141399, altitude=185.00, speed=37.66, satellites=4, angle=272.3000, fixquality=1
$GPRMC,144212.250,A,4308.4841,N,07726.5938,W,37.86,272.03,040924,,,A*4B
$GPGGA,144212.500,4308.4842,N,07726.5974,W,1,04,1.93,185.1,M,-34.4,M,,*59
lng=-77.443229, lat=43.141399, altitude=185.10, speed=37.86, satellites=4, angle=272.0300, fixquality=1
$GPRMC,144212.750,A,4308.4842,N,07726.6010,W,37.84,271.81,040924,,,A*46
$GPGGA,144213.000,4308.4843,N,07726.6047,W,1,04,1.92,185.1,M,-34.4,M,,*57
lng=-77.443351, lat=43.141407, altitude=185.10, speed=37.84, satellites=4, angle=271.8100, fixquality=1
$GPRMC,144213.250,A,4308.4843,N,07726.6084,W,37.94,271.68,040924,,,A*48
$GPGGA,144213.500,4308.4844,N,07726.6120,W,1,04,1.93,185.1,M,-34.4,M,,*54
lng=-77.443473, lat=43.141407, altitude=185.10, speed=37.94, satellites=4, angle=271.6800, fixquality=1
$GPRMC,144213.750,A,4308.4845,N,07726.6157,W,38.14,271.83,040924,,,A*46
$GPGGA,144214.000,4308.4846,N,07726.6194,W,1,04,1.92,185.2,M,-34.4,M,,*59
lng=-77.443595, lat=43.141407, altitude=185.10, speed=38.14, satellites=4, angle=271.8300, fixquality=1
$GPRMC,144214.250,A,4308.4846,N,07726.6230,W,37.88,271.13,040924,,,A*46
$GPGGA,144214.500,4308.4846,N,07726.6265,W,1,04,1.93,185.2,M,-34.4,M,,*50
lng=-77.443717, lat=43.141407, altitude=185.20, speed=37.88, satellites=4, angle=271.1300, fixquality=1
$GPRMC,144214.750,A,4308.4846,N,07726.6301,W,37.95,270.14,040924,,,A*4A
$GPGGA,144215.000,4308.4846,N,07726.6336,W,1,04,1.93,185.2,M,-34.4,M,,*53
lng=-77.443832, lat=43.141407, altitude=185.20, speed=37.95, satellites=4, angle=270.1400, fixquality=1
$GPRMC,144215.250,A,4308.4845,N,07726.6371,W,36.46,269.23,040924,,,A*49
$GPGGA,144215.500,4308.4845,N,07726.6406,W,1,04,1.92,185.3,M,-34.4,M,,*51
lng=-77.443954, lat=43.141407, altitude=185.20, speed=36.46, satellites=4, angle=269.2300, fixquality=1
$GPRMC,144215.750,A,4308.4844,N,07726.6441,W,36.28,268.67,040924,,,A*40
$GPGGA,144216.000,4308.4843,N,07726.6476,W,1,04,1.93,185.3,M,-34.4,M,,*57
lng=-77.444068, lat=43.141407, altitude=185.30, speed=36.28, satellites=4, angle=268.6700, fixquality=1
$GPRMC,144216.250,A,4308.4841,N,07726.6510,W,35.88,267.72,040924,,,A*44
$GPGGA,144216.500,4308.4840,N,07726.6544,W,1,04,1.92,185.4,M,-34.4,M,,*57
lng=-77.444183, lat=43.141399, altitude=185.30, speed=35.88, satellites=4, angle=267.7200, fixquality=1
$GPRMC,144216.750,A,4308.4839,N,07726.6578,W,35.75,266.96,040924,,,A*49
$GPGGA,144217.000,4308.4837,N,07726.6612,W,1,04,1.92,185.4,M,-34.4,M,,*53
lng=-77.444297, lat=43.141399, altitude=185.40, speed=35.75, satellites=4, angle=266.9600, fixquality=1
$GPRMC,144217.250,A,4308.4835,N,07726.6646,W,35.53,266.14,040924,,,A*41
$GPGGA,144217.500,4308.4833,N,07726.6680,W,1,04,1.92,185.4,M,-34.4,M,,*59
lng=-77.444412, lat=43.141391, altitude=185.40, speed=35.53, satellites=4, angle=266.1400, fixquality=1
$GPRMC,144217.750,A,4308.4831,N,07726.6713,W,35.41,266.06,040924,,,A*41
$GPGGA,144218.000,4308.4829,N,07726.6746,W,1,04,1.93,185.5,M,-34.4,M,,*53
lng=-77.444526, lat=43.141380, altitude=185.40, speed=35.41, satellites=4, angle=266.0600, fixquality=1
$GPRMC,144218.250,A,4308.4828,N,07726.6779,W,35.21,265.73,040924,,,A*48
$GPGGA,144218.500,4308.4826,N,07726.6811,W,1,04,1.92,185.5,M,-34.4,M,,*55
lng=-77.444625, lat=43.141380, altitude=185.50, speed=35.21, satellites=4, angle=265.7300, fixquality=1
$GPRMC,144218.750,A,4308.4824,N,07726.6843,W,35.00,265.73,040924,,,A*44
$GPGGA,144219.000,4308.4823,N,07726.6875,W,1,04,1.92,185.5,M,-34.4,M,,*56
lng=-77.444732, lat=43.141372, altitude=185.50, speed=35.00, satellites=4, angle=265.7300, fixquality=1
$GPRMC,144219.250,A,4308.4821,N,07726.6906,W,33.69,265.56,040924,,,A*4B
$GPGGA,144219.500,4308.4819,N,07726.6938,W,1,04,1.92,185.5,M,-34.4,M,,*52
lng=-77.444839, lat=43.141365, altitude=185.50, speed=33.69, satellites=4, angle=265.5600, fixquality=1
$GPRMC,144219.750,A,4308.4817,N,07726.6969,W,33.43,265.46,040924,,,A*4B
$GPGGA,144220.000,4308.4816,N,07726.7000,W,1,04,1.92,185.6,M,-34.4,M,,*52
lng=-77.444946, lat=43.141365, altitude=185.50, speed=33.43, satellites=4, angle=265.4600, fixquality=1
$GPRMC,144220.250,A,4308.4814,N,07726.7031,W,33.21,265.74,040924,,,A*47
$GPGGA,144220.500,4308.4812,N,07726.7063,W,1,04,1.92,185.6,M,-34.4,M,,*56
lng=-77.445053, lat=43.141357, altitude=185.60, speed=33.21, satellites=4, angle=265.7400, fixquality=1
$GPRMC,144220.750,A,4308.4810,N,07726.7094,W,32.83,265.48,040924,,,A*4F
$GPGGA,144221.000,4308.4808,N,07726.7125,W,1,04,1.92,185.6,M,-34.4,M,,*5A
lng=-77.445159, lat=43.141349, altitude=185.60, speed=32.83, satellites=4, angle=265.4800, fixquality=1
$GPRMC,144221.250,A,4308.4806,N,07726.7156,W,32.40,265.28,040924,,,A*4A
$GPGGA,144221.500,4308.4803,N,07726.7187,W,1,04,1.92,185.6,M,-34.4,M,,*5C
lng=-77.445266, lat=43.141342, altitude=185.60, speed=32.40, satellites=4, angle=265.2800, fixquality=1
$GPRMC,144221.750,A,4308.4801,N,07726.7218,W,32.27,264.69,040924,,,A*44
$GPGGA,144222.000,4308.4799,N,07726.7248,W,1,04,1.92,185.7,M,-34.4,M,,*57
lng=-77.445358, lat=43.141334, altitude=185.60, speed=32.27, satellites=4, angle=264.6900, fixquality=1
$GPRMC,144222.250,A,4308.4796,N,07726.7278,W,32.16,264.16,040924,,,A*4F
$GPGGA,144222.500,4308.4794,N,07726.7308,W,1,04,1.92,185.7,M,-34.4,M,,*5A
lng=-77.445465, lat=43.141323, altitude=185.70, speed=32.16, satellites=4, angle=264.1600, fixquality=1
$GPRMC,144222.750,A,4308.4791,N,07726.7338,W,32.04,263.91,040924,,,A*43
$GPGGA,144223.000,4308.4789,N,07726.7368,W,1,04,1.92,185.7,M,-34.4,M,,*54
lng=-77.445564, lat=43.141315, altitude=185.70, speed=32.04, satellites=4, angle=263.9100, fixquality=1
$GPRMC,144223.250,A,4308.4787,N,07726.7398,W,31.98,264.21,040924,,,A*40
$GPGGA,144223.500,4308.4785,N,07726.7428,W,1,04,1.92,185.8,M,-34.4,M,,*51
lng=-77.445663, lat=43.141307, altitude=185.70, speed=31.98, satellites=4, angle=264.2100, fixquality=1
$GPRMC,144223.750,A,4308.4783,N,07726.7457,W,32.18,264.66,040924,,,A*4D
$GPGGA,144224.000,4308.4781,N,07726.7487,W,1,04,1.92,185.8,M,-34.4,M,,*52
lng=-77.445762, lat=43.141307, altitude=185.80, speed=32.18, satellites=4, angle=264.6600, fixquality=1
$GPRMC,144224.250,A,4308.4779,N,07726.7517,W,32.15,265.50,040924,,,A*46
$GPGGA,144224.500,4308.4778,N,07726.7547,W,1,04,1.92,185.8,M,-34.4,M,,*5C
lng=-77.445854, lat=43.141300, altitude=185.80, speed=32.15, satellites=4, angle=265.5000, fixquality=1
$GPRMC,144224.750,A,4308.4776,N,07726.7577,W,31.92,265.33,040924,,,A*43
$GPGGA,144225.000,4308.4774,N,07726.7608,W,1,04,1.92,185.9,M,-34.4,M,,*5D
lng=-77.445960, lat=43.141292, altitude=185.80, speed=31.92, satellites=4, angle=265.3300, fixquality=1
$GPRMC,144225.250,A,4308.4772,N,07726.7639,W,31.90,265.58,040924,,,A*45
$GPGGA,144225.500,4308.4770,N,07726.7670,W,1,04,1.92,185.9,M,-34.4,M,,*53
lng=-77.446060, lat=43.141284, altitude=185.90, speed=31.90, satellites=4, angle=265.5800, fixquality=1
$GPRMC,144225.750,A,4308.4768,N,07726.7701,W,32.42,265.76,040924,,,A*41
$GPGGA,144226.000,4308.4767,N,07726.7732,W,1,04,1.92,185.9,M,-34.4,M,,*54
lng=-77.446166, lat=43.141277, altitude=185.90, speed=32.42, satellites=4, angle=265.7600, fixquality=1
$GPRMC,144226.250,A,4308.4765,N,07726.7765,W,32.65,266.20,040924,,,A*4D
$GPGGA,144226.500,4308.4764,N,07726.7797,W,1,04,1.92,186.0,M,-34.4,M,,*57
lng=-77.446273, lat=43.141277, altitude=185.90, speed=32.65, satellites=4, angle=266.2000, fixquality=1
$GPRMC,144226.750,A,4308.4762,N,07726.7829,W,32.71,266.57,040924,,,A*4D
$GPGGA,144227.000,4308.4760,N,07726.7863,W,1,04,1.92,186.0,M,-34.4,M,,*53
lng=-77.446380, lat=43.141269, altitude=186.00, speed=32.71, satellites=4, angle=266.5700, fixquality=1
$GPRMC,144227.250,A,4308.4759,N,07726.7895,W,32.77,266.48,040924,,,A*4E
$GPGGA,144227.500,4308.4758,N,07726.7927,W,1,04,1.92,186.1,M,-34.4,M,,*5D
lng=-77.446495, lat=43.141269, altitude=186.00, speed=32.77, satellites=4, angle=266.4800, fixquality=1
$GPRMC,144227.750,A,4308.4756,N,07726.7959,W,32.82,266.09,040924,,,A*4A
$GPGGA,144228.000,4308.4754,N,07726.7992,W,1,04,1.92,186.1,M,-34.4,M,,*55
lng=-77.446601, lat=43.141258, altitude=186.10, speed=32.82, satellites=4, angle=266.0900, fixquality=1
$GPRMC,144228.250,A,4308.4752,N,07726.8026,W,33.29,265.63,040924,,,A*45
$GPGGA,144228.500,4308.4750,N,07726.8059,W,1,04,1.92,186.1,M,-34.4,M,,*55
lng=-77.446708, lat=43.141250, altitude=186.10, speed=33.29, satellites=4, angle=265.6300, fixquality=1
$GPRMC,144228.750,A,4308.4747,N,07726.8092,W,33.96,265.18,040924,,,A*43
$GPGGA,144229.000,4308.4745,N,07726.8125,W,1,04,1.92,186.2,M,-34.4,M,,*5C
lng=-77.446815, lat=43.141242, altitude=186.10, speed=33.96, satellites=4, angle=265.1800, fixquality=1
$GPRMC,144229.250,A,4308.4742,N,07726.8158,W,34.53,264.57,040924,,,A*41
$GPGGA,144229.500,4308.4739,N,07726.8192,W,1,04,1.92,186.2,M,-34.4,M,,*5E
lng=-77.446929, lat=43.141235, altitude=186.20, speed=34.53, satellites=4, angle=264.5700, fixquality=1
$GPRMC,144229.750,A,4308.4737,N,07726.8226,W,34.61,264.44,040924,,,A*4F
$GPGGA,144230.000,4308.4734,N,07726.8259,W,1,04,1.92,186.2,M,-34.4,M,,*5A
lng=-77.447044, lat=43.141227, altitude=186.20, speed=34.61, satellites=4, angle=264.4400, fixquality=1
$GPRMC,144230.250,A,4308.4732,N,07726.8292,W,34.60,264.40,040924,,,A*4D
$GPGGA,144230.500,4308.4729,N,07726.8325,W,1,04,1.92,186.3,M,-34.4,M,,*58
lng=-77.447151, lat=43.141220, altitude=186.20, speed=34.60, satellites=4, angle=264.4000, fixquality=1
$GPRMC,144230.750,A,4308.4726,N,07726.8357,W,34.30,264.15,040924,,,A*40
$GPGGA,144231.000,4308.4724,N,07726.8389,W,1,04,1.92,186.3,M,-34.4,M,,*57
lng=-77.447265, lat=43.141212, altitude=186.30, speed=34.30, satellites=4, angle=264.1500, fixquality=1
$GPRMC,144231.250,A,4308.4722,N,07726.8420,W,33.56,264.34,040924,,,A*43
$GPGGA,144231.500,4308.4720,N,07726.8451,W,1,04,1.92,186.3,M,-34.4,M,,*54
lng=-77.447364, lat=43.141201, altitude=186.30, speed=33.56, satellites=4, angle=264.3400, fixquality=1
$GPRMC,144231.750,A,4308.4718,N,07726.8482,W,33.15,265.02,040924,,,A*44
$GPGGA,144232.000,4308.4716,N,07726.8513,W,1,04,1.92,186.3,M,-34.4,M,,*50
lng=-77.447471, lat=43.141193, altitude=186.30, speed=33.15, satellites=4, angle=265.0200, fixquality=1
$GPRMC,144232.250,A,4308.4714,N,07726.8544,W,32.91,265.26,040924,,,A*4E
$GPGGA,144232.500,4308.4713,N,07726.8574,W,1,04,1.92,186.3,M,-34.4,M,,*51
lng=-77.447578, lat=43.141185, altitude=186.30, speed=32.91, satellites=4, angle=265.2600, fixquality=1
$GPRMC,144232.750,A,4308.4711,N,07726.8605,W,32.92,265.35,040924,,,A*49
$GPGGA,144233.000,4308.4709,N,07726.8635,W,1,04,1.92,186.3,M,-34.4,M,,*58
lng=-77.447669, lat=43.141185, altitude=186.30, speed=32.92, satellites=4, angle=265.3500, fixquality=1
$GPRMC,144233.250,A,4308.4708,N,07726.8665,W,32.92,265.42,040924,,,A*43
$GPGGA,144233.500,4308.4706,N,07726.8695,W,1,04,1.92,186.3,M,-34.4,M,,*58
lng=-77.447776, lat=43.141178, altitude=186.30, speed=32.92, satellites=4, angle=265.4200, fixquality=1
$GPRMC,144233.750,A,4308.4705,N,07726.8725,W,32.52,265.49,040924,,,A*49
$GPGGA,144234.000,4308.4703,N,07726.8755,W,1,04,1.92,186.3,M,-34.4,M,,*52
lng=-77.447875, lat=43.141178, altitude=186.30, speed=32.52, satellites=4, angle=265.4900, fixquality=1
$GPRMC,144234.250,A,4308.4701,N,07726.8785,W,32.21,265.18,040924,,,A*45
$GPGGA,144234.500,4308.4699,N,07726.8815,W,1,04,1.92,186.4,M,-34.4,M,,*59
lng=-77.447975, lat=43.141170, altitude=186.30, speed=32.21, satellites=4, angle=265.1800, fixquality=1
$GPRMC,144234.750,A,4308.4698,N,07726.8845,W,31.88,265.11,040924,,,A*4B
$GPGGA,144235.000,4308.4696,N,07726.8874,W,1,04,1.92,186.4,M,-34.4,M,,*55
lng=-77.448074, lat=43.141162, altitude=186.40, speed=31.88, satellites=4, angle=265.1100, fixquality=1
$GPRMC,144235.250,A,4308.4694,N,07726.8903,W,31.49,264.91,040924,,,A*44
$GPGGA,144235.500,4308.4692,N,07726.8933,W,1,04,1.92,186.4,M,-34.4,M,,*56
lng=-77.448165, lat=43.141155, altitude=186.40, speed=31.49, satellites=4, angle=264.9100, fixquality=1
$GPRMC,144235.750,A,4308.4690,N,07726.8962,W,31.25,264.43,040924,,,A*47
$GPGGA,144236.000,4308.4688,N,07726.8991,W,1,04,1.92,186.4,M,-34.4,M,,*53
lng=-77.448265, lat=43.141155, altitude=186.40, speed=31.25, satellites=4, angle=264.4300, fixquality=1
$GPRMC,144236.250,A,4308.4686,N,07726.9019,W,30.92,263.84,040924,,,A*43
$GPGGA,144236.500,4308.4684,N,07726.9047,W,1,04,1.92,186.5,M,-34.4,M,,*58
lng=-77.448364, lat=43.141147, altitude=186.40, speed=30.92, satellites=4, angle=263.8400, fixquality=1
$GPRMC,144236.750,A,4308.4682,N,07726.9075,W,29.85,263.91,040924,,,A*42
$GPGGA,144237.000,4308.4679,N,07726.9103,W,1,04,1.92,186.5,M,-34.4,M,,*5F
lng=-77.448463, lat=43.141136, altitude=186.50, speed=29.85, satellites=4, angle=263.9100, fixquality=1
$GPRMC,144237.250,A,4308.4678,N,07726.9130,W,29.66,263.98,040924,,,A*47
$GPGGA,144237.500,4308.4676,N,07726.9157,W,1,04,1.92,186.5,M,-34.4,M,,*54
lng=-77.448554, lat=43.141128, altitude=186.50, speed=29.66, satellites=4, angle=263.9800, fixquality=1
$GPRMC,144237.750,A,4308.4674,N,07726.9183,W,29.30,263.95,040924,,,A*48
$GPGGA,144238.000,4308.4672,N,07726.9209,W,1,04,1.92,186.4,M,-34.4,M,,*53
lng=-77.448638, lat=43.141120, altitude=186.50, speed=29.30, satellites=4, angle=263.9500, fixquality=1
$GPRMC,144238.250,A,4308.4671,N,07726.9234,W,29.09,263.93,040924,,,A*44
$GPGGA,144238.500,4308.4669,N,07726.9260,W,1,04,1.92,186.4,M,-34.4,M,,*53
lng=-77.448722, lat=43.141120, altitude=186.40, speed=29.09, satellites=4, angle=263.9300, fixquality=1
$GPRMC,144238.750,A,4308.4668,N,07726.9284,W,28.77,264.09,040924,,,A*4E
$GPGGA,144239.000,4308.4666,N,07726.9309,W,1,04,1.92,186.4,M,-34.4,M,,*56
lng=-77.448806, lat=43.141113, altitude=186.40, speed=28.77, satellites=4, angle=264.0900, fixquality=1
$GPRMC,144239.250,A,4308.4664,N,07726.9333,W,28.42,263.52,040924,,,A*44
$GPGGA,144239.500,4308.4663,N,07726.9357,W,1,04,1.92,186.3,M,-34.4,M,,*5A
lng=-77.448883, lat=43.141105, altitude=186.40, speed=28.42, satellites=4, angle=263.5200, fixquality=1
$GPRMC,144239.750,A,4308.4661,N,07726.9380,W,25.75,263.10,040924,,,A*43
$GPGGA,144240.000,4308.4660,N,07726.9402,W,1,04,1.92,186.3,M,-34.4,M,,*55
lng=-77.448966, lat=43.141105, altitude=186.30, speed=25.75, satellites=4, angle=263.1000, fixquality=1
$GPRMC,144240.250,A,4308.4658,N,07726.9424,W,24.51,262.56,040924,,,A*4F
$GPGGA,144240.500,4308.4657,N,07726.9444,W,1,04,1.92,186.2,M,-34.4,M,,*57
lng=-77.449043, lat=43.141098, altitude=186.30, speed=24.51, satellites=4, angle=262.5600, fixquality=1
$GPRMC,144240.750,A,4308.4655,N,07726.9466,W,23.52,262.44,040924,,,A*46
$GPGGA,144241.000,4308.4654,N,07726.9486,W,1,04,1.92,186.2,M,-34.4,M,,*5E
lng=-77.449111, lat=43.141090, altitude=186.20, speed=23.52, satellites=4, angle=262.4400, fixquality=1
$GPRMC,144241.250,A,4308.4652,N,07726.9506,W,22.27,261.61,040924,,,A*45
$GPGGA,144241.500,4308.4651,N,07726.9525,W,1,04,1.92,186.1,M,-34.4,M,,*55
lng=-77.449180, lat=43.141090, altitude=186.20, speed=22.27, satellites=4, angle=261.6100, fixquality=1
$GPRMC,144241.750,A,4308.4649,N,07726.9543,W,21.31,261.44,040924,,,A*48
$GPGGA,144242.000,4308.4648,N,07726.9562,W,1,04,1.92,186.1,M,-34.4,M,,*58
lng=-77.449234, lat=43.141078, altitude=186.10, speed=21.31, satellites=4, angle=261.4400, fixquality=1
$GPRMC,144242.250,A,4308.4646,N,07726.9580,W,20.40,260.39,040924,,,A*42
$GPGGA,144242.500,4308.4644,N,07726.9598,W,1,04,1.92,186.0,M,-34.4,M,,*55
lng=-77.449302, lat=43.141071, altitude=186.10, speed=20.40, satellites=4, angle=260.3900, fixquality=1
$GPRMC,144242.750,A,4308.4643,N,07726.9614,W,19.64,260.51,040924,,,A*4E
$GPGGA,144243.000,4308.4641,N,07726.9630,W,1,04,1.92,186.0,M,-34.4,M,,*55
lng=-77.449356, lat=43.141071, altitude=186.00, speed=19.64, satellites=4, angle=260.5100, fixquality=1
$GPRMC,144243.250,A,4308.4640,N,07726.9645,W,18.89,260.83,040924,,,A*40
$GPGGA,144243.500,4308.4639,N,07726.9659,W,1,04,1.92,185.9,M,-34.4,M,,*5A
lng=-77.449409, lat=43.141063, altitude=186.00, speed=18.89, satellites=4, angle=260.8300, fixquality=1
$GPRMC,144243.750,A,4308.4638,N,07726.9674,W,18.61,261.70,040924,,,A*43
$GPGGA,144244.000,4308.4637,N,07726.9691,W,1,04,1.92,185.9,M,-34.4,M,,*52
lng=-77.449455, lat=43.141063, altitude=185.90, speed=18.61, satellites=4, angle=261.7000, fixquality=1
$GPRMC,144244.250,A,4308.4636,N,07726.9708,W,19.26,264.06,040924,,,A*43
$GPGGA,144244.500,4308.4635,N,07726.9726,W,1,04,1.92,185.8,M,-34.4,M,,*59
lng=-77.449508, lat=43.141056, altitude=185.90, speed=19.26, satellites=4, angle=264.0600, fixquality=1
$GPRMC,144244.750,A,4308.4634,N,07726.9744,W,20.12,265.17,040924,,,A*40
$GPGGA,144245.000,4308.4633,N,07726.9764,W,1,04,1.92,185.8,M,-34.4,M,,*5D
lng=-77.449577, lat=43.141056, altitude=185.80, speed=20.12, satellites=4, angle=265.1700, fixquality=1
$GPRMC,144245.250,A,4308.4632,N,07726.9784,W,21.68,267.27,040924,,,A*43
$GPGGA,144245.500,4308.4632,N,07726.9806,W,1,04,1.92,185.8,M,-34.4,M,,*52
lng=-77.449638, lat=43.141056, altitude=185.80, speed=21.68, satellites=4, angle=267.2700, fixquality=1
$GPRMC,144245.750,A,4308.4631,N,07726.9829,W,23.11,268.45,040924,,,A*4A
$GPGGA,144246.000,4308.4629,N,07726.9855,W,1,04,1.92,185.8,M,-34.4,M,,*58
lng=-77.449714, lat=43.141048, altitude=185.80, speed=23.11, satellites=4, angle=268.4500, fixquality=1
$GPRMC,144246.250,A,4308.4628,N,07726.9881,W,25.36,268.38,040924,,,A*4F
$GPGGA,144246.500,4308.4627,N,07726.9908,W,1,04,1.92,185.8,M,-34.4,M,,*5A
lng=-77.449806, lat=43.141048, altitude=185.80, speed=25.36, satellites=4, angle=268.3800, fixquality=1
$GPRMC,144246.750,A,4308.4626,N,07726.9936,W,27.87,268.81,040924,,,A*43
$GPGGA,144247.000,4308.4624,N,07726.9968,W,1,04,1.92,185.8,M,-34.4,M,,*5B
lng=-77.449897, lat=43.141040, altitude=185.80, speed=27.87, satellites=4, angle=268.8100, fixquality=1
$GPRMC,144247.250,A,4308.4622,N,07726.9999,W,30.90,267.05,040924,,,A*45
$GPGGA,144247.500,4308.4621,N,07727.0032,W,1,04,1.92,185.8,M,-34.4,M,,*55
lng=-77.449996, lat=43.141040, altitude=185.80, speed=30.90, satellites=4, angle=267.0500, fixquality=1
$GPRMC,144247.750,A,4308.4619,N,07727.0065,W,32.90,267.77,040924,,,A*4D
$GPGGA,144248.000,4308.4617,N,07727.0102,W,1,04,1.92,185.8,M,-34.4,M,,*58
lng=-77.450103, lat=43.141033, altitude=185.80, speed=32.90, satellites=4, angle=267.7700, fixquality=1
$GPRMC,144248.250,A,4308.4615,N,07727.0141,W,36.15,267.60,040924,,,A*43
$GPGGA,144248.500,4308.4613,N,07727.0181,W,1,05,1.71,185.4,M,-34.4,M,,*52
lng=-77.450233, lat=43.141025, altitude=185.80, speed=36.15, satellites=4, angle=267.6000, fixquality=1
$GPRMC,144248.750,A,4308.4611,N,07727.0220,W,38.04,268.59,040924,,,A*4D
$GPGGA,144249.000,4308.4610,N,07727.0259,W,1,05,1.71,184.9,M,-34.4,M,,*5F
lng=-77.450363, lat=43.141014, altitude=185.40, speed=38.04, satellites=5, angle=268.5900, fixquality=1
$GPRMC,144249.250,A,4308.4610,N,07727.0299,W,40.01,269.83,040924,,,A*46
$GPGGA,144249.500,4308.4609,N,07727.0340,W,1,05,1.71,184.4,M,-34.4,M,,*56
lng=-77.450492, lat=43.141014, altitude=184.90, speed=40.01, satellites=5, angle=269.8300, fixquality=1
$GPRMC,144249.750,A,4308.4610,N,07727.0381,W,42.04,270.30,040924,,,A*4C
$GPGGA,144250.000,4308.4609,N,07727.0423,W,1,05,1.71,184.3,M,-34.4,M,,*5E
lng=-77.450637, lat=43.141014, altitude=184.40, speed=42.04, satellites=5, angle=270.3000, fixquality=1
$GPRMC,144250.250,A,4308.4609,N,07727.0468,W,43.72,270.75,040924,,,A*48
$GPGGA,144250.500,4308.4608,N,07727.0514,W,1,05,1.71,183.5,M,-34.4,M,,*5E
lng=-77.450782, lat=43.141014, altitude=184.30, speed=43.72, satellites=5, angle=270.7500, fixquality=1
$GPRMC,144250.750,A,4308.4607,N,07727.0560,W,44.26,271.06,040924,,,A*49
$GPGGA,144251.000,4308.4606,N,07727.0604,W,1,05,1.71,182.3,M,-34.4,M,,*51
lng=-77.450935, lat=43.141014, altitude=183.50, speed=44.26, satellites=5, angle=271.0600, fixquality=1
$GPRMC,144251.250,A,4308.4606,N,07727.0649,W,44.68,271.57,040924,,,A*4A
$GPGGA,144251.500,4308.4607,N,07727.0694,W,1,05,1.71,181.5,M,-34.4,M,,*59
lng=-77.451080, lat=43.141006, altitude=182.30, speed=44.68, satellites=5, angle=271.5700, fixquality=1
$GPRMC,144251.750,A,4308.4607,N,07727.0738,W,44.72,272.13,040924,,,A*41
$GPGGA,144252.000,4308.4609,N,07727.0782,W,1,05,1.71,180.8,M,-34.4,M,,*5B
lng=-77.451225, lat=43.141014, altitude=181.50, speed=44.72, satellites=5, angle=272.1300, fixquality=1
$GPRMC,144252.250,A,4308.4611,N,07727.0826,W,44.74,273.46,040924,,,A*47
$GPGGA,144252.500,4308.4613,N,07727.0870,W,1,05,1.71,180.1,M,-34.4,M,,*5E
lng=-77.451377, lat=43.141014, altitude=180.80, speed=44.74, satellites=5, angle=273.4600, fixquality=1
$GPRMC,144252.750,A,4308.4615,N,07727.0913,W,44.84,274.26,040924,,,A*4F
$GPGGA,144253.000,4308.4618,N,07727.0957,W,1,05,1.71,179.4,M,-34.4,M,,*56
lng=-77.451522, lat=43.141025, altitude=180.10, speed=44.84, satellites=5, angle=274.2600, fixquality=1
$GPRMC,144253.250,A,4308.4622,N,07727.1000,W,45.58,275.93,040924,,,A*4A
$GPGGA,144253.500,4308.4625,N,07727.1044,W,1,05,2.21,178.8,M,-34.4,M,,*5C
lng=-77.451667, lat=43.141040, altitude=179.40, speed=45.58, satellites=5, angle=275.9300, fixquality=1
$GPRMC,144253.750,A,4308.4629,N,07727.1088,W,45.65,276.67,040924,,,A*42
$GPGGA,144254.000,4308.4633,N,07727.1133,W,1,05,2.21,178.3,M,-34.4,M,,*53
lng=-77.451812, lat=43.141048, altitude=178.80, speed=45.65, satellites=5, angle=276.6700, fixquality=1
$GPRMC,144254.250,A,4308.4637,N,07727.1177,W,46.82,277.73,040924,,,A*40
$GPGGA,144254.500,4308.4642,N,07727.1222,W,1,05,2.21,177.8,M,-34.4,M,,*57
lng=-77.451957, lat=43.141063, altitude=178.30, speed=46.82, satellites=5, angle=277.7300, fixquality=1
$GPRMC,144254.750,A,4308.4647,N,07727.1267,W,47.25,278.54,040924,,,A*46
$GPGGA,144255.000,4308.4652,N,07727.1312,W,1,05,1.71,177.8,M,-34.4,M,,*56
lng=-77.452110, lat=43.141078, altitude=177.80, speed=47.25, satellites=5, angle=278.5400, fixquality=1
$GPRMC,144255.250,A,4308.4657,N,07727.1357,W,47.25,279.21,040924,,,A*42
$GPGGA,144255.500,4308.4663,N,07727.1402,W,1,05,2.21,177.8,M,-34.4,M,,*51
lng=-77.452262, lat=43.141098, altitude=177.80, speed=47.25, satellites=5, angle=279.2100, fixquality=1
$GPRMC,144255.750,A,4308.4668,N,07727.1447,W,47.34,279.54,040924,,,A*4F
$GPGGA,144256.000,4308.4674,N,07727.1492,W,1,05,1.71,177.8,M,-34.4,M,,*5E
lng=-77.452407, lat=43.141113, altitude=177.80, speed=47.34, satellites=5, angle=279.5400, fixquality=1
$GPRMC,144256.250,A,4308.4679,N,07727.1537,W,47.39,279.43,040924,,,A*44
$GPGGA,144256.500,4308.4685,N,07727.1582,W,1,05,1.71,177.8,M,-34.4,M,,*55
lng=-77.452560, lat=43.141128, altitude=177.80, speed=47.39, satellites=5, angle=279.4300, fixquality=1
$GPRMC,144256.750,A,4308.4691,N,07727.1627,W,47.80,279.40,040924,,,A*44
$GPGGA,144257.000,4308.4697,N,07727.1672,W,1,05,1.71,177.8,M,-34.4,M,,*5E
lng=-77.452713, lat=43.141155, altitude=177.80, speed=47.80, satellites=5, angle=279.4000, fixquality=1
$GPRMC,144257.250,A,4308.4702,N,07727.1717,W,47.71,279.60,040924,,,A*45
$GPGGA,144257.500,4308.4708,N,07727.1763,W,1,05,1.71,177.5,M,-34.4,M,,*50
lng=-77.452865, lat=43.141170, altitude=177.80, speed=47.71, satellites=5, angle=279.6000, fixquality=1
$GPRMC,144257.750,A,4308.4713,N,07727.1807,W,47.12,279.69,040924,,,A*42
$GPGGA,144258.000,4308.4719,N,07727.1851,W,1,05,1.71,177.2,M,-34.4,M,,*53
lng=-77.453010, lat=43.141185, altitude=177.50, speed=47.12, satellites=5, angle=279.6900, fixquality=1
$GPRMC,144258.250,A,4308.4724,N,07727.1895,W,46.65,279.98,040924,,,A*48
$GPGGA,144258.500,4308.4730,N,07727.1940,W,1,05,2.21,176.9,M,-34.4,M,,*50
lng=-77.453155, lat=43.141201, altitude=177.20, speed=46.65, satellites=5, angle=279.9800, fixquality=1
$GPRMC,144258.750,A,4308.4735,N,07727.1984,W,46.58,280.03,040924,,,A*46
$GPGGA,144259.000,4308.4741,N,07727.2028,W,1,05,1.71,176.7,M,-34.4,M,,*5E
lng=-77.453300, lat=43.141227, altitude=176.90, speed=46.58, satellites=5, angle=280.0300, fixquality=1
$GPRMC,144259.250,A,4308.4746,N,07727.2073,W,46.39,279.95,040924,,,A*4A
$GPGGA,144259.500,4308.4751,N,07727.2116,W,1,05,2.22,176.8,M,-34.4,M,,*5C
lng=-77.453460, lat=43.141242, altitude=176.70, speed=46.39, satellites=5, angle=279.9500, fixquality=1
$GPRMC,144259.750,A,4308.4757,N,07727.2161,W,46.27,279.85,040924,,,A*43
$GPGGA,144300.000,4308.4762,N,07727.2204,W,1,05,1.71,176.9,M,-34.4,M,,*50
lng=-77.453605, lat=43.141258, altitude=176.80, speed=46.27, satellites=5, angle=279.8500, fixquality=1
$GPRMC,144300.250,A,4308.4768,N,07727.2247,W,45.81,280.15,040924,,,A*40
$GPGGA,144300.500,4308.4774,N,07727.2290,W,1,05,1.71,177.0,M,-34.4,M,,*57
lng=-77.453742, lat=43.141277, altitude=176.90, speed=45.81, satellites=5, angle=280.1500, fixquality=1
$GPRMC,144300.750,A,4308.4779,N,07727.2333,W,45.37,280.01,040924,,,A*4F
$GPGGA,144301.000,4308.4784,N,07727.2376,W,1,05,1.71,176.9,M,-34.4,M,,*5D
lng=-77.453887, lat=43.141300, altitude=177.00, speed=45.37, satellites=5, angle=280.0100, fixquality=1
$GPRMC,144301.250,A,4308.4789,N,07727.2418,W,45.05,279.40,040924,,,A*48
$GPGGA,144301.500,4308.4794,N,07727.2461,W,1,05,1.71,176.8,M,-34.4,M,,*59
lng=-77.454025, lat=43.141315, altitude=176.90, speed=45.05, satellites=5, angle=279.4000, fixquality=1
$GPRMC,144301.750,A,4308.4799,N,07727.2502,W,44.38,279.05,040924,,,A*48
$GPGGA,144302.000,4308.4804,N,07727.2542,W,1,05,1.71,176.6,M,-34.4,M,,*57
lng=-77.454170, lat=43.141334, altitude=176.80, speed=44.38, satellites=5, angle=279.0500, fixquality=1
$GPRMC,144302.250,A,4308.4808,N,07727.2583,W,44.07,278.84,040924,,,A*44
$GPGGA,144302.500,4308.4813,N,07727.2624,W,1,05,1.71,176.6,M,-34.4,M,,*57
lng=-77.454307, lat=43.141349, altitude=176.60, speed=44.07, satellites=5, angle=278.8400, fixquality=1
$GPRMC,144302.750,A,4308.4818,N,07727.2665,W,43.65,278.50,040924,,,A*41
$GPGGA,144303.000,4308.4822,N,07727.2705,W,1,05,1.71,176.6,M,-34.4,M,,*53
lng=-77.454444, lat=43.141365, altitude=176.60, speed=43.65, satellites=5, angle=278.5000, fixquality=1
$GPRMC,144303.250,A,4308.4827,N,07727.2745,W,43.25,278.64,040924,,,A*49
$GPGGA,144303.500,4308.4832,N,07727.2785,W,1,05,1.71,176.5,M,-34.4,M,,*5C
lng=-77.454574, lat=43.141380, altitude=176.60, speed=43.25, satellites=5, angle=278.6400, fixquality=1
$GPRMC,144303.750,A,4308.4836,N,07727.2824,W,42.66,278.85,040924,,,A*4D
$GPGGA,144304.000,4308.4841,N,07727.2863,W,1,05,1.71,176.5,M,-34.4,M,,*5D
lng=-77.454704, lat=43.141391, altitude=176.50, speed=42.66, satellites=5, angle=278.8500, fixquality=1
$GPRMC,144304.250,A,4308.4846,N,07727.2902,W,42.17,278.98,040924,,,A*47
$GPGGA,144304.500,4308.4851,N,07727.2940,W,1,05,2.21,176.4,M,-34.4,M,,*5E
lng=-77.454833, lat=43.141407, altitude=176.50, speed=42.17, satellites=5, angle=278.9800, fixquality=1
$GPRMC,144304.750,A,4308.4856,N,07727.2980,W,41.97,279.35,040924,,,A*44
$GPGGA,144305.000,4308.4861,N,07727.3019,W,1,05,1.71,176.4,M,-34.4,M,,*5B
lng=-77.454963, lat=43.141429, altitude=176.40, speed=41.97, satellites=5, angle=279.3500, fixquality=1
$GPRMC,144305.250,A,4308.4866,N,07727.3057,W,41.88,279.37,040924,,,A*4D
$GPGGA,144305.500,4308.4871,N,07727.3097,W,1,05,1.71,176.4,M,-34.4,M,,*59
lng=-77.455093, lat=43.141445, altitude=176.40, speed=41.88, satellites=5, angle=279.3700, fixquality=1
$GPRMC,144305.750,A,4308.4875,N,07727.3136,W,41.65,279.31,040924,,,A*49
$GPGGA,144306.000,4308.4880,N,07727.3175,W,1,05,1.71,176.4,M,-34.4,M,,*5C
lng=-77.455223, lat=43.141456, altitude=176.40, speed=41.65, satellites=5, angle=279.3100, fixquality=1
$GPRMC,144306.250,A,4308.4885,N,07727.3213,W,41.04,279.27,040924,,,A*44
$GPGGA,144306.500,4308.4889,N,07727.3251,W,1,05,2.21,176.2,M,-34.4,M,,*55
lng=-77.455352, lat=43.141471, altitude=176.40, speed=41.04, satellites=5, angle=279.2700, fixquality=1
$GPRMC,144306.750,A,4308.4894,N,07727.3290,W,40.78,279.29,040924,,,A*4E
$GPGGA,144307.000,4308.4899,N,07727.3328,W,1,05,2.21,176.1,M,-34.4,M,,*5C
lng=-77.455482, lat=43.141487, altitude=176.20, speed=40.78, satellites=5, angle=279.2900, fixquality=1
$GPRMC,144307.250,A,4308.4903,N,07727.3366,W,40.54,279.34,040924,,,A*4F
$GPGGA,144307.500,4308.4908,N,07727.3404,W,1,05,2.21,175.9,M,-34.4,M,,*52
lng=-77.455604, lat=43.141502, altitude=176.10, speed=40.54, satellites=5, angle=279.3400, fixquality=1
$GPRMC,144307.750,A,4308.4912,N,07727.3442,W,40.50,279.34,040924,,,A*4F
$GPGGA,144308.000,4308.4917,N,07727.3480,W,1,05,1.71,175.8,M,-34.4,M,,*5D
lng=-77.455734, lat=43.141521, altitude=175.90, speed=40.50, satellites=5, angle=279.3400, fixquality=1
$GPRMC,144308.250,A,4308.4922,N,07727.3517,W,40.44,279.64,040924,,,A*47
$GPGGA,144308.500,4308.4927,N,07727.3554,W,1,05,1.71,175.6,M,-34.4,M,,*5D
lng=-77.455856, lat=43.141536, altitude=175.80, speed=40.44, satellites=5, angle=279.6400, fixquality=1
$GPRMC,144308.750,A,4308.4932,N,07727.3591,W,40.16,279.82,040924,,,A*42
$GPGGA,144309.000,4308.4937,N,07727.3627,W,1,05,2.21,175.4,M,-34.4,M,,*5B
lng=-77.455978, lat=43.141551, altitude=175.60, speed=40.16, satellites=5, angle=279.8200, fixquality=1
$GPRMC,144309.250,A,4308.4942,N,07727.3663,W,40.14,279.55,040924,,,A*47
$GPGGA,144309.500,4308.4946,N,07727.3700,W,1,05,2.22,175.1,M,-34.4,M,,*5A
lng=-77.456100, lat=43.141567, altitude=175.40, speed=40.14, satellites=5, angle=279.5500, fixquality=1
$GPRMC,144309.750,A,4308.4950,N,07727.3736,W,39.05,278.47,040924,,,A*4C
$GPGGA,144310.000,4308.4954,N,07727.3772,W,1,05,2.21,174.8,M,-34.4,M,,*5A
lng=-77.456222, lat=43.141586, altitude=175.10, speed=39.05, satellites=5, angle=278.4700, fixquality=1
$GPRMC,144310.250,A,4308.4958,N,07727.3808,W,39.02,278.06,040924,,,A*49
$GPGGA,144310.500,4308.4962,N,07727.3845,W,1,05,2.21,174.5,M,-34.4,M,,*5C
lng=-77.456344, lat=43.141593, altitude=174.80, speed=39.02, satellites=5, angle=278.0600, fixquality=1
$GPRMC,144310.750,A,4308.4966,N,07727.3881,W,39.04,278.16,040924,,,A*47
$GPGGA,144311.000,4308.4971,N,07727.3917,W,1,05,2.21,174.2,M,-34.4,M,,*5B
lng=-77.456466, lat=43.141609, altitude=174.50, speed=39.04, satellites=5, angle=278.1600, fixquality=1
$GPRMC,144311.250,A,4308.4975,N,07727.3953,W,38.84,278.59,040924,,,A*4D
$GPGGA,144311.500,4308.4979,N,07727.3988,W,1,05,2.21,174.0,M,-34.4,M,,*52
lng=-77.456588, lat=43.141624, altitude=174.20, speed=38.84, satellites=5, angle=278.5900, fixquality=1
$GPRMC,144311.750,A,4308.4984,N,07727.4024,W,38.79,278.90,040924,,,A*4F
$GPGGA,144312.000,4308.4989,N,07727.4060,W,1,05,1.71,173.8,M,-34.4,M,,*5A
lng=-77.456703, lat=43.141643, altitude=174.00, speed=38.79, satellites=5, angle=278.9000, fixquality=1
$GPRMC,144312.250,A,4308.4993,N,07727.4095,W,38.59,279.00,040924,,,A*4F
$GPGGA,144312.500,4308.4998,N,07727.4130,W,1,05,2.22,173.7,M,-34.4,M,,*51
lng=-77.456825, lat=43.141658, altitude=173.80, speed=38.59, satellites=5, angle=279.0000, fixquality=1
$GPRMC,144312.750,A,4308.5002,N,07727.4166,W,38.34,278.88,040924,,,A*4D
$GPGGA,144313.000,4308.5006,N,07727.4201,W,1,05,1.71,173.6,M,-34.4,M,,*5F
lng=-77.456939, lat=43.141666, altitude=173.70, speed=38.34, satellites=5, angle=278.8800, fixquality=1
$GPRMC,144313.250,A,4308.5010,N,07727.4236,W,38.02,278.43,040924,,,A*4E
$GPGGA,144313.500,4308.5015,N,07727.4271,W,1,05,2.22,173.5,M,-34.4,M,,*59
lng=-77.457061, lat=43.141681, altitude=173.60, speed=38.02, satellites=5, angle=278.4300, fixquality=1
$GPRMC,144313.750,A,4308.5019,N,07727.4306,W,37.96,278.64,040924,,,A*47
$GPGGA,144314.000,4308.5023,N,07727.4340,W,1,05,2.22,173.5,M,-34.4,M,,*5D
lng=-77.457176, lat=43.141700, altitude=173.50, speed=37.96, satellites=5, angle=278.6400, fixquality=1
$GPRMC,144314.250,A,4308.5027,N,07727.4374,W,36.88,278.58,040924,,,A*4C
$GPGGA,144314.500,4308.5031,N,07727.4408,W,1,05,2.21,173.4,M,-34.4,M,,*52
lng=-77.457290, lat=43.141716, altitude=173.50, speed=36.88, satellites=5, angle=278.5800, fixquality=1
$GPRMC,144314.750,A,4308.5034,N,07727.4442,W,36.58,278.33,040924,,,A*49
$GPGGA,144315.000,4308.5038,N,07727.4475,W,1,05,1.71,173.4,M,-34.4,M,,*53
lng=-77.457405, lat=43.141723, altitude=173.40, speed=36.58, satellites=5, angle=278.3300, fixquality=1
$GPRMC,144315.250,A,4308.5041,N,07727.4510,W,36.46,278.48,040924,,,A*4A
$GPGGA,144315.500,4308.5045,N,07727.4543,W,1,05,1.71,173.3,M,-34.4,M,,*5F
lng=-77.457519, lat=43.141731, altitude=173.40, speed=36.46, satellites=5, angle=278.4800, fixquality=1
$GPRMC,144315.750,A,4308.5049,N,07727.4577,W,36.44,278.74,040924,,,A*4B
$GPGGA,144316.000,4308.5052,N,07727.4610,W,1,05,1.71,173.3,M,-34.4,M,,*5A
lng=-77.457626, lat=43.141746, altitude=173.30, speed=36.44, satellites=5, angle=278.7400, fixquality=1
$GPRMC,144316.250,A,4308.5056,N,07727.4643,W,35.91,278.95,040924,,,A*43
$GPGGA,144316.500,4308.5060,N,07727.4676,W,1,05,2.22,173.2,M,-34.4,M,,*5A
lng=-77.457740, lat=43.141757, altitude=173.30, speed=35.91, satellites=5, angle=278.9500, fixquality=1
$GPRMC,144316.750,A,4308.5064,N,07727.4708,W,35.74,278.47,040924,,,A*4D
$GPGGA,144317.000,4308.5068,N,07727.4740,W,1,05,1.71,173.2,M,-34.4,M,,*57
lng=-77.457847, lat=43.141773, altitude=173.20, speed=35.74, satellites=5, angle=278.4700, fixquality=1
$GPRMC,144317.250,A,4308.5071,N,07727.4772,W,34.85,278.67,040924,,,A*4D
$GPGGA,144317.500,4308.5075,N,07727.4803,W,1,05,1.71,173.1,M,-34.4,M,,*55
lng=-77.457954, lat=43.141788, altitude=173.20, speed=34.85, satellites=5, angle=278.6700, fixquality=1
$GPRMC,144317.750,A,4308.5079,N,07727.4834,W,34.61,279.01,040924,,,A*46
$GPGGA,144318.000,4308.5083,N,07727.4865,W,1,05,1.71,173.1,M,-34.4,M,,*56
lng=-77.458053, lat=43.141796, altitude=173.10, speed=34.61, satellites=5, angle=279.0100, fixquality=1
$GPRMC,144318.250,A,4308.5086,N,07727.4897,W,34.25,279.19,040924,,,A*4C
$GPGGA,144318.500,4308.5090,N,07727.4928,W,1,05,2.22,173.1,M,-34.4,M,,*5C
lng=-77.458160, lat=43.141811, altitude=173.10, speed=34.25, satellites=5, angle=279.1900, fixquality=1
$GPRMC,144318.750,A,4308.5093,N,07727.4959,W,34.04,279.53,040924,,,A*43
$GPGGA,144319.000,4308.5097,N,07727.4990,W,1,05,1.71,173.2,M,-34.4,M,,*5A
lng=-77.458267, lat=43.141822, altitude=173.10, speed=34.04, satellites=5, angle=279.5300, fixquality=1
$GPRMC,144319.250,A,4308.5100,N,07727.5020,W,33.77,279.43,040924,,,A*48
$GPGGA,144319.500,4308.5104,N,07727.5051,W,1,05,1.71,173.2,M,-34.4,M,,*51
lng=-77.458366, lat=43.141830, altitude=173.20, speed=33.77, satellites=5, angle=279.4300, fixquality=1
$GPRMC,144319.750,A,4308.5108,N,07727.5081,W,33.54,279.73,040924,,,A*4C
$GPGGA,144320.000,4308.5112,N,07727.5110,W,1,05,1.71,173.1,M,-34.4,M,,*5E
lng=-77.458473, lat=43.141845, altitude=173.20, speed=33.54, satellites=5, angle=279.7300, fixquality=1
$GPRMC,144320.250,A,4308.5116,N,07727.5139,W,32.29,279.83,040924,,,A*4A
$GPGGA,144320.500,4308.5120,N,07727.5168,W,1,05,2.22,173.1,M,-34.4,M,,*50
lng=-77.458564, lat=43.141860, altitude=173.10, speed=32.29, satellites=5, angle=279.8300, fixquality=1
$GPRMC,144320.750,A,4308.5124,N,07727.5199,W,32.58,279.97,040924,,,A*47
$GPGGA,144321.000,4308.5128,N,07727.5229,W,1,05,1.71,173.2,M,-34.4,M,,*5C
lng=-77.458663, lat=43.141868, altitude=173.10, speed=32.58, satellites=5, angle=279.9700, fixquality=1
$GPRMC,144321.250,A,4308.5132,N,07727.5259,W,32.67,279.85,040924,,,A*44
$GPGGA,144321.500,4308.5136,N,07727.5289,W,1,05,2.22,173.2,M,-34.4,M,,*59
lng=-77.458763, lat=43.141887, altitude=173.20, speed=32.67, satellites=5, angle=279.8500, fixquality=1
$GPRMC,144321.750,A,4308.5140,N,07727.5319,W,32.75,279.72,040924,,,A*4A
$GPGGA,144322.000,4308.5144,N,07727.5349,W,1,05,1.71,173.3,M,-34.4,M,,*53
lng=-77.458862, lat=43.141902, altitude=173.20, speed=32.75, satellites=5, angle=279.7200, fixquality=1
$GPRMC,144322.250,A,4308.5148,N,07727.5379,W,32.82,279.65,040924,,,A*4C
$GPGGA,144322.500,4308.5152,N,07727.5408,W,1,05,1.71,173.3,M,-34.4,M,,*53
lng=-77.458969, lat=43.141910, altitude=173.30, speed=32.82, satellites=5, angle=279.6500, fixquality=1
$GPRMC,144322.750,A,4308.5156,N,07727.5439,W,32.86,279.10,040924,,,A*43
$GPGGA,144323.000,4308.5159,N,07727.5469,W,1,05,1.71,173.4,M,-34.4,M,,*5C
lng=-77.459068, lat=43.141925, altitude=173.30, speed=32.86, satellites=5, angle=279.1000, fixquality=1
$GPRMC,144323.250,A,4308.5163,N,07727.5499,W,32.58,279.31,040924,,,A*4B
$GPGGA,144323.500,4308.5167,N,07727.5529,W,1,05,1.71,173.5,M,-34.4,M,,*50
lng=-77.459159, lat=43.141933, altitude=173.40, speed=32.58, satellites=5, angle=279.3100, fixquality=1
$GPRMC,144323.750,A,4308.5171,N,07727.5558,W,32.55,279.39,040924,,,A*44
$GPGGA,144324.000,4308.5174,N,07727.5588,W,1,05,1.71,173.6,M,-34.4,M,,*58
lng=-77.459259, lat=43.141952, altitude=173.50, speed=32.55, satellites=5, angle=279.3900, fixquality=1
$GPRMC,144324.250,A,4308.5178,N,07727.5616,W,31.57,279.68,040924,,,A*43
$GPGGA,144324.500,4308.5182,N,07727.5645,W,1,05,2.22,173.6,M,-34.4,M,,*53
lng=-77.459358, lat=43.141960, altitude=173.60, speed=31.57, satellites=5, angle=279.6800, fixquality=1
$GPRMC,144324.750,A,4308.5185,N,07727.5674,W,31.23,279.40,040924,,,A*49
$GPGGA,144325.000,4308.5189,N,07727.5702,W,1,05,1.71,173.7,M,-34.4,M,,*5A
lng=-77.459457, lat=43.141975, altitude=173.60, speed=31.23, satellites=5, angle=279.4000, fixquality=1
$GPRMC,144325.250,A,4308.5193,N,07727.5731,W,31.20,279.69,040924,,,A*42
$GPGGA,144325.500,4308.5197,N,07727.5759,W,1,05,2.22,173.8,M,-34.4,M,,*54
lng=-77.459556, lat=43.141990, altitude=173.70, speed=31.20, satellites=5, angle=279.6900, fixquality=1
$GPRMC,144325.750,A,4308.5200,N,07727.5789,W,31.40,279.44,040924,,,A*44
$GPGGA,144326.000,4308.5204,N,07727.5818,W,1,05,1.71,173.9,M,-34.4,M,,*55
lng=-77.459648, lat=43.142002, altitude=173.80, speed=31.40, satellites=5, angle=279.4400, fixquality=1
$GPRMC,144326.250,A,4308.5207,N,07727.5848,W,31.56,279.62,040924,,,A*44
$GPGGA,144326.500,4308.5211,N,07727.5877,W,1,05,2.22,174.0,M,-34.4,M,,*56
lng=-77.459747, lat=43.142009, altitude=173.90, speed=31.56, satellites=5, angle=279.6200, fixquality=1
$GPRMC,144326.750,A,4308.5215,N,07727.5906,W,31.54,279.99,040924,,,A*4F
$GPGGA,144327.000,4308.5219,N,07727.5935,W,1,05,2.22,174.2,M,-34.4,M,,*5F
lng=-77.459846, lat=43.142024, altitude=174.00, speed=31.54, satellites=5, angle=279.9900, fixquality=1
$GPRMC,144327.250,A,4308.5223,N,07727.5964,W,31.46,279.81,040924,,,A*40
$GPGGA,144327.500,4308.5227,N,07727.5993,W,1,05,2.22,174.4,M,-34.4,M,,*5D
lng=-77.459938, lat=43.142040, altitude=174.20, speed=31.46, satellites=5, angle=279.8100, fixquality=1
$GPRMC,144327.750,A,4308.5231,N,07727.6022,W,31.71,279.39,040924,,,A*49
$GPGGA,144328.000,4308.5234,N,07727.6051,W,1,05,2.22,174.5,M,-34.4,M,,*50
lng=-77.460037, lat=43.142047, altitude=174.40, speed=31.71, satellites=5, angle=279.3900, fixquality=1
$GPRMC,144328.250,A,4308.5238,N,07727.6080,W,31.33,278.75,040924,,,A*4D
$GPGGA,144328.500,4308.5241,N,07727.6109,W,1,05,2.22,174.5,M,-34.4,M,,*5B
lng=-77.460128, lat=43.142066, altitude=174.50, speed=31.33, satellites=5, angle=278.7500, fixquality=1
$GPRMC,144328.750,A,4308.5244,N,07727.6138,W,31.11,278.46,040924,,,A*41
$GPGGA,144329.000,4308.5247,N,07727.6166,W,1,05,1.71,174.4,M,-34.4,M,,*54
lng=-77.460227, lat=43.142074, altitude=174.50, speed=31.11, satellites=5, angle=278.4600, fixquality=1
$GPRMC,144329.250,A,4308.5250,N,07727.6194,W,30.53,277.84,040924,,,A*40
$GPGGA,144329.500,4308.5253,N,07727.6222,W,1,05,2.22,174.3,M,-34.4,M,,*55
lng=-77.460327, lat=43.142082, altitude=174.40, speed=30.53, satellites=5, angle=277.8400, fixquality=1
$GPRMC,144329.750,A,4308.5256,N,07727.6250,W,30.40,277.69,040924,,,A*49
$GPGGA,144330.000,4308.5259,N,07727.6278,W,1,05,2.22,174.3,M,-34.4,M,,*5D
lng=-77.460418, lat=43.142089, altitude=174.30, speed=30.40, satellites=5, angle=277.6900, fixquality=1
$GPRMC,144330.250,A,4308.5262,N,07727.6307,W,30.78,277.33,040924,,,A*44
$GPGGA,144330.500,4308.5264,N,07727.6336,W,1,05,2.22,174.2,M,-34.4,M,,*5C
lng=-77.460517, lat=43.142105, altitude=174.30, speed=30.78, satellites=5, angle=277.3300, fixquality=1
$GPRMC,144330.750,A,4308.5267,N,07727.6365,W,30.72,277.18,040924,,,A*43
$GPGGA,144331.000,4308.5270,N,07727.6394,W,1,05,2.22,174.1,M,-34.4,M,,*56
lng=-77.460609, lat=43.142112, altitude=174.20, speed=30.72, satellites=5, angle=277.1800, fixquality=1
$GPRMC,144331.250,A,4308.5273,N,07727.6422,W,30.70,276.80,040924,,,A*44
$GPGGA,144331.500,4308.5275,N,07727.6451,W,1,05,2.22,174.1,M,-34.4,M,,*58
lng=-77.460700, lat=43.142124, altitude=174.10, speed=30.70, satellites=5, angle=276.8000, fixquality=1
$GPRMC,144331.750,A,4308.5278,N,07727.6479,W,30.62,277.35,040924,,,A*48
$GPGGA,144332.000,4308.5281,N,07727.6508,W,1,05,1.71,173.9,M,-34.4,M,,*52
lng=-77.460800, lat=43.142131, altitude=174.10, speed=30.62, satellites=5, angle=277.3500, fixquality=1
$GPRMC,144332.250,A,4308.5283,N,07727.6536,W,30.65,277.01,040924,,,A*40
$GPGGA,144332.500,4308.5286,N,07727.6565,W,1,05,2.22,173.8,M,-34.4,M,,*5F
lng=-77.460899, lat=43.142139, altitude=173.90, speed=30.65, satellites=5, angle=277.0100, fixquality=1
$GPRMC,144332.750,A,4308.5288,N,07727.6594,W,30.67,276.75,040924,,,A*46
$GPGGA,144333.000,4308.5291,N,07727.6623,W,1,05,2.22,173.7,M,-34.4,M,,*53
lng=-77.460983, lat=43.142147, altitude=173.80, speed=30.67, satellites=5, angle=276.7500, fixquality=1
$GPRMC,144333.250,A,4308.5293,N,07727.6651,W,30.25,276.53,040924,,,A*40
$GPGGA,144333.500,4308.5296,N,07727.6679,W,1,05,2.22,173.5,M,-34.4,M,,*5C
lng=-77.461082, lat=43.142154, altitude=173.70, speed=30.25, satellites=5, angle=276.5300, fixquality=1
$GPRMC,144333.750,A,4308.5298,N,07727.6708,W,30.08,276.58,040924,,,A*47
$GPGGA,144334.000,4308.5300,N,07727.6737,W,1,05,1.71,173.4,M,-34.4,M,,*5F
lng=-77.461181, lat=43.142162, altitude=173.50, speed=30.08, satellites=5, angle=276.5800, fixquality=1
$GPRMC,144334.250,A,4308.5302,N,07727.6765,W,30.01,276.20,040924,,,A*4A
$GPGGA,144334.500,4308.5305,N,07727.6793,W,1,05,2.22,173.4,M,-34.4,M,,*54
lng=-77.461273, lat=43.142169, altitude=173.40, speed=30.01, satellites=5, angle=276.2000, fixquality=1
$GPRMC,144334.750,A,4308.5307,N,07727.6820,W,29.52,275.80,040924,,,A*43
$GPGGA,144335.000,4308.5309,N,07727.6847,W,1,05,2.22,173.3,M,-34.4,M,,*5D
lng=-77.461372, lat=43.142177, altitude=173.40, speed=29.52, satellites=5, angle=275.8000, fixquality=1
$GPRMC,144335.250,A,4308.5311,N,07727.6874,W,29.28,275.85,040924,,,A*49
$GPGGA,144335.500,4308.5314,N,07727.6901,W,1,05,2.22,173.4,M,-34.4,M,,*50
lng=-77.461456, lat=43.142189, altitude=173.30, speed=29.28, satellites=5, angle=275.8500, fixquality=1
$GPRMC,144335.750,A,4308.5316,N,07727.6928,W,28.91,275.68,040924,,,A*43
$GPGGA,144336.000,4308.5318,N,07727.6955,W,1,05,2.22,173.4,M,-34.4,M,,*5B
lng=-77.461547, lat=43.142196, altitude=173.40, speed=28.91, satellites=5, angle=275.6800, fixquality=1
$GPRMC,144336.250,A,4308.5319,N,07727.6982,W,28.85,275.13,040924,,,A*43
$GPGGA,144336.500,4308.5321,N,07727.7009,W,1,05,2.22,173.4,M,-34.4,M,,*55
lng=-77.461639, lat=43.142196, altitude=173.40, speed=28.85, satellites=5, angle=275.1300, fixquality=1
$GPRMC,144336.750,A,4308.5323,N,07727.7036,W,28.73,274.99,040924,,,A*42
$GPGGA,144337.000,4308.5324,N,07727.7063,W,1,05,1.71,173.5,M,-34.4,M,,*5C
lng=-77.461723, lat=43.142204, altitude=173.40, speed=28.73, satellites=5, angle=274.9900, fixquality=1
$GPRMC,144337.250,A,4308.5326,N,07727.7090,W,28.67,274.76,040924,,,A*4B
$GPGGA,144337.500,4308.5327,N,07727.7116,W,1,05,1.71,173.5,M,-34.4,M,,*59
lng=-77.461814, lat=43.142211, altitude=173.50, speed=28.67, satellites=5, angle=274.7600, fixquality=1
$GPRMC,144337.750,A,4308.5328,N,07727.7144,W,28.81,273.73,040924,,,A*42
$GPGGA,144338.000,4308.5329,N,07727.7170,W,1,05,1.71,173.5,M,-34.4,M,,*5D
lng=-77.461906, lat=43.142211, altitude=173.50, speed=28.81, satellites=5, angle=273.7300, fixquality=1
$GPRMC,144338.250,A,4308.5330,N,07727.7197,W,28.62,272.97,040924,,,A*49
$GPGGA,144338.500,4308.5331,N,07727.7223,W,1,05,1.71,173.5,M,-34.4,M,,*54
lng=-77.461997, lat=43.142219, altitude=173.50, speed=28.62, satellites=5, angle=272.9700, fixquality=1
$GPRMC,144338.750,A,4308.5331,N,07727.7249,W,28.53,273.10,040924,,,A*41
$GPGGA,144339.000,4308.5332,N,07727.7275,W,1,05,1.71,173.5,M,-34.4,M,,*50
lng=-77.462081, lat=43.142219, altitude=173.50, speed=28.53, satellites=5, angle=273.1000, fixquality=1
$GPRMC,144339.250,A,4308.5333,N,07727.7301,W,28.33,273.15,040924,,,A*49
$GPGGA,144339.500,4308.5333,N,07727.7326,W,1,05,2.22,173.4,M,-34.4,M,,*57
lng=-77.462165, lat=43.142219, altitude=173.50, speed=28.33, satellites=5, angle=273.1500, fixquality=1
$GPRMC,144339.750,A,4308.5334,N,07727.7350,W,26.61,272.93,040924,,,A*49
$GPGGA,144340.000,4308.5334,N,07727.7375,W,1,05,2.22,173.3,M,-34.4,M,,*5A
lng=-77.462249, lat=43.142219, altitude=173.40, speed=26.61, satellites=5, angle=272.9300, fixquality=1
$GPRMC,144340.250,A,4308.5334,N,07727.7400,W,25.99,272.84,040924,,,A*42
$GPGGA,144340.500,4308.5335,N,07727.7423,W,1,05,2.22,173.3,M,-34.4,M,,*5A
lng=-77.462333, lat=43.142219, altitude=173.30, speed=25.99, satellites=5, angle=272.8400, fixquality=1
$GPRMC,144340.750,A,4308.5336,N,07727.7447,W,24.94,272.90,040924,,,A*4F
$GPGGA,144341.000,4308.5337,N,07727.7469,W,1,05,2.22,173.3,M,-34.4,M,,*52
lng=-77.462409, lat=43.142227, altitude=173.30, speed=24.94, satellites=5, angle=272.9000, fixquality=1
$GPRMC,144341.250,A,4308.5337,N,07727.7491,W,23.98,272.85,040924,,,A*4E
$GPGGA,144341.500,4308.5338,N,07727.7513,W,1,05,2.22,173.3,M,-34.4,M,,*54
lng=-77.462486, lat=43.142227, altitude=173.30, speed=23.98, satellites=5, angle=272.8500, fixquality=1
$GPRMC,144341.750,A,4308.5339,N,07727.7534,W,22.92,272.51,040924,,,A*49
$GPGGA,144342.000,4308.5340,N,07727.7555,W,1,05,2.22,173.3,M,-34.4,M,,*5F
lng=-77.462554, lat=43.142227, altitude=173.30, speed=22.92, satellites=5, angle=272.5100, fixquality=1
$GPRMC,144342.250,A,4308.5340,N,07727.7576,W,22.14,273.27,040924,,,A*49
$GPGGA,144342.500,4308.5341,N,07727.7596,W,1,05,2.22,173.3,M,-34.4,M,,*54
lng=-77.462631, lat=43.142234, altitude=173.30, speed=22.14, satellites=5, angle=273.2700, fixquality=1
$GPRMC,144342.750,A,4308.5342,N,07727.7617,W,21.71,273.54,040924,,,A*4E
$GPGGA,144343.000,4308.5343,N,07727.7637,W,1,05,2.22,173.4,M,-34.4,M,,*5D
lng=-77.462692, lat=43.142234, altitude=173.30, speed=21.71, satellites=5, angle=273.5400, fixquality=1
$GPRMC,144343.250,A,4308.5344,N,07727.7657,W,21.54,274.13,040924,,,A*4B
$GPGGA,144343.500,4308.5345,N,07727.7677,W,1,05,2.22,173.5,M,-34.4,M,,*5B
lng=-77.462760, lat=43.142234, altitude=173.40, speed=21.54, satellites=5, angle=274.1300, fixquality=1
$GPRMC,144343.750,A,4308.5346,N,07727.7698,W,21.62,273.72,040924,,,A*4A
$GPGGA,144344.000,4308.5346,N,07727.7718,W,1,05,2.22,173.7,M,-34.4,M,,*50
lng=-77.462837, lat=43.142246, altitude=173.50, speed=21.62, satellites=5, angle=273.7200, fixquality=1
$GPRMC,144344.250,A,4308.5348,N,07727.7739,W,21.86,273.67,040924,,,A*42
$GPGGA,144344.500,4308.5349,N,07727.7759,W,1,05,2.22,173.9,M,-34.4,M,,*51
lng=-77.462898, lat=43.142246, altitude=173.70, speed=21.86, satellites=5, angle=273.6700, fixquality=1
$GPRMC,144344.750,A,4308.5350,N,07727.7780,W,22.00,274.00,040924,,,A*47
$GPGGA,144345.000,4308.5351,N,07727.7801,W,1,05,2.22,174.0,M,-34.4,M,,*50
lng=-77.462966, lat=43.142253, altitude=173.90, speed=22.00, satellites=5, angle=274.0000, fixquality=1
$GPRMC,144345.250,A,4308.5353,N,07727.7822,W,22.06,274.14,040924,,,A*44
$GPGGA,144345.500,4308.5354,N,07727.7843,W,1,05,2.22,174.1,M,-34.4,M,,*57
lng=-77.463035, lat=43.142253, altitude=174.00, speed=22.06, satellites=5, angle=274.1400, fixquality=1
$GPRMC,144345.750,A,4308.5355,N,07727.7863,W,21.84,273.89,040924,,,A*48
$GPGGA,144346.000,4308.5356,N,07727.7883,W,1,05,2.22,174.1,M,-34.4,M,,*5F
lng=-77.463104, lat=43.142261, altitude=174.10, speed=21.84, satellites=5, angle=273.8900, fixquality=1
$GPRMC,144346.250,A,4308.5357,N,07727.7903,W,21.23,273.91,040924,,,A*4F
$GPGGA,144346.500,4308.5358,N,07727.7922,W,1,05,2.22,174.1,M,-34.4,M,,*5E
lng=-77.463172, lat=43.142261, altitude=174.10, speed=21.23, satellites=5, angle=273.9100, fixquality=1
$GPRMC,144346.750,A,4308.5358,N,07727.7940,W,20.06,274.04,040924,,,A*4F
$GPGGA,144347.000,4308.5359,N,07727.7958,W,1,05,2.22,174.1,M,-34.4,M,,*56
lng=-77.463233, lat=43.142261, altitude=174.10, speed=20.06, satellites=5, angle=274.0400, fixquality=1
$GPRMC,144347.250,A,4308.5360,N,07727.7974,W,18.37,273.90,040924,,,A*44
$GPGGA,144347.500,4308.5361,N,07727.7989,W,1,05,2.22,174.2,M,-34.4,M,,*57
lng=-77.463287, lat=43.142269, altitude=174.10, speed=18.37, satellites=5, angle=273.9000, fixquality=1
$GPRMC,144347.750,A,4308.5363,N,07727.8003,W,16.04,274.88,040924,,,A*44
$GPGGA,144348.000,4308.5364,N,07727.8014,W,1,05,2.22,174.2,M,-34.4,M,,*5A
lng=-77.463340, lat=43.142269, altitude=174.20, speed=16.04, satellites=5, angle=274.8800, fixquality=1
$GPRMC,144348.250,A,4308.5365,N,07727.8024,W,12.19,274.57,040924,,,A*47
$GPGGA,144348.500,4308.5365,N,07727.8035,W,1,05,2.22,174.2,M,-34.4,M,,*5D
