Vers 72
USE_SERIAL_FEEDBACK=true
DEVELOPMENT_MODE=false
USE_RMC_ONLY=false

$GPRMC,232628.750,A,4305.1624,N,07740.8747,W,0.06,188.78,050924,,,A*78
$GPGGA,232629.000,4305.1624,N,07740.8747,W,1,04,2.12,181.6,M,-34.4,M,,*5E
lng=-77.681243, lat=43.086044, altitude=184.40, speed=0.06, satellites=3, angle=188.7800, fixquality=1
$GPRMC,232629.250,A,4305.1624,N,07740.8748,W,0.12,91.38,050924,,,A*4B
$GPGGA,232629.500,4305.1623,N,07740.8747,W,1,04,2.12,181.3,M,-34.4,M,,*59
lng=-77.681251, lat=43.086044, altitude=181.60, speed=0.12, satellites=4, angle=91.3800, fixquality=1
$GPGGA,232647.000,4305.1639,N,07740.8746,W,1,04,2.12,178.6,M,-34.4,M,,*5D
$GPRMC,232647.000,A,4305.1639,N,07740.8746,W,0.09,51.15,050924,,,A*4F
lng=-77.681243, lat=43.086067, altitude=178.60, speed=0.01, satellites=4, angle=308.9000, fixquality=1
$GPGGA,232647.250,4305.1639,N,07740.8746,W,1,04,2.12,178.6,M,-34.4,M,,*5A
$GPRMC,232647.250,A,4305.1639,N,07740.8746,W,0.10,59.98,050924,,,A*4D
lng=-77.681243, lat=43.086067, altitude=178.60, speed=0.09, satellites=4, angle=51.1500, fixquality=1
$GPGGA,232650.750,4305.1645,N,07740.8732,W,1,05,1.68,178.9,M,-34.4,M,,*51
$GPRMC,232650.750,A,4305.1645,N,07740.8732,W,0.14,97.14,050924,,,A*44
lng=-77.681221, lat=43.086074, altitude=178.90, speed=0.12, satellites=5, angle=90.8200, fixquality=1
$GPGGA,232651.000,4305.1645,N,07740.8731,W,1,05,1.68,178.9,M,-34.4,M,,*51
$GPRMC,232651.000,A,4305.1645,N,07740.8731,W,0.18,113.08,050924,,,A*78
lng=-77.681221, lat=43.086074, altitude=178.90, speed=0.14, satellites=5, angle=97.1400, fixquality=1
$GPGGA,232654.750,4305.1645,N,07740.8723,W,1,07,1.08,178.1,M,-34.4,M,,*59
$GPRMC,232654.750,A,4305.1645,N,07740.8723,W,0.18,127.69,050924,,,A*7C
lng=-77.681198, lat=43.086074, altitude=178.10, speed=0.19, satellites=7, angle=115.2200, fixquality=1
$GPGGA,232655.000,4305.1645,N,07740.8722,W,1,07,1.08,177.8,M,-34.4,M,,*5D
$GPRMC,232655.000,A,4305.1645,N,07740.8722,W,0.17,130.57,050924,,,A*7A
lng=-77.681198, lat=43.086074, altitude=177.80, speed=0.18, satellites=7, angle=127.6900, fixquality=1
$GPRMC,232704.250,A,4305.1646,N,07740.8728,W,3.17,279.39,050924,,,A*74
$GPGGA,232704.500,4305.1646,N,07740.8732,W,1,08,1.02,176.8,M,-34.4,M,,*5B
lng=-77.681205, lat=43.086074, altitude=176.80, speed=3.17, satellites=8, angle=279.3900, fixquality=1
$GPRMC,232704.750,A,4305.1647,N,07740.8735,W,3.91,275.16,050924,,,A*73
$GPGGA,232705.000,4305.1648,N,07740.8739,W,1,08,1.05,176.6,M,-34.4,M,,*53
lng=-77.681228, lat=43.086074, altitude=176.80, speed=3.91, satellites=8, angle=275.1600, fixquality=1
$GPRMC,232705.250,A,4305.1648,N,07740.8743,W,4.57,277.13,050924,,,A*73
$GPGGA,232705.500,4305.1649,N,07740.8748,W,1,08,1.05,176.5,M,-34.4,M,,*52
lng=-77.681243, lat=43.086082, altitude=176.60, speed=4.57, satellites=8, angle=277.1300, fixquality=1
$GPRMC,232705.750,A,4305.1650,N,07740.8752,W,5.06,278.08,050924,,,A*7F
$GPGGA,232706.000,4305.1651,N,07740.8757,W,1,08,1.05,176.5,M,-34.4,M,,*53
lng=-77.681251, lat=43.086082, altitude=176.50, speed=5.06, satellites=8, angle=278.0800, fixquality=1
$GPRMC,232706.250,A,4305.1652,N,07740.8762,W,5.21,281.15,050924,,,A*77
$GPGGA,232706.500,4305.1653,N,07740.8766,W,1,08,1.05,176.4,M,-34.4,M,,*57
lng=-77.681266, lat=43.086082, altitude=176.50, speed=5.21, satellites=8, angle=281.1500, fixquality=1
$GPRMC,232706.750,A,4305.1653,N,07740.8771,W,5.30,278.03,050924,,,A*70
$GPGGA,232707.000,4305.1653,N,07740.8777,W,1,08,1.05,176.3,M,-34.4,M,,*54
lng=-77.681282, lat=43.086093, altitude=176.40, speed=5.30, satellites=8, angle=278.0300, fixquality=1
$GPRMC,232707.250,A,4305.1654,N,07740.8782,W,5.68,273.64,050924,,,A*78
$GPGGA,232707.500,4305.1654,N,07740.8787,W,1,08,1.05,176.3,M,-34.4,M,,*59
lng=-77.681304, lat=43.086093, altitude=176.30, speed=5.68, satellites=8, angle=273.6400, fixquality=1
$GPRMC,232707.750,A,4305.1655,N,07740.8792,W,5.74,271.72,050924,,,A*75
$GPGGA,232708.000,4305.1655,N,07740.8798,W,1,08,1.05,176.2,M,-34.4,M,,*5D
lng=-77.681320, lat=43.086093, altitude=176.30, speed=5.74, satellites=8, angle=271.7200, fixquality=1
$GPRMC,232708.250,A,4305.1655,N,07740.8805,W,6.90,269.75,050924,,,A*79
$GPGGA,232708.500,4305.1655,N,07740.8812,W,1,08,1.05,176.1,M,-34.4,M,,*56
lng=-77.681343, lat=43.086093, altitude=176.20, speed=6.90, satellites=8, angle=269.7500, fixquality=1
$GPRMC,232708.750,A,4305.1654,N,07740.8818,W,7.07,265.29,050924,,,A*7B
$GPGGA,232709.000,4305.1653,N,07740.8825,W,1,08,1.05,176.1,M,-34.4,M,,*50
lng=-77.681365, lat=43.086093, altitude=176.10, speed=7.07, satellites=8, angle=265.2900, fixquality=1
$GPRMC,232709.250,A,4305.1651,N,07740.8831,W,7.20,251.69,050924,,,A*77
$GPGGA,232709.500,4305.1648,N,07740.8838,W,1,08,1.05,176.1,M,-34.4,M,,*53
lng=-77.681388, lat=43.086082, altitude=176.10, speed=7.20, satellites=8, angle=251.6900, fixquality=1
$GPRMC,232709.750,A,4305.1645,N,07740.8845,W,8.05,236.59,050924,,,A*7E
$GPGGA,232710.000,4305.1642,N,07740.8851,W,1,08,1.05,176.6,M,-34.4,M,,*5C
lng=-77.681404, lat=43.086074, altitude=176.10, speed=8.05, satellites=8, angle=236.5900, fixquality=1
$GPRMC,232710.250,A,4305.1638,N,07740.8856,W,8.34,223.06,050924,,,A*77
$GPGGA,232710.500,4305.1633,N,07740.8861,W,1,08,1.05,176.8,M,-34.4,M,,*52
lng=-77.681427, lat=43.086059, altitude=176.60, speed=8.34, satellites=8, angle=223.0600, fixquality=1
$GPRMC,232710.750,A,4305.1628,N,07740.8865,W,8.75,209.37,050924,,,A*7C
$GPGGA,232711.000,4305.1621,N,07740.8868,W,1,08,1.05,176.9,M,-34.4,M,,*5D
lng=-77.681442, lat=43.086044, altitude=176.80, speed=8.75, satellites=8, angle=209.3700, fixquality=1
$GPRMC,232711.250,A,4305.1615,N,07740.8871,W,9.32,200.25,050924,,,A*7B
$GPGGA,232711.500,4305.1609,N,07740.8873,W,1,08,1.05,177.1,M,-34.4,M,,*51
lng=-77.681449, lat=43.086025, altitude=176.90, speed=9.32, satellites=8, angle=200.2500, fixquality=1
$GPRMC,232711.750,A,4305.1603,N,07740.8874,W,9.17,188.93,050924,,,A*75
$GPGGA,232712.000,4305.1596,N,07740.8875,W,1,08,1.05,177.2,M,-34.4,M,,*57
lng=-77.681449, lat=43.086002, altitude=177.10, speed=9.17, satellites=8, angle=188.9300, fixquality=1
$GPRMC,232712.250,A,4305.1589,N,07740.8875,W,9.40,181.64,050924,,,A*70
$GPGGA,232712.500,4305.1582,N,07740.8875,W,1,08,1.05,177.2,M,-34.4,M,,*57
lng=-77.681465, lat=43.085979, altitude=177.20, speed=9.40, satellites=8, angle=181.6400, fixquality=1
$GPRMC,232712.750,A,4305.1576,N,07740.8874,W,8.98,179.62,050924,,,A*71
$GPGGA,232713.000,4305.1569,N,07740.8874,W,1,08,1.05,177.3,M,-34.4,M,,*56
lng=-77.681449, lat=43.085960, altitude=177.20, speed=8.98, satellites=8, angle=179.6200, fixquality=1
$GPRMC,232713.250,A,4305.1562,N,07740.8873,W,9.21,176.09,050924,,,A*76
$GPGGA,232713.500,4305.1556,N,07740.8873,W,1,08,1.05,177.3,M,-34.4,M,,*58
lng=-77.681449, lat=43.085937, altitude=177.30, speed=9.21, satellites=8, angle=176.0900, fixquality=1
$GPRMC,232713.750,A,4305.1549,N,07740.8872,W,9.02,176.21,050924,,,A*70
$GPGGA,232714.000,4305.1543,N,07740.8871,W,1,08,1.05,177.4,M,-34.4,M,,*5B
lng=-77.681449, lat=43.085914, altitude=177.30, speed=9.02, satellites=8, angle=176.2100, fixquality=1
$GPRMC,232714.250,A,4305.1537,N,07740.8871,W,8.32,178.72,050924,,,A*72
$GPGGA,232714.500,4305.1531,N,07740.8872,W,1,08,1.05,177.4,M,-34.4,M,,*58
lng=-77.681449, lat=43.085895, altitude=177.40, speed=8.32, satellites=8, angle=178.7200, fixquality=1
$GPRMC,232714.750,A,4305.1525,N,07740.8873,W,8.40,185.67,050924,,,A*75
$GPGGA,232715.000,4305.1519,N,07740.8875,W,1,08,1.05,177.4,M,-34.4,M,,*51
lng=-77.681449, lat=43.085872, altitude=177.40, speed=8.40, satellites=8, angle=185.6700, fixquality=1
$GPRMC,232715.250,A,4305.1513,N,07740.8877,W,7.83,192.57,050924,,,A*75
$GPGGA,232715.500,4305.1508,N,07740.8879,W,1,08,1.05,177.4,M,-34.4,M,,*58
lng=-77.681465, lat=43.085857, altitude=177.40, speed=7.83, satellites=8, angle=192.5700, fixquality=1
$GPRMC,232715.750,A,4305.1502,N,07740.8882,W,7.88,199.56,050924,,,A*7B
$GPGGA,232716.000,4305.1497,N,07740.8886,W,1,08,1.05,177.4,M,-34.4,M,,*59
lng=-77.681472, lat=43.085838, altitude=177.40, speed=7.88, satellites=8, angle=199.5600, fixquality=1
$GPRMC,232716.250,A,4305.1493,N,07740.8890,W,7.07,217.10,050924,,,A*77
$GPGGA,232716.500,4305.1489,N,07740.8896,W,1,08,1.05,177.2,M,-34.4,M,,*54
lng=-77.681488, lat=43.085823, altitude=177.40, speed=7.07, satellites=8, angle=217.1000, fixquality=1
$GPRMC,232716.750,A,4305.1485,N,07740.8903,W,8.13,229.69,050924,,,A*77
$GPGGA,232717.000,4305.1482,N,07740.8912,W,1,07,1.37,177.0,M,-34.4,M,,*5A
lng=-77.681503, lat=43.085807, altitude=177.20, speed=8.13, satellites=8, angle=229.6900, fixquality=1
$GPRMC,232717.250,A,4305.1480,N,07740.8920,W,9.00,245.77,050924,,,A*71
$GPGGA,232717.500,4305.1478,N,07740.8929,W,1,08,1.05,176.7,M,-34.4,M,,*5A
lng=-77.681533, lat=43.085800, altitude=177.00, speed=9.00, satellites=7, angle=245.7700, fixquality=1
$GPRMC,232717.750,A,4305.1477,N,07740.8938,W,8.85,254.51,050924,,,A*7D
$GPGGA,232718.000,4305.1476,N,07740.8947,W,1,07,1.37,176.4,M,-34.4,M,,*5B
lng=-77.681556, lat=43.085792, altitude=176.70, speed=8.85, satellites=8, angle=254.5100, fixquality=1
$GPRMC,232718.250,A,4305.1477,N,07740.8956,W,8.91,266.82,050924,,,A*75
$GPGGA,232718.500,4305.1478,N,07740.8965,W,1,08,1.05,176.6,M,-34.4,M,,*5C
lng=-77.681594, lat=43.085792, altitude=176.40, speed=8.91, satellites=7, angle=266.8200, fixquality=1
$GPRMC,232718.750,A,4305.1480,N,07740.8974,W,9.29,279.91,050924,,,A*76
$GPGGA,232719.000,4305.1482,N,07740.8982,W,1,08,1.05,176.8,M,-34.4,M,,*5A
lng=-77.681625, lat=43.085800, altitude=176.60, speed=9.29, satellites=8, angle=279.9100, fixquality=1
$GPRMC,232719.250,A,4305.1485,N,07740.8989,W,8.38,290.27,050924,,,A*7E
$GPGGA,232719.500,4305.1489,N,07740.8996,W,1,07,1.37,177.1,M,-34.4,M,,*57
lng=-77.681648, lat=43.085807, altitude=176.80, speed=8.38, satellites=8, angle=290.2700, fixquality=1
$GPRMC,232719.750,A,4305.1493,N,07740.9002,W,8.19,305.48,050924,,,A*70
$GPGGA,232720.000,4305.1497,N,07740.9008,W,1,07,1.38,177.0,M,-34.4,M,,*56
lng=-77.681671, lat=43.085823, altitude=177.10, speed=8.19, satellites=7, angle=305.4800, fixquality=1
$GPRMC,232720.250,A,4305.1502,N,07740.9012,W,7.58,319.42,050924,,,A*7A
$GPGGA,232720.500,4305.1507,N,07740.9015,W,1,07,1.38,177.0,M,-34.4,M,,*57
lng=-77.681686, lat=43.085838, altitude=177.00, speed=7.58, satellites=7, angle=319.4200, fixquality=1
$GPRMC,232720.750,A,4305.1512,N,07740.9018,W,7.51,332.68,050924,,,A*7C
$GPGGA,232721.000,4305.1518,N,07740.9020,W,1,07,1.38,176.9,M,-34.4,M,,*53
lng=-77.681694, lat=43.085857, altitude=177.00, speed=7.51, satellites=7, angle=332.6800, fixquality=1
$GPRMC,232721.250,A,4305.1527,N,07740.9021,W,8.98,349.61,050924,,,A*7B
$GPGGA,232721.500,4305.1535,N,07740.9022,W,1,08,1.05,176.8,M,-34.4,M,,*5B
lng=-77.681694, lat=43.085880, altitude=176.90, speed=8.98, satellites=7, angle=349.6100, fixquality=1
$GPRMC,232721.750,A,4305.1542,N,07740.9022,W,10.21,356.96,050924,,,A*43
$GPGGA,232722.000,4305.1550,N,07740.9022,W,1,08,1.05,176.6,M,-34.4,M,,*50
lng=-77.681709, lat=43.085903, altitude=176.80, speed=10.21, satellites=8, angle=356.9600, fixquality=1
$GPRMC,232722.250,A,4305.1560,N,07740.9021,W,11.23,0.94,050924,,,A*47
$GPGGA,232722.500,4305.1571,N,07740.9021,W,1,08,1.05,176.4,M,-34.4,M,,*57
lng=-77.681694, lat=43.085929, altitude=176.60, speed=11.23, satellites=8, angle=0.9400, fixquality=1
$GPRMC,232722.750,A,4305.1581,N,07740.9021,W,12.22,359.70,050924,,,A*4A
$GPGGA,232723.000,4305.1592,N,07740.9020,W,1,08,1.05,176.3,M,-34.4,M,,*58
lng=-77.681694, lat=43.085971, altitude=176.40, speed=12.22, satellites=8, angle=359.7000, fixquality=1
$GPRMC,232723.250,A,4305.1602,N,07740.9021,W,12.90,358.93,050924,,,A*43
$GPGGA,232723.500,4305.1612,N,07740.9021,W,1,08,1.05,176.2,M,-34.4,M,,*56
lng=-77.681694, lat=43.086002, altitude=176.30, speed=12.90, satellites=8, angle=358.9300, fixquality=1
$GPRMC,232723.750,A,4305.1622,N,07740.9021,W,13.12,359.34,050924,,,A*43
$GPGGA,232724.000,4305.1633,N,07740.9021,W,1,08,1.05,176.0,M,-34.4,M,,*55
lng=-77.681694, lat=43.086036, altitude=176.20, speed=13.12, satellites=8, angle=359.3400, fixquality=1
$GPRMC,232724.250,A,4305.1642,N,07740.9021,W,13.34,358.46,050924,,,A*47
$GPGGA,232724.500,4305.1652,N,07740.9022,W,1,08,1.05,175.7,M,-34.4,M,,*50
lng=-77.681694, lat=43.086067, altitude=176.00, speed=13.34, satellites=8, angle=358.4600, fixquality=1
$GPRMC,232724.750,A,4305.1662,N,07740.9022,W,13.35,357.81,050924,,,A*46
$GPGGA,232725.000,4305.1671,N,07740.9022,W,1,08,1.05,175.6,M,-34.4,M,,*54
lng=-77.681709, lat=43.086101, altitude=175.70, speed=13.35, satellites=8, angle=357.8100, fixquality=1
$GPRMC,232725.250,A,4305.1681,N,07740.9022,W,13.34,358.33,050924,,,A*48
$GPGGA,232725.500,4305.1690,N,07740.9022,W,1,08,1.05,175.4,M,-34.4,M,,*5C
lng=-77.681709, lat=43.086132, altitude=175.60, speed=13.34, satellites=8, angle=358.3300, fixquality=1
$GPRMC,232725.750,A,4305.1700,N,07740.9022,W,13.37,358.08,050924,,,A*4E
$GPGGA,232726.000,4305.1709,N,07740.9022,W,1,08,1.05,175.3,M,-34.4,M,,*5C
lng=-77.681709, lat=43.086166, altitude=175.40, speed=13.37, satellites=8, angle=358.0800, fixquality=1
$GPRMC,232726.250,A,4305.1718,N,07740.9022,W,13.39,358.25,050924,,,A*40
$GPGGA,232726.500,4305.1728,N,07740.9022,W,1,08,1.05,175.2,M,-34.4,M,,*5B
lng=-77.681709, lat=43.086196, altitude=175.30, speed=13.39, satellites=8, angle=358.2500, fixquality=1
$GPRMC,232726.750,A,4305.1737,N,07740.9022,W,13.57,358.09,050924,,,A*4E
$GPGGA,232727.000,4305.1746,N,07740.9022,W,1,07,1.38,175.1,M,-34.4,M,,*55
lng=-77.681709, lat=43.086231, altitude=175.20, speed=13.57, satellites=8, angle=358.0900, fixquality=1
$GPRMC,232727.250,A,4305.1756,N,07740.9022,W,13.57,358.66,050924,,,A*44
$GPGGA,232727.500,4305.1765,N,07740.9023,W,1,07,1.38,174.8,M,-34.4,M,,*58
lng=-77.681709, lat=43.086261, altitude=175.10, speed=13.57, satellites=7, angle=358.6600, fixquality=1
$GPRMC,232727.750,A,4305.1775,N,07740.9023,W,13.74,358.32,050924,,,A*41
$GPGGA,232728.000,4305.1785,N,07740.9024,W,1,07,1.38,174.4,M,-34.4,M,,*57
lng=-77.681709, lat=43.086296, altitude=174.80, speed=13.74, satellites=7, angle=358.3200, fixquality=1
$GPRMC,232728.250,A,4305.1795,N,07740.9024,W,13.82,357.80,050924,,,A*4D
$GPGGA,232728.500,4305.1805,N,07740.9025,W,1,07,1.38,174.2,M,-34.4,M,,*52
lng=-77.681709, lat=43.086326, altitude=174.40, speed=13.82, satellites=7, angle=357.8000, fixquality=1
$GPRMC,232728.750,A,4305.1815,N,07740.9025,W,13.90,358.21,050924,,,A*49
$GPGGA,232729.000,4305.1824,N,07740.9026,W,1,07,1.38,173.8,M,-34.4,M,,*5B
lng=-77.681709, lat=43.086360, altitude=174.20, speed=13.90, satellites=7, angle=358.2100, fixquality=1
$GPRMC,232729.250,A,4305.1834,N,07740.9026,W,13.99,358.05,050924,,,A*42
$GPGGA,232729.500,4305.1844,N,07740.9026,W,1,07,1.38,173.6,M,-34.4,M,,*56
lng=-77.681716, lat=43.086391, altitude=173.80, speed=13.99, satellites=7, angle=358.0500, fixquality=1
$GPRMC,232729.750,A,4305.1854,N,07740.9027,W,14.04,357.87,050924,,,A*46
$GPGGA,232730.000,4305.1863,N,07740.9028,W,1,07,1.38,173.2,M,-34.4,M,,*54
lng=-77.681716, lat=43.086425, altitude=173.60, speed=14.04, satellites=7, angle=357.8700, fixquality=1
$GPRMC,232730.250,A,4305.1873,N,07740.9027,W,13.33,1.81,050924,,,A*4B
$GPGGA,232730.500,4305.1881,N,07740.9026,W,1,07,1.38,173.0,M,-34.4,M,,*51
lng=-77.681716, lat=43.086460, altitude=173.20, speed=13.33, satellites=7, angle=1.8100, fixquality=1
$GPRMC,232730.750,A,4305.1889,N,07740.9024,W,12.54,6.24,050924,,,A*40
$GPGGA,232731.000,4305.1897,N,07740.9021,W,1,08,1.05,172.8,M,-34.4,M,,*5D
lng=-77.681709, lat=43.086483, altitude=173.00, speed=12.54, satellites=7, angle=6.2400, fixquality=1
$GPRMC,232731.250,A,4305.1905,N,07740.9018,W,11.99,12.62,050924,,,A*7B
$GPGGA,232731.500,4305.1913,N,07740.9016,W,1,08,1.05,172.8,M,-34.4,M,,*51
lng=-77.681694, lat=43.086505, altitude=172.80, speed=11.99, satellites=8, angle=12.6200, fixquality=1
$GPRMC,232731.750,A,4305.1921,N,07740.9013,W,11.48,15.81,050924,,,A*75
$GPGGA,232732.000,4305.1929,N,07740.9009,W,1,08,1.05,172.5,M,-34.4,M,,*5D
lng=-77.681686, lat=43.086532, altitude=172.80, speed=11.48, satellites=8, angle=15.8100, fixquality=1
$GPRMC,232732.250,A,4305.1937,N,07740.9005,W,11.48,20.22,050924,,,A*7C
$GPGGA,232732.500,4305.1946,N,07740.9001,W,1,08,1.05,172.4,M,-34.4,M,,*58
lng=-77.681671, lat=43.086563, altitude=172.50, speed=11.48, satellites=8, angle=20.2200, fixquality=1
$GPRMC,232732.750,A,4305.1952,N,07740.8995,W,11.35,25.68,050924,,,A*7A
$GPGGA,232733.000,4305.1959,N,07740.8990,W,1,08,1.05,172.3,M,-34.4,M,,*55
lng=-77.681655, lat=43.086589, altitude=172.40, speed=11.35, satellites=8, angle=25.6800, fixquality=1
$GPRMC,232733.250,A,4305.1963,N,07740.8981,W,10.50,42.85,050924,,,A*79
$GPGGA,232733.500,4305.1968,N,07740.8974,W,1,08,1.05,172.4,M,-34.4,M,,*5F
lng=-77.681632, lat=43.086605, altitude=172.30, speed=10.50, satellites=8, angle=42.8500, fixquality=1
$GPRMC,232733.750,A,4305.1972,N,07740.8967,W,9.81,49.82,050924,,,A*4C
$GPGGA,232734.000,4305.1974,N,07740.8959,W,1,08,1.05,172.2,M,-34.4,M,,*59
lng=-77.681610, lat=43.086620, altitude=172.40, speed=9.81, satellites=8, angle=49.8200, fixquality=1
$GPRMC,232734.250,A,4305.1976,N,07740.8951,W,9.21,63.97,050924,,,A*49
$GPGGA,232734.500,4305.1979,N,07740.8944,W,1,08,1.05,171.8,M,-34.4,M,,*54
lng=-77.681587, lat=43.086627, altitude=172.20, speed=9.21, satellites=8, angle=63.9700, fixquality=1
$GPRMC,232734.750,A,4305.1981,N,07740.8935,W,9.21,69.25,050924,,,A*45
$GPGGA,232735.000,4305.1982,N,07740.8926,W,1,08,1.05,171.5,M,-34.4,M,,*5D
lng=-77.681556, lat=43.086635, altitude=171.80, speed=9.21, satellites=8, angle=69.2500, fixquality=1
$GPRMC,232735.250,A,4305.1984,N,07740.8918,W,9.57,68.39,050924,,,A*46
$GPGGA,232735.500,4305.1988,N,07740.8910,W,1,08,1.05,171.6,M,-34.4,M,,*54
lng=-77.681526, lat=43.086635, altitude=171.50, speed=9.57, satellites=8, angle=68.3900, fixquality=1
$GPRMC,232735.750,A,4305.1990,N,07740.8901,W,9.65,60.10,050924,,,A*4C
$GPGGA,232736.000,4305.1994,N,07740.8894,W,1,08,1.05,171.6,M,-34.4,M,,*52
lng=-77.681503, lat=43.086654, altitude=171.60, speed=9.65, satellites=8, angle=60.1000, fixquality=1
$GPRMC,232736.250,A,4305.1998,N,07740.8887,W,9.25,52.48,050924,,,A*45
$GPGGA,232736.500,4305.2005,N,07740.8882,W,1,08,1.05,171.8,M,-34.4,M,,*5C
lng=-77.681480, lat=43.086662, altitude=171.60, speed=9.25, satellites=8, angle=52.4800, fixquality=1
$GPRMC,232736.750,A,4305.2011,N,07740.8877,W,9.51,38.08,050924,,,A*4F
$GPGGA,232737.000,4305.2017,N,07740.8872,W,1,08,1.05,171.8,M,-34.4,M,,*54
lng=-77.681465, lat=43.086685, altitude=171.80, speed=9.51, satellites=8, angle=38.0800, fixquality=1
$GPRMC,232737.250,A,4305.2024,N,07740.8868,W,9.94,29.22,050924,,,A*42
$GPGGA,232737.500,4305.2032,N,07740.8866,W,1,08,1.05,171.7,M,-34.4,M,,*5C
lng=-77.681442, lat=43.086711, altitude=171.80, speed=9.94, satellites=8, angle=29.2200, fixquality=1
$GPRMC,232737.750,A,4305.2040,N,07740.8865,W,10.93,15.66,050924,,,A*78
$GPGGA,232738.000,4305.2048,N,07740.8862,W,1,08,1.05,171.6,M,-34.4,M,,*5E
lng=-77.681442, lat=43.086734, altitude=171.70, speed=10.93, satellites=8, angle=15.6600, fixquality=1
$GPRMC,232738.250,A,4305.2055,N,07740.8858,W,11.84,11.43,050924,,,A*7C
$GPGGA,232738.500,4305.2063,N,07740.8854,W,1,08,1.05,171.5,M,-34.4,M,,*54
lng=-77.681427, lat=43.086757, altitude=171.60, speed=11.84, satellites=8, angle=11.4300, fixquality=1
$GPRMC,232738.750,A,4305.2073,N,07740.8852,W,12.63,7.45,050924,,,A*4C
$GPGGA,232739.000,4305.2083,N,07740.8851,W,1,08,1.05,171.6,M,-34.4,M,,*58
lng=-77.681419, lat=43.086791, altitude=171.50, speed=12.63, satellites=8, angle=7.4500, fixquality=1
$GPRMC,232739.250,A,4305.2094,N,07740.8850,W,13.63,2.06,050924,,,A*40
$GPGGA,232739.500,4305.2104,N,07740.8850,W,1,08,1.05,171.8,M,-34.4,M,,*5C
lng=-77.681411, lat=43.086826, altitude=171.60, speed=13.63, satellites=8, angle=2.0600, fixquality=1
$GPRMC,232739.750,A,4305.2115,N,07740.8850,W,14.36,359.66,050924,,,A*41
$GPGGA,232740.000,4305.2127,N,07740.8851,W,1,08,1.05,171.8,M,-34.4,M,,*57
lng=-77.681411, lat=43.086856, altitude=171.80, speed=14.36, satellites=8, angle=359.6600, fixquality=1
$GPRMC,232740.250,A,4305.2138,N,07740.8851,W,15.46,358.56,050924,,,A*40
$GPGGA,232740.500,4305.2150,N,07740.8851,W,1,08,1.05,171.9,M,-34.4,M,,*53
lng=-77.681419, lat=43.086898, altitude=171.80, speed=15.46, satellites=8, angle=358.5600, fixquality=1
$GPRMC,232740.750,A,4305.2161,N,07740.8852,W,15.71,357.66,050924,,,A*42
$GPGGA,232741.000,4305.2172,N,07740.8852,W,1,08,1.05,171.8,M,-34.4,M,,*55
lng=-77.681419, lat=43.086936, altitude=171.90, speed=15.71, satellites=8, angle=357.6600, fixquality=1
$GPRMC,232741.250,A,4305.2183,N,07740.8854,W,15.82,355.85,050924,,,A*4F
$GPGGA,232741.500,4305.2194,N,07740.8855,W,1,08,1.05,171.8,M,-34.4,M,,*5F
lng=-77.681419, lat=43.086971, altitude=171.80, speed=15.82, satellites=8, angle=355.8500, fixquality=1
$GPRMC,232741.750,A,4305.2205,N,07740.8856,W,15.76,354.30,050924,,,A*41
$GPGGA,232742.000,4305.2216,N,07740.8858,W,1,08,1.05,171.7,M,-34.4,M,,*52
lng=-77.681427, lat=43.087013, altitude=171.80, speed=15.76, satellites=8, angle=354.3000, fixquality=1
$GPRMC,232742.250,A,4305.2227,N,07740.8859,W,15.75,353.00,050924,,,A*4F
$GPGGA,232742.500,4305.2238,N,07740.8861,W,1,08,1.05,171.6,M,-34.4,M,,*50
lng=-77.681427, lat=43.087043, altitude=171.70, speed=15.75, satellites=8, angle=353.0000, fixquality=1
$GPRMC,232742.750,A,4305.2249,N,07740.8863,W,15.77,352.07,050924,,,A*4F
$GPGGA,232743.000,4305.2260,N,07740.8865,W,1,08,1.05,171.5,M,-34.4,M,,*5E
lng=-77.681434, lat=43.087085, altitude=171.60, speed=15.77, satellites=8, angle=352.0700, fixquality=1
$GPRMC,232743.250,A,4305.2271,N,07740.8868,W,16.00,351.04,050924,,,A*48
$GPGGA,232743.500,4305.2283,N,07740.8871,W,1,08,1.05,171.4,M,-34.4,M,,*52
lng=-77.681442, lat=43.087116, altitude=171.50, speed=16.00, satellites=8, angle=351.0400, fixquality=1
$GPRMC,232743.750,A,4305.2294,N,07740.8873,W,16.09,350.21,050924,,,A*43
$GPGGA,232744.000,4305.2305,N,07740.8875,W,1,08,1.05,171.3,M,-34.4,M,,*5C
lng=-77.681449, lat=43.087158, altitude=171.40, speed=16.09, satellites=8, angle=350.2100, fixquality=1
$GPRMC,232744.250,A,4305.2317,N,07740.8878,W,16.14,349.54,050924,,,A*46
$GPGGA,232744.500,4305.2327,N,07740.8881,W,1,08,1.05,171.1,M,-34.4,M,,*50
lng=-77.681465, lat=43.087200, altitude=171.30, speed=16.14, satellites=8, angle=349.5400, fixquality=1
$GPRMC,232744.750,A,4305.2338,N,07740.8883,W,16.11,350.37,050924,,,A*42
$GPGGA,232745.000,4305.2348,N,07740.8885,W,1,08,1.05,171.0,M,-34.4,M,,*58
lng=-77.681472, lat=43.087230, altitude=171.10, speed=16.11, satellites=8, angle=350.3700, fixquality=1
$GPRMC,232745.250,A,4305.2357,N,07740.8887,W,15.06,351.89,050924,,,A*4A
$GPGGA,232745.500,4305.2364,N,07740.8888,W,1,08,1.05,171.0,M,-34.4,M,,*5E
lng=-77.681480, lat=43.087265, altitude=171.00, speed=15.06, satellites=8, angle=351.8900, fixquality=1
$GPRMC,232745.750,A,4305.2372,N,07740.8889,W,13.89,353.39,050924,,,A*4E
$GPGGA,232746.000,4305.2379,N,07740.8890,W,1,08,1.05,171.0,M,-34.4,M,,*5D
lng=-77.681480, lat=43.087287, altitude=171.00, speed=13.89, satellites=8, angle=353.3900, fixquality=1
$GPRMC,232746.250,A,4305.2386,N,07740.8890,W,12.72,356.12,050924,,,A*42
$GPGGA,232746.500,4305.2392,N,07740.8890,W,1,08,1.05,171.0,M,-34.4,M,,*5D
lng=-77.681488, lat=43.087314, altitude=171.00, speed=12.72, satellites=8, angle=356.1200, fixquality=1
$GPRMC,232746.750,A,4305.2398,N,07740.8889,W,11.14,359.28,050924,,,A*45
$GPGGA,232747.000,4305.2403,N,07740.8888,W,1,08,1.05,170.7,M,-34.4,M,,*59
lng=-77.681480, lat=43.087329, altitude=171.00, speed=11.14, satellites=8, angle=359.2800, fixquality=1
$GPRMC,232747.250,A,4305.2410,N,07740.8888,W,8.66,6.24,050924,,,A*7F
$GPGGA,232747.500,4305.2416,N,07740.8887,W,1,08,1.05,170.9,M,-34.4,M,,*59
lng=-77.681480, lat=43.087352, altitude=170.70, speed=8.66, satellites=8, angle=6.2400, fixquality=1
$GPRMC,232747.750,A,4305.2422,N,07740.8885,W,8.07,12.89,050924,,,A*43
$GPGGA,232748.000,4305.2429,N,07740.8883,W,1,08,1.05,170.8,M,-34.4,M,,*5A
lng=-77.681480, lat=43.087368, altitude=170.90, speed=8.07, satellites=8, angle=12.8900, fixquality=1
$GPRMC,232748.250,A,4305.2437,N,07740.8881,W,8.65,20.78,050924,,,A*42
$GPGGA,232748.500,4305.2445,N,07740.8877,W,1,08,1.05,170.8,M,-34.4,M,,*5E
lng=-77.681472, lat=43.087394, altitude=170.80, speed=8.65, satellites=8, angle=20.7800, fixquality=1
$GPRMC,232748.750,A,4305.2451,N,07740.8872,W,9.85,26.76,050924,,,A*4C
$GPGGA,232749.000,4305.2457,N,07740.8866,W,1,08,1.05,170.5,M,-34.4,M,,*54
lng=-77.681449, lat=43.087417, altitude=170.80, speed=9.85, satellites=8, angle=26.7600, fixquality=1
$GPRMC,232749.250,A,4305.2462,N,07740.8857,W,11.19,39.93,050924,,,A*76
$GPGGA,232749.500,4305.2468,N,07740.8849,W,1,08,1.05,170.8,M,-34.4,M,,*5D
lng=-77.681427, lat=43.087436, altitude=170.50, speed=11.19, satellites=8, angle=39.9300, fixquality=1
$GPRMC,232749.750,A,4305.2472,N,07740.8840,W,12.09,47.56,050924,,,A*76
$GPGGA,232750.000,4305.2477,N,07740.8829,W,1,08,1.05,170.5,M,-34.4,M,,*55
lng=-77.681396, lat=43.087451, altitude=170.80, speed=12.09, satellites=8, angle=47.5600, fixquality=1
$GPRMC,232750.250,A,4305.2482,N,07740.8818,W,13.52,57.07,050924,,,A*73
$GPGGA,232750.500,4305.2487,N,07740.8806,W,1,08,1.05,170.4,M,-34.4,M,,*53
lng=-77.681365, lat=43.087467, altitude=170.50, speed=13.52, satellites=8, angle=57.0700, fixquality=1
$GPRMC,232750.750,A,4305.2492,N,07740.8793,W,14.99,62.08,050924,,,A*72
$GPGGA,232751.000,4305.2496,N,07740.8779,W,1,08,1.05,170.1,M,-34.4,M,,*55
lng=-77.681320, lat=43.087482, altitude=170.40, speed=14.99, satellites=8, angle=62.0800, fixquality=1
$GPRMC,232751.250,A,4305.2500,N,07740.8765,W,16.32,66.42,050924,,,A*7C
$GPGGA,232751.500,4305.2505,N,07740.8750,W,1,08,1.05,169.8,M,-34.4,M,,*51
lng=-77.681274, lat=43.087501, altitude=170.10, speed=16.32, satellites=8, angle=66.4200, fixquality=1
$GPRMC,232751.750,A,4305.2508,N,07740.8734,W,17.21,69.98,050924,,,A*7E
$GPGGA,232752.000,4305.2512,N,07740.8718,W,1,08,1.05,169.6,M,-34.4,M,,*53
lng=-77.681228, lat=43.087516, altitude=169.80, speed=17.21, satellites=8, angle=69.9800, fixquality=1
$GPRMC,232752.250,A,4305.2516,N,07740.8701,W,18.22,72.34,050924,,,A*71
$GPGGA,232752.500,4305.2520,N,07740.8684,W,1,08,1.05,169.6,M,-34.4,M,,*53
lng=-77.681167, lat=43.087524, altitude=169.60, speed=18.22, satellites=8, angle=72.3400, fixquality=1
$GPRMC,232752.750,A,4305.2523,N,07740.8666,W,18.93,74.01,050924,,,A*78
$GPGGA,232753.000,4305.2527,N,07740.8648,W,1,08,1.05,169.6,M,-34.4,M,,*50
lng=-77.681114, lat=43.087539, altitude=169.60, speed=18.93, satellites=8, angle=74.0100, fixquality=1
$GPRMC,232753.250,A,4305.2530,N,07740.8630,W,19.79,74.99,050924,,,A*79
$GPGGA,232753.500,4305.2534,N,07740.8611,W,1,08,1.05,169.5,M,-34.4,M,,*58
lng=-77.681045, lat=43.087547, altitude=169.60, speed=19.79, satellites=8, angle=74.9900, fixquality=1
$GPRMC,232753.750,A,4305.2537,N,07740.8593,W,20.25,75.09,050924,,,A*7A
$GPGGA,232754.000,4305.2540,N,07740.8574,W,1,08,1.05,169.2,M,-34.4,M,,*5E
lng=-77.680992, lat=43.087566, altitude=169.50, speed=20.25, satellites=8, angle=75.0900, fixquality=1
$GPRMC,232754.250,A,4305.2544,N,07740.8554,W,20.73,75.19,050924,,,A*75
$GPGGA,232754.500,4305.2547,N,07740.8535,W,1,08,1.05,169.1,M,-34.4,M,,*5A
lng=-77.680923, lat=43.087574, altitude=169.20, speed=20.73, satellites=8, angle=75.1900, fixquality=1
$GPRMC,232754.750,A,4305.2550,N,07740.8515,W,21.25,75.70,050924,,,A*7D
$GPGGA,232755.000,4305.2553,N,07740.8495,W,1,08,1.05,169.0,M,-34.4,M,,*51
lng=-77.680862, lat=43.087581, altitude=169.10, speed=21.25, satellites=8, angle=75.7000, fixquality=1
$GPRMC,232755.250,A,4305.2556,N,07740.8474,W,21.94,76.23,050924,,,A*76
$GPGGA,232755.500,4305.2559,N,07740.8454,W,1,08,1.05,169.0,M,-34.4,M,,*53
lng=-77.680786, lat=43.087589, altitude=169.00, speed=21.94, satellites=8, angle=76.2300, fixquality=1
$GPRMC,232755.750,A,4305.2562,N,07740.8433,W,22.30,76.20,050924,,,A*79
$GPGGA,232756.000,4305.2565,N,07740.8411,W,1,08,1.05,169.0,M,-34.4,M,,*5B
lng=-77.680717, lat=43.087604, altitude=169.00, speed=22.30, satellites=8, angle=76.2000, fixquality=1
$GPRMC,232756.250,A,4305.2568,N,07740.8390,W,22.85,76.47,050924,,,A*74
$GPGGA,232756.500,4305.2570,N,07740.8367,W,1,08,1.05,169.1,M,-34.4,M,,*5D
lng=-77.680648, lat=43.087612, altitude=169.00, speed=22.85, satellites=8, angle=76.4700, fixquality=1
$GPRMC,232756.750,A,4305.2572,N,07740.8344,W,23.12,78.41,050924,,,A*74
$GPGGA,232757.000,4305.2573,N,07740.8320,W,1,08,1.05,169.3,M,-34.4,M,,*5B
lng=-77.680572, lat=43.087623, altitude=169.10, speed=23.12, satellites=8, angle=78.4100, fixquality=1
$GPRMC,232757.250,A,4305.2574,N,07740.8296,W,23.59,80.46,050924,,,A*77
$GPGGA,232757.500,4305.2575,N,07740.8272,W,1,08,1.05,169.5,M,-34.4,M,,*58
lng=-77.680496, lat=43.087623, altitude=169.30, speed=23.59, satellites=8, angle=80.4600, fixquality=1
$GPRMC,232757.750,A,4305.2577,N,07740.8249,W,23.68,81.67,050924,,,A*73
$GPGGA,232758.000,4305.2578,N,07740.8225,W,1,08,1.05,169.6,M,-34.4,M,,*5E
lng=-77.680412, lat=43.087631, altitude=169.50, speed=23.68, satellites=8, angle=81.6700, fixquality=1
$GPRMC,232758.250,A,4305.2579,N,07740.8202,W,23.61,83.06,050924,,,A*74
$GPGGA,232758.500,4305.2580,N,07740.8179,W,1,08,1.05,169.7,M,-34.4,M,,*57
lng=-77.680335, lat=43.087631, altitude=169.60, speed=23.61, satellites=8, angle=83.0600, fixquality=1
$GPRMC,232758.750,A,4305.2580,N,07740.8156,W,23.18,84.03,050924,,,A*79
$GPGGA,232759.000,4305.2581,N,07740.8134,W,1,08,1.05,169.8,M,-34.4,M,,*54
lng=-77.680259, lat=43.087631, altitude=169.70, speed=23.18, satellites=8, angle=84.0300, fixquality=1
$GPRMC,232759.250,A,4305.2582,N,07740.8112,W,22.45,85.20,050924,,,A*76
$GPGGA,232759.500,4305.2582,N,07740.8090,W,1,08,1.05,169.8,M,-34.4,M,,*5D
lng=-77.680183, lat=43.087638, altitude=169.80, speed=22.45, satellites=8, angle=85.2000, fixquality=1
$GPRMC,232759.750,A,4305.2583,N,07740.8069,W,21.81,85.81,050924,,,A*7F
$GPGGA,232800.000,4305.2584,N,07740.8049,W,1,08,1.05,169.7,M,-34.4,M,,*56
lng=-77.680122, lat=43.087638, altitude=169.80, speed=21.81, satellites=8, angle=85.8100, fixquality=1
$GPRMC,232800.250,A,4305.2584,N,07740.8028,W,21.51,86.74,050924,,,A*7F
$GPGGA,232800.500,4305.2585,N,07740.8008,W,1,08,1.05,169.6,M,-34.4,M,,*56
lng=-77.680046, lat=43.087638, altitude=169.70, speed=21.51, satellites=8, angle=86.7400, fixquality=1
$GPRMC,232800.750,A,4305.2585,N,07740.7988,W,21.28,87.26,050924,,,A*7F
$GPGGA,232801.000,4305.2585,N,07740.7968,W,1,08,1.05,169.5,M,-34.4,M,,*51
lng=-77.679977, lat=43.087638, altitude=169.60, speed=21.28, satellites=8, angle=87.2600, fixquality=1
$GPRMC,232801.250,A,4305.2585,N,07740.7948,W,21.17,88.09,050924,,,A*79
$GPGGA,232801.500,4305.2585,N,07740.7928,W,1,08,1.05,169.3,M,-34.4,M,,*56
lng=-77.679916, lat=43.087638, altitude=169.50, speed=21.17, satellites=8, angle=88.0900, fixquality=1
$GPRMC,232801.750,A,4305.2585,N,07740.7908,W,20.87,89.28,050924,,,A*72
$GPGGA,232802.000,4305.2584,N,07740.7888,W,1,07,1.17,169.3,M,-34.4,M,,*56
lng=-77.679847, lat=43.087638, altitude=169.30, speed=20.87, satellites=8, angle=89.2800, fixquality=1
$GPRMC,232802.250,A,4305.2583,N,07740.7868,W,20.92,91.25,050924,,,A*75
$GPGGA,232802.500,4305.2583,N,07740.7849,W,1,07,1.18,169.3,M,-34.4,M,,*56
lng=-77.679779, lat=43.087638, altitude=169.30, speed=20.92, satellites=7, angle=91.2500, fixquality=1
$GPRMC,232802.750,A,4305.2583,N,07740.7830,W,20.16,91.27,050924,,,A*73
$GPGGA,232803.000,4305.2583,N,07740.7812,W,1,07,1.18,169.3,M,-34.4,M,,*5C
lng=-77.679718, lat=43.087638, altitude=169.30, speed=20.16, satellites=7, angle=91.2700, fixquality=1
$GPRMC,232803.250,A,4305.2583,N,07740.7795,W,19.04,91.53,050924,,,A*7D
$GPGGA,232803.500,4305.2583,N,07740.7779,W,1,07,1.18,169.4,M,-34.4,M,,*5C
lng=-77.679656, lat=43.087638, altitude=169.30, speed=19.04, satellites=7, angle=91.5300, fixquality=1
$GPRMC,232803.750,A,4305.2583,N,07740.7762,W,17.83,91.21,050924,,,A*74
$GPGGA,232804.000,4305.2583,N,07740.7747,W,1,07,1.18,169.3,M,-34.4,M,,*54
lng=-77.679603, lat=43.087638, altitude=169.40, speed=17.83, satellites=7, angle=91.2100, fixquality=1
$GPRMC,232804.250,A,4305.2583,N,07740.7733,W,16.13,91.39,050924,,,A*73
$GPGGA,232804.500,4305.2583,N,07740.7721,W,1,07,1.18,169.3,M,-34.4,M,,*51
lng=-77.679557, lat=43.087638, altitude=169.30, speed=16.13, satellites=7, angle=91.3900, fixquality=1
$GPRMC,232804.750,A,4305.2582,N,07740.7710,W,14.40,91.42,050924,,,A*7E
$GPGGA,232805.000,4305.2582,N,07740.7699,W,1,07,1.18,169.3,M,-34.4,M,,*56
lng=-77.679519, lat=43.087638, altitude=169.30, speed=14.40, satellites=7, angle=91.4200, fixquality=1
$GPRMC,232805.250,A,4305.2582,N,07740.7689,W,12.54,91.05,050924,,,A*7B
$GPGGA,232805.500,4305.2581,N,07740.7680,W,1,07,1.18,169.3,M,-34.4,M,,*58
lng=-77.679481, lat=43.087638, altitude=169.30, speed=12.54, satellites=7, angle=91.0500, fixquality=1
$GPRMC,232805.750,A,4305.2580,N,07740.7672,W,10.43,91.52,050924,,,A*7E
$GPGGA,232806.000,4305.2580,N,07740.7665,W,1,07,1.18,169.3,M,-34.4,M,,*54
lng=-77.679450, lat=43.087631, altitude=169.30, speed=10.43, satellites=7, angle=91.5200, fixquality=1
$GPRMC,232806.250,A,4305.2579,N,07740.7659,W,8.69,93.77,050924,,,A*43
$GPGGA,232806.500,4305.2579,N,07740.7653,W,1,07,1.18,169.2,M,-34.4,M,,*53
lng=-77.679435, lat=43.087631, altitude=169.30, speed=8.69, satellites=7, angle=93.7700, fixquality=1
$GPRMC,232806.750,A,4305.2578,N,07740.7647,W,7.47,96.30,050924,,,A*4D
$GPGGA,232807.000,4305.2577,N,07740.7641,W,1,08,1.05,169.0,M,-34.4,M,,*5B
lng=-77.679412, lat=43.087631, altitude=169.20, speed=7.47, satellites=7, angle=96.3000, fixquality=1
$GPRMC,232807.250,A,4305.2577,N,07740.7636,W,6.26,96.14,050924,,,A*40
$GPGGA,232807.500,4305.2576,N,07740.7631,W,1,07,1.18,168.8,M,-34.4,M,,*52
lng=-77.679397, lat=43.087631, altitude=169.00, speed=6.26, satellites=8, angle=96.1400, fixquality=1
$GPRMC,232807.750,A,4305.2576,N,07740.7626,W,5.66,95.19,050924,,,A*4C
$GPGGA,232808.000,4305.2575,N,07740.7621,W,1,07,1.18,168.6,M,-34.4,M,,*54
lng=-77.679374, lat=43.087631, altitude=168.80, speed=5.66, satellites=7, angle=95.1900, fixquality=1
$GPRMC,232808.250,A,4305.2574,N,07740.7616,W,5.59,96.98,050924,,,A*41
$GPGGA,232808.500,4305.2574,N,07740.7611,W,1,07,1.18,168.4,M,-34.4,M,,*51
lng=-77.679359, lat=43.087623, altitude=168.60, speed=5.59, satellites=7, angle=96.9800, fixquality=1
$GPRMC,232808.750,A,4305.2573,N,07740.7605,W,5.64,96.42,050924,,,A*48
$GPGGA,232809.000,4305.2573,N,07740.7599,W,1,07,1.18,168.2,M,-34.4,M,,*57
lng=-77.679344, lat=43.087623, altitude=168.40, speed=5.64, satellites=7, angle=96.4200, fixquality=1
$GPRMC,232809.250,A,4305.2573,N,07740.7593,W,6.40,93.27,050924,,,A*43
$GPGGA,232809.500,4305.2573,N,07740.7586,W,1,07,1.18,168.1,M,-34.4,M,,*5F
lng=-77.679321, lat=43.087623, altitude=168.20, speed=6.40, satellites=7, angle=93.2700, fixquality=1
$GPRMC,232809.750,A,4305.2572,N,07740.7579,W,7.44,92.32,050924,,,A*43
$GPGGA,232810.000,4305.2572,N,07740.7571,W,1,07,1.18,167.9,M,-34.4,M,,*5C
lng=-77.679298, lat=43.087623, altitude=168.10, speed=7.44, satellites=7, angle=92.3200, fixquality=1
$GPRMC,232810.250,A,4305.2572,N,07740.7562,W,8.65,90.72,050924,,,A*4E
$GPGGA,232810.500,4305.2572,N,07740.7553,W,1,07,1.18,167.8,M,-34.4,M,,*58
lng=-77.679275, lat=43.087623, altitude=167.90, speed=8.65, satellites=7, angle=90.7200, fixquality=1
$GPRMC,232810.750,A,4305.2572,N,07740.7544,W,9.77,88.69,050924,,,A*4E
$GPGGA,232811.000,4305.2573,N,07740.7534,W,1,07,1.18,167.7,M,-34.4,M,,*53
lng=-77.679237, lat=43.087623, altitude=167.80, speed=9.77, satellites=7, angle=88.6900, fixquality=1
$GPRMC,232811.250,A,4305.2573,N,07740.7524,W,11.03,87.99,050924,,,A*77
$GPGGA,232811.500,4305.2574,N,07740.7513,W,1,07,1.18,167.5,M,-34.4,M,,*56
lng=-77.679206, lat=43.087623, altitude=167.70, speed=11.03, satellites=7, angle=87.9900, fixquality=1
$GPRMC,232811.750,A,4305.2574,N,07740.7501,W,11.89,87.57,050924,,,A*72
$GPGGA,232812.000,4305.2575,N,07740.7489,W,1,07,1.18,167.4,M,-34.4,M,,*52
lng=-77.679168, lat=43.087623, altitude=167.50, speed=11.89, satellites=7, angle=87.5700, fixquality=1
$GPRMC,232812.250,A,4305.2576,N,07740.7475,W,12.87,86.87,050924,,,A*75
$GPGGA,232812.500,4305.2576,N,07740.7462,W,1,07,1.18,167.2,M,-34.4,M,,*57
lng=-77.679122, lat=43.087631, altitude=167.40, speed=12.87, satellites=7, angle=86.8700, fixquality=1
$GPRMC,232812.750,A,4305.2578,N,07740.7448,W,13.51,85.95,050924,,,A*7A
$GPGGA,232813.000,4305.2579,N,07740.7433,W,1,07,1.18,167.1,M,-34.4,M,,*5B
lng=-77.679077, lat=43.087631, altitude=167.20, speed=13.51, satellites=7, angle=85.9500, fixquality=1
$GPRMC,232813.250,A,4305.2579,N,07740.7419,W,14.42,85.68,050924,,,A*7C
$GPGGA,232813.500,4305.2580,N,07740.7404,W,1,07,1.18,167.0,M,-34.4,M,,*5D
lng=-77.679031, lat=43.087631, altitude=167.10, speed=14.42, satellites=7, angle=85.6800, fixquality=1
$GPRMC,232813.750,A,4305.2582,N,07740.7390,W,15.11,85.97,050924,,,A*7C
$GPGGA,232814.000,4305.2582,N,07740.7375,W,1,07,1.18,166.8,M,-34.4,M,,*55
lng=-77.678977, lat=43.087638, altitude=167.00, speed=15.11, satellites=7, angle=85.9700, fixquality=1
$GPRMC,232814.250,A,4305.2583,N,07740.7360,W,15.97,86.68,050924,,,A*7D
$GPGGA,232814.500,4305.2584,N,07740.7345,W,1,07,1.18,166.7,M,-34.4,M,,*5A
lng=-77.678932, lat=43.087638, altitude=166.80, speed=15.97, satellites=7, angle=86.6800, fixquality=1
$GPRMC,232814.750,A,4305.2586,N,07740.7330,W,16.63,86.79,050924,,,A*70
$GPGGA,232815.000,4305.2587,N,07740.7314,W,1,07,1.18,166.6,M,-34.4,M,,*58
lng=-77.678878, lat=43.087646, altitude=166.70, speed=16.63, satellites=7, angle=86.7900, fixquality=1
$GPRMC,232815.250,A,4305.2588,N,07740.7297,W,17.20,86.26,050924,,,A*7A
$GPGGA,232815.500,4305.2589,N,07740.7281,W,1,07,1.18,166.6,M,-34.4,M,,*5E
lng=-77.678825, lat=43.087646, altitude=166.60, speed=17.20, satellites=7, angle=86.2600, fixquality=1
$GPRMC,232815.750,A,4305.2589,N,07740.7264,W,17.82,86.26,050924,,,A*7A
$GPGGA,232816.000,4305.2590,N,07740.7245,W,1,07,1.18,166.6,M,-34.4,M,,*58
lng=-77.678779, lat=43.087646, altitude=166.60, speed=17.82, satellites=7, angle=86.2600, fixquality=1
$GPRMC,232816.250,A,4305.2590,N,07740.7227,W,18.69,87.32,050924,,,A*7D
$GPGGA,232816.500,4305.2591,N,07740.7208,W,1,07,1.18,166.6,M,-34.4,M,,*55
lng=-77.678710, lat=43.087646, altitude=166.60, speed=18.69, satellites=7, angle=87.3200, fixquality=1
$GPRMC,232816.750,A,4305.2591,N,07740.7190,W,18.91,87.50,050924,,,A*75
$GPGGA,232817.000,4305.2592,N,07740.7173,W,1,07,1.18,166.6,M,-34.4,M,,*5D
lng=-77.678657, lat=43.087654, altitude=166.60, speed=18.91, satellites=7, angle=87.5000, fixquality=1
$GPRMC,232817.250,A,4305.2593,N,07740.7155,W,19.19,87.84,050924,,,A*72
$GPGGA,232817.500,4305.2593,N,07740.7137,W,1,07,1.18,166.5,M,-34.4,M,,*5A
lng=-77.678588, lat=43.087654, altitude=166.60, speed=19.19, satellites=7, angle=87.8400, fixquality=1
$GPRMC,232817.750,A,4305.2593,N,07740.7118,W,19.56,88.51,050924,,,A*72
$GPGGA,232818.000,4305.2593,N,07740.7100,W,1,07,1.18,166.5,M,-34.4,M,,*54
lng=-77.678535, lat=43.087654, altitude=166.50, speed=19.56, satellites=7, angle=88.5100, fixquality=1
$GPRMC,232818.250,A,4305.2593,N,07740.7081,W,20.25,88.70,050924,,,A*74
$GPGGA,232818.500,4305.2594,N,07740.7061,W,1,07,1.18,166.4,M,-34.4,M,,*51
lng=-77.678466, lat=43.087654, altitude=166.50, speed=20.25, satellites=7, angle=88.7000, fixquality=1
$GPRMC,232818.750,A,4305.2594,N,07740.7041,W,20.86,88.16,050924,,,A*73
$GPGGA,232819.000,4305.2594,N,07740.7021,W,1,07,1.18,166.3,M,-34.4,M,,*56
lng=-77.678398, lat=43.087654, altitude=166.40, speed=20.86, satellites=7, angle=88.1600, fixquality=1
$GPRMC,232819.250,A,4305.2594,N,07740.7001,W,21.60,87.98,050924,,,A*73
$GPGGA,232819.500,4305.2594,N,07740.6980,W,1,07,1.18,166.3,M,-34.4,M,,*50
lng=-77.678337, lat=43.087654, altitude=166.30, speed=21.60, satellites=7, angle=87.9800, fixquality=1
$GPRMC,232819.750,A,4305.2595,N,07740.6959,W,22.04,88.01,050924,,,A*7C
$GPGGA,232820.000,4305.2596,N,07740.6938,W,1,07,1.18,166.2,M,-34.4,M,,*5F
lng=-77.678260, lat=43.087654, altitude=166.30, speed=22.04, satellites=7, angle=88.0100, fixquality=1
$GPRMC,232820.250,A,4305.2596,N,07740.6916,W,22.54,87.71,050924,,,A*76
$GPGGA,232820.500,4305.2596,N,07740.6894,W,1,07,1.18,166.3,M,-34.4,M,,*5C
lng=-77.678192, lat=43.087661, altitude=166.20, speed=22.54, satellites=7, angle=87.7100, fixquality=1
$GPRMC,232820.750,A,4305.2596,N,07740.6873,W,22.88,87.55,050924,,,A*76
$GPGGA,232821.000,4305.2596,N,07740.6851,W,1,07,1.18,166.2,M,-34.4,M,,*50
lng=-77.678123, lat=43.087661, altitude=166.30, speed=22.88, satellites=7, angle=87.5500, fixquality=1
$GPRMC,232821.250,A,4305.2597,N,07740.6829,W,23.15,87.25,050924,,,A*7E
$GPGGA,232821.500,4305.2598,N,07740.6807,W,1,07,1.18,166.2,M,-34.4,M,,*58
lng=-77.678054, lat=43.087661, altitude=166.20, speed=23.15, satellites=7, angle=87.2500, fixquality=1
$GPRMC,232821.750,A,4305.2599,N,07740.6785,W,23.22,87.07,050924,,,A*78
$GPGGA,232822.000,4305.2599,N,07740.6763,W,1,07,1.18,165.9,M,-34.4,M,,*5A
lng=-77.677978, lat=43.087661, altitude=166.20, speed=23.22, satellites=7, angle=87.0700, fixquality=1
$GPRMC,232822.250,A,4305.2600,N,07740.6742,W,23.17,87.42,050924,,,A*71
$GPGGA,232822.500,4305.2601,N,07740.6720,W,1,07,1.18,165.7,M,-34.4,M,,*54
lng=-77.677902, lat=43.087661, altitude=165.90, speed=23.17, satellites=7, angle=87.4200, fixquality=1
$GPRMC,232822.750,A,4305.2601,N,07740.6699,W,23.00,87.92,050924,,,A*79
$GPGGA,232823.000,4305.2601,N,07740.6677,W,1,07,1.18,165.5,M,-34.4,M,,*51
lng=-77.677833, lat=43.087669, altitude=165.70, speed=23.00, satellites=7, angle=87.9200, fixquality=1
$GPRMC,232823.250,A,4305.2602,N,07740.6655,W,23.21,88.11,050924,,,A*79
$GPGGA,232823.500,4305.2602,N,07740.6633,W,1,07,1.18,165.5,M,-34.4,M,,*57
lng=-77.677757, lat=43.087669, altitude=165.50, speed=23.21, satellites=7, angle=88.1100, fixquality=1
$GPRMC,232823.750,A,4305.2602,N,07740.6611,W,23.25,88.51,050924,,,A*7C
$GPGGA,232824.000,4305.2603,N,07740.6589,W,1,07,1.18,165.4,M,-34.4,M,,*57
lng=-77.677688, lat=43.087669, altitude=165.50, speed=23.25, satellites=7, angle=88.5100, fixquality=1
$GPRMC,232824.250,A,4305.2603,N,07740.6567,W,23.18,88.59,050924,,,A*7B
$GPGGA,232824.500,4305.2604,N,07740.6545,W,1,07,1.18,165.2,M,-34.4,M,,*53
lng=-77.677612, lat=43.087669, altitude=165.40, speed=23.18, satellites=7, angle=88.5900, fixquality=1
$GPRMC,232824.750,A,4305.2604,N,07740.6523,W,22.96,88.58,050924,,,A*7F
$GPGGA,232825.000,4305.2605,N,07740.6502,W,1,07,1.18,165.0,M,-34.4,M,,*57
lng=-77.677536, lat=43.087669, altitude=165.20, speed=22.96, satellites=7, angle=88.5800, fixquality=1
$GPRMC,232825.250,A,4305.2606,N,07740.6481,W,22.67,88.50,050924,,,A*76
$GPGGA,232825.500,4305.2606,N,07740.6460,W,1,07,1.18,164.9,M,-34.4,M,,*5C
lng=-77.677467, lat=43.087680, altitude=165.00, speed=22.67, satellites=7, angle=88.5000, fixquality=1
$GPRMC,232825.750,A,4305.2606,N,07740.6439,W,22.41,88.75,050924,,,A*73
$GPGGA,232826.000,4305.2607,N,07740.6418,W,1,07,1.18,164.7,M,-34.4,M,,*5A
lng=-77.677398, lat=43.087680, altitude=164.90, speed=22.41, satellites=7, angle=88.7500, fixquality=1
$GPRMC,232826.250,A,4305.2608,N,07740.6398,W,21.99,88.60,050924,,,A*75
$GPGGA,232826.500,4305.2608,N,07740.6377,W,1,07,1.18,164.6,M,-34.4,M,,*5F
lng=-77.677330, lat=43.087680, altitude=164.70, speed=21.99, satellites=7, angle=88.6000, fixquality=1
$GPRMC,232826.750,A,4305.2608,N,07740.6357,W,21.48,89.11,050924,,,A*78
$GPGGA,232827.000,4305.2609,N,07740.6337,W,1,07,1.18,164.6,M,-34.4,M,,*5E
lng=-77.677261, lat=43.087680, altitude=164.60, speed=21.48, satellites=7, angle=89.1100, fixquality=1
$GPRMC,232827.250,A,4305.2609,N,07740.6318,W,20.28,89.98,050924,,,A*70
$GPGGA,232827.500,4305.2609,N,07740.6300,W,1,07,1.18,164.7,M,-34.4,M,,*5E
lng=-77.677200, lat=43.087680, altitude=164.60, speed=20.28, satellites=7, angle=89.9800, fixquality=1
$GPRMC,232827.750,A,4305.2609,N,07740.6282,W,18.85,89.94,050924,,,A*77
$GPGGA,232828.000,4305.2610,N,07740.6267,W,1,07,1.18,164.7,M,-34.4,M,,*5C
lng=-77.677139, lat=43.087680, altitude=164.70, speed=18.85, satellites=7, angle=89.9400, fixquality=1
$GPRMC,232828.250,A,4305.2610,N,07740.6252,W,16.43,89.46,050924,,,A*73
$GPGGA,232828.500,4305.2611,N,07740.6239,W,1,07,1.18,164.7,M,-34.4,M,,*53
lng=-77.677085, lat=43.087688, altitude=164.70, speed=16.43, satellites=7, angle=89.4600, fixquality=1
$GPRMC,232828.750,A,4305.2611,N,07740.6224,W,14.59,90.50,050924,,,A*70
$GPGGA,232829.000,4305.2610,N,07740.6211,W,1,07,1.18,164.5,M,-34.4,M,,*5E
lng=-77.677040, lat=43.087688, altitude=164.70, speed=14.59, satellites=7, angle=90.5000, fixquality=1
$GPRMC,232829.250,A,4305.2610,N,07740.6200,W,12.14,91.45,050924,,,A*79
$GPGGA,232829.500,4305.2610,N,07740.6190,W,1,07,1.18,164.4,M,-34.4,M,,*50
lng=-77.677001, lat=43.087688, altitude=164.50, speed=12.14, satellites=7, angle=91.4500, fixquality=1
$GPRMC,232829.750,A,4305.2610,N,07740.6183,W,9.64,92.14,050924,,,A*4E
$GPGGA,232830.000,4305.2609,N,07740.6176,W,1,07,1.18,164.3,M,-34.4,M,,*5A
lng=-77.676971, lat=43.087688, altitude=164.40, speed=9.64, satellites=7, angle=92.1400, fixquality=1
$GPRMC,232830.250,A,4305.2608,N,07740.6170,W,7.19,93.97,050924,,,A*48
$GPGGA,232830.500,4305.2607,N,07740.6165,W,1,07,1.18,164.2,M,-34.4,M,,*52
lng=-77.676956, lat=43.087680, altitude=164.30, speed=7.19, satellites=7, angle=93.9700, fixquality=1
$GPRMC,232830.750,A,4305.2606,N,07740.6161,W,5.65,95.47,050924,,,A*41
$GPGGA,232831.000,4305.2605,N,07740.6158,W,1,07,1.18,164.1,M,-34.4,M,,*59
lng=-77.676933, lat=43.087680, altitude=164.20, speed=5.65, satellites=7, angle=95.4700, fixquality=1
$GPRMC,232831.250,A,4305.2605,N,07740.6155,W,3.54,100.35,050924,,,A*7D
$GPGGA,232831.500,4305.2604,N,07740.6153,W,1,07,1.13,164.0,M,-34.4,M,,*5C
lng=-77.676925, lat=43.087680, altitude=164.10, speed=3.54, satellites=7, angle=100.3500, fixquality=1
$GPRMC,232831.750,A,4305.2603,N,07740.6151,W,2.80,103.88,050924,,,A*77
$GPGGA,232832.000,4305.2602,N,07740.6149,W,1,07,1.13,164.0,M,-34.4,M,,*57
lng=-77.676918, lat=43.087669, altitude=164.00, speed=2.80, satellites=7, angle=103.8800, fixquality=1
$GPRMC,232832.250,A,4305.2601,N,07740.6146,W,3.19,105.04,050924,,,A*76
$GPGGA,232832.500,4305.2601,N,07740.6143,W,1,07,1.13,163.8,M,-34.4,M,,*54
lng=-77.676910, lat=43.087669, altitude=164.00, speed=3.19, satellites=7, angle=105.0400, fixquality=1
$GPRMC,232832.750,A,4305.2601,N,07740.6140,W,4.13,98.40,050924,,,A*4D
$GPGGA,232833.000,4305.2601,N,07740.6135,W,1,07,1.18,163.6,M,-34.4,M,,*54
lng=-77.676895, lat=43.087669, altitude=163.80, speed=4.13, satellites=7, angle=98.4000, fixquality=1
$GPRMC,232833.250,A,4305.2601,N,07740.6130,W,6.10,91.50,050924,,,A*47
$GPGGA,232833.500,4305.2601,N,07740.6124,W,1,07,1.18,163.3,M,-34.4,M,,*54
lng=-77.676879, lat=43.087669, altitude=163.60, speed=6.10, satellites=7, angle=91.5000, fixquality=1
$GPRMC,232833.750,A,4305.2602,N,07740.6117,W,7.76,88.15,050924,,,A*4C
$GPGGA,232834.000,4305.2603,N,07740.6109,W,1,07,1.18,163.0,M,-34.4,M,,*58
lng=-77.676864, lat=43.087669, altitude=163.30, speed=7.76, satellites=7, angle=88.1500, fixquality=1
$GPRMC,232834.250,A,4305.2603,N,07740.6100,W,9.49,86.93,050924,,,A*4B
$GPGGA,232834.500,4305.2604,N,07740.6091,W,1,07,1.18,162.7,M,-34.4,M,,*5C
lng=-77.676834, lat=43.087669, altitude=163.00, speed=9.49, satellites=7, angle=86.9300, fixquality=1
$GPRMC,232834.750,A,4305.2605,N,07740.6080,W,10.91,85.90,050924,,,A*7C
$GPGGA,232835.000,4305.2606,N,07740.6069,W,1,07,1.18,162.6,M,-34.4,M,,*5C
lng=-77.676795, lat=43.087680, altitude=162.70, speed=10.91, satellites=7, angle=85.9000, fixquality=1
$GPRMC,232835.250,A,4305.2608,N,07740.6058,W,12.27,84.46,050924,,,A*75
$GPGGA,232835.500,4305.2610,N,07740.6047,W,1,07,1.18,162.6,M,-34.4,M,,*52
lng=-77.676765, lat=43.087680, altitude=162.60, speed=12.27, satellites=7, angle=84.4600, fixquality=1
$GPRMC,232835.750,A,4305.2611,N,07740.6034,W,13.14,83.47,050924,,,A*75
$GPGGA,232836.000,4305.2612,N,07740.6021,W,1,07,1.18,162.6,M,-34.4,M,,*56
lng=-77.676727, lat=43.087688, altitude=162.60, speed=13.14, satellites=7, angle=83.4700, fixquality=1
$GPRMC,232836.250,A,4305.2613,N,07740.6007,W,14.28,84.41,050924,,,A*78
$GPGGA,232836.500,4305.2616,N,07740.5993,W,1,07,1.18,162.6,M,-34.4,M,,*54
lng=-77.676673, lat=43.087688, altitude=162.60, speed=14.28, satellites=7, angle=84.4100, fixquality=1
$GPRMC,232836.750,A,4305.2618,N,07740.5978,W,14.99,84.56,050924,,,A*78
$GPGGA,232837.000,4305.2620,N,07740.5963,W,1,07,1.18,162.5,M,-34.4,M,,*59
lng=-77.676628, lat=43.087696, altitude=162.60, speed=14.99, satellites=7, angle=84.5600, fixquality=1
$GPRMC,232837.250,A,4305.2623,N,07740.5948,W,15.94,84.46,050924,,,A*7A
$GPGGA,232837.500,4305.2625,N,07740.5932,W,1,07,1.18,162.5,M,-34.4,M,,*5D
lng=-77.676582, lat=43.087703, altitude=162.50, speed=15.94, satellites=7, angle=84.4600, fixquality=1
$GPRMC,232837.750,A,4305.2627,N,07740.5915,W,16.64,84.85,050924,,,A*70
$GPGGA,232838.000,4305.2628,N,07740.5898,W,1,07,1.18,162.4,M,-34.4,M,,*5A
lng=-77.676521, lat=43.087711, altitude=162.50, speed=16.64, satellites=7, angle=84.8500, fixquality=1
$GPRMC,232838.250,A,4305.2630,N,07740.5881,W,17.33,84.91,050924,,,A*76
$GPGGA,232838.500,4305.2631,N,07740.5863,W,1,07,1.18,162.3,M,-34.4,M,,*54
lng=-77.676467, lat=43.087718, altitude=162.40, speed=17.33, satellites=7, angle=84.9100, fixquality=1
$GPRMC,232838.750,A,4305.2632,N,07740.5845,W,17.91,85.30,050924,,,A*7B
$GPGGA,232839.000,4305.2632,N,07740.5827,W,1,07,1.18,162.2,M,-34.4,M,,*52
lng=-77.676406, lat=43.087718, altitude=162.30, speed=17.91, satellites=7, angle=85.3000, fixquality=1
$GPRMC,232839.250,A,4305.2632,N,07740.5809,W,18.52,86.03,050924,,,A*74
$GPGGA,232839.500,4305.2632,N,07740.5790,W,1,07,1.18,162.2,M,-34.4,M,,*54
lng=-77.676353, lat=43.087718, altitude=162.20, speed=18.52, satellites=7, angle=86.0300, fixquality=1
$GPRMC,232839.750,A,4305.2632,N,07740.5772,W,19.10,87.12,050924,,,A*74
$GPGGA,232840.000,4305.2634,N,07740.5754,W,1,07,1.18,162.2,M,-34.4,M,,*51
lng=-77.676284, lat=43.087718, altitude=162.20, speed=19.10, satellites=7, angle=87.1200, fixquality=1
$GPRMC,232840.250,A,4305.2634,N,07740.5736,W,19.65,87.21,050924,,,A*7B
$GPGGA,232840.500,4305.2636,N,07740.5719,W,1,08,1.05,162.2,M,-34.4,M,,*5C
lng=-77.676231, lat=43.087718, altitude=162.20, speed=19.65, satellites=7, angle=87.2100, fixquality=1
$GPRMC,232840.750,A,4305.2636,N,07740.5700,W,19.77,87.23,050924,,,A*78
$GPGGA,232841.000,4305.2637,N,07740.5682,W,1,07,1.18,162.1,M,-34.4,M,,*5A
lng=-77.676162, lat=43.087726, altitude=162.20, speed=19.77, satellites=8, angle=87.2300, fixquality=1
$GPRMC,232841.250,A,4305.2638,N,07740.5663,W,19.80,87.21,050924,,,A*7C
$GPGGA,232841.500,4305.2638,N,07740.5645,W,1,07,1.18,162.0,M,-34.4,M,,*5A
lng=-77.676109, lat=43.087726, altitude=162.10, speed=19.80, satellites=7, angle=87.2100, fixquality=1
$GPRMC,232841.750,A,4305.2639,N,07740.5626,W,19.57,87.36,050924,,,A*75
$GPGGA,232842.000,4305.2640,N,07740.5608,W,1,07,1.18,161.8,M,-34.4,M,,*51
lng=-77.676040, lat=43.087726, altitude=162.00, speed=19.57, satellites=7, angle=87.3600, fixquality=1
$GPRMC,232842.250,A,4305.2640,N,07740.5590,W,19.12,87.81,050924,,,A*7E
$GPGGA,232842.500,4305.2641,N,07740.5572,W,1,07,1.18,161.6,M,-34.4,M,,*55
lng=-77.675987, lat=43.087734, altitude=161.80, speed=19.12, satellites=7, angle=87.8100, fixquality=1
$GPRMC,232842.750,A,4305.2641,N,07740.5554,W,18.91,87.93,050924,,,A*7B
$GPGGA,232843.000,4305.2642,N,07740.5537,W,1,07,1.18,161.3,M,-34.4,M,,*56
lng=-77.675918, lat=43.087734, altitude=161.60, speed=18.91, satellites=7, angle=87.9300, fixquality=1
$GPRMC,232843.250,A,4305.2643,N,07740.5519,W,18.64,87.75,050924,,,A*76
$GPGGA,232843.500,4305.2643,N,07740.5501,W,1,08,1.05,161.2,M,-34.4,M,,*55
lng=-77.675865, lat=43.087734, altitude=161.30, speed=18.64, satellites=7, angle=87.7500, fixquality=1
$GPRMC,232843.750,A,4305.2643,N,07740.5483,W,18.24,88.27,050924,,,A*7D
$GPGGA,232844.000,4305.2643,N,07740.5465,W,1,08,1.05,161.3,M,-34.4,M,,*55
lng=-77.675804, lat=43.087734, altitude=161.20, speed=18.24, satellites=8, angle=88.2700, fixquality=1
$GPRMC,232844.250,A,4305.2642,N,07740.5446,W,17.96,88.75,050924,,,A*76
$GPGGA,232844.500,4305.2641,N,07740.5428,W,1,08,1.05,161.6,M,-34.4,M,,*5E
lng=-77.675743, lat=43.087734, altitude=161.30, speed=17.96, satellites=8, angle=88.7500, fixquality=1
$GPRMC,232844.750,A,4305.2641,N,07740.5410,W,17.51,89.48,050924,,,A*77
$GPGGA,232845.000,4305.2640,N,07740.5393,W,1,08,1.05,161.7,M,-34.4,M,,*5D
lng=-77.675682, lat=43.087734, altitude=161.60, speed=17.51, satellites=8, angle=89.4800, fixquality=1
$GPRMC,232845.250,A,4305.2639,N,07740.5376,W,17.14,90.68,050924,,,A*70
$GPGGA,232845.500,4305.2637,N,07740.5354,W,1,08,1.05,161.9,M,-34.4,M,,*5D
lng=-77.675628, lat=43.087726, altitude=161.70, speed=17.14, satellites=8, angle=90.6800, fixquality=1
$GPRMC,232845.750,A,4305.2635,N,07740.5338,W,16.83,91.26,050924,,,A*77
$GPGGA,232846.000,4305.2634,N,07740.5322,W,1,08,1.05,161.9,M,-34.4,M,,*59
lng=-77.675559, lat=43.087726, altitude=161.90, speed=16.83, satellites=8, angle=91.2600, fixquality=1
$GPRMC,232846.250,A,4305.2633,N,07740.5305,W,16.28,90.41,050924,,,A*78
$GPGGA,232846.500,4305.2632,N,07740.5288,W,1,08,1.05,161.9,M,-34.4,M,,*5B
lng=-77.675506, lat=43.087718, altitude=161.90, speed=16.28, satellites=8, angle=90.4100, fixquality=1
$GPRMC,232846.750,A,4305.2632,N,07740.5272,W,16.03,89.77,050924,,,A*79
$GPGGA,232847.000,4305.2631,N,07740.5257,W,1,08,1.05,161.8,M,-34.4,M,,*5F
lng=-77.675453, lat=43.087718, altitude=161.90, speed=16.03, satellites=8, angle=89.7700, fixquality=1
$GPRMC,232847.250,A,4305.2630,N,07740.5241,W,15.63,88.68,050924,,,A*75
$GPGGA,232847.500,4305.2630,N,07740.5225,W,1,08,1.05,161.9,M,-34.4,M,,*5F
lng=-77.675399, lat=43.087718, altitude=161.80, speed=15.63, satellites=8, angle=88.6800, fixquality=1
$GPRMC,232847.750,A,4305.2630,N,07740.5210,W,15.58,87.17,050924,,,A*7B
$GPGGA,232848.000,4305.2630,N,07740.5194,W,1,07,1.18,162.0,M,-34.4,M,,*55
lng=-77.675346, lat=43.087718, altitude=161.90, speed=15.58, satellites=8, angle=87.1700, fixquality=1
$GPRMC,232848.250,A,4305.2630,N,07740.5179,W,15.53,86.21,050924,,,A*72
$GPGGA,232848.500,4305.2629,N,07740.5163,W,1,08,1.05,162.2,M,-34.4,M,,*51
lng=-77.675300, lat=43.087718, altitude=162.00, speed=15.53, satellites=7, angle=86.2100, fixquality=1
$GPRMC,232848.750,A,4305.2629,N,07740.5147,W,15.52,85.94,050924,,,A*7E
$GPGGA,232849.000,4305.2629,N,07740.5131,W,1,08,1.05,162.4,M,-34.4,M,,*54
lng=-77.675247, lat=43.087711, altitude=162.20, speed=15.52, satellites=8, angle=85.9400, fixquality=1
$GPRMC,232849.250,A,4305.2629,N,07740.5115,W,15.47,86.46,050924,,,A*75
$GPGGA,232849.500,4305.2628,N,07740.5100,W,1,08,1.05,162.4,M,-34.4,M,,*52
lng=-77.675193, lat=43.087711, altitude=162.40, speed=15.47, satellites=8, angle=86.4600, fixquality=1
$GPRMC,232849.750,A,4305.2628,N,07740.5085,W,15.44,87.44,050924,,,A*79
$GPGGA,232850.000,4305.2628,N,07740.5069,W,1,08,1.05,162.2,M,-34.4,M,,*57
lng=-77.675140, lat=43.087711, altitude=162.40, speed=15.44, satellites=8, angle=87.4400, fixquality=1
$GPRMC,232850.250,A,4305.2627,N,07740.5054,W,15.50,89.53,050924,,,A*7A
$GPGGA,232850.500,4305.2626,N,07740.5039,W,1,08,1.05,162.1,M,-34.4,M,,*5A
lng=-77.675086, lat=43.087711, altitude=162.20, speed=15.50, satellites=8, angle=89.5300, fixquality=1
$GPRMC,232850.750,A,4305.2625,N,07740.5025,W,15.50,91.55,050924,,,A*74
$GPGGA,232851.000,4305.2624,N,07740.5010,W,1,08,1.05,162.2,M,-34.4,M,,*54
lng=-77.675041, lat=43.087711, altitude=162.10, speed=15.50, satellites=8, angle=91.5500, fixquality=1
$GPRMC,232851.250,A,4305.2623,N,07740.4996,W,15.20,94.04,050924,,,A*70
$GPGGA,232851.500,4305.2621,N,07740.4982,W,1,08,1.05,162.3,M,-34.4,M,,*56
lng=-77.674995, lat=43.087703, altitude=162.20, speed=15.20, satellites=8, angle=94.0400, fixquality=1
$GPRMC,232851.750,A,4305.2619,N,07740.4968,W,14.56,95.90,050924,,,A*71
$GPGGA,232852.000,4305.2617,N,07740.4955,W,1,08,1.05,162.4,M,-34.4,M,,*58
lng=-77.674942, lat=43.087696, altitude=162.30, speed=14.56, satellites=8, angle=95.9000, fixquality=1
$GPRMC,232852.250,A,4305.2616,N,07740.4943,W,14.18,99.53,050924,,,A*78
$GPGGA,232852.500,4305.2614,N,07740.4930,W,1,08,1.05,162.5,M,-34.4,M,,*5C
lng=-77.674903, lat=43.087696, altitude=162.40, speed=14.18, satellites=8, angle=99.5300, fixquality=1
$GPRMC,232852.750,A,4305.2611,N,07740.4918,W,13.58,102.59,050924,,,A*4E
$GPGGA,232853.000,4305.2609,N,07740.4907,W,1,08,1.05,162.6,M,-34.4,M,,*53
lng=-77.674858, lat=43.087688, altitude=162.50, speed=13.58, satellites=8, angle=102.5900, fixquality=1
$GPRMC,232853.250,A,4305.2605,N,07740.4898,W,13.02,105.33,050924,,,A*42
$GPGGA,232853.500,4305.2599,N,07740.4888,W,1,08,1.05,163.0,M,-34.4,M,,*5D
lng=-77.674827, lat=43.087680, altitude=162.60, speed=13.02, satellites=8, angle=105.3300, fixquality=1
$GPRMC,232853.750,A,4305.2594,N,07740.4877,W,12.94,110.20,050924,,,A*45
$GPGGA,232854.000,4305.2588,N,07740.4864,W,1,08,1.05,163.2,M,-34.4,M,,*5F
lng=-77.674797, lat=43.087654, altitude=163.00, speed=12.94, satellites=8, angle=110.2000, fixquality=1
$GPRMC,232854.250,A,4305.2580,N,07740.4849,W,12.86,116.68,050924,,,A*46
$GPGGA,232854.500,4305.2575,N,07740.4837,W,1,08,1.05,163.6,M,-34.4,M,,*5A
lng=-77.674751, lat=43.087631, altitude=163.20, speed=12.86, satellites=8, angle=116.6800, fixquality=1
$GPRMC,232854.750,A,4305.2568,N,07740.4824,W,12.80,119.67,050924,,,A*48
$GPGGA,232855.000,4305.2562,N,07740.4812,W,1,08,1.05,163.9,M,-34.4,M,,*50
lng=-77.674705, lat=43.087612, altitude=163.60, speed=12.80, satellites=8, angle=119.6700, fixquality=1
$GPRMC,232855.250,A,4305.2555,N,07740.4799,W,12.85,120.71,050924,,,A*43
$GPGGA,232855.500,4305.2550,N,07740.4787,W,1,08,1.05,164.0,M,-34.4,M,,*59
lng=-77.674667, lat=43.087589, altitude=163.90, speed=12.85, satellites=8, angle=120.7100, fixquality=1
$GPRMC,232855.750,A,4305.2545,N,07740.4776,W,13.08,118.89,050924,,,A*4E
$GPGGA,232856.000,4305.2540,N,07740.4764,W,1,08,1.05,164.0,M,-34.4,M,,*53
lng=-77.674629, lat=43.087574, altitude=164.00, speed=13.08, satellites=8, angle=118.8900, fixquality=1
$GPRMC,232856.250,A,4305.2537,N,07740.4753,W,13.13,113.46,050924,,,A*48
$GPGGA,232856.500,4305.2534,N,07740.4741,W,1,08,1.05,164.1,M,-34.4,M,,*53
lng=-77.674583, lat=43.087566, altitude=164.00, speed=13.13, satellites=8, angle=113.4600, fixquality=1
$GPRMC,232856.750,A,4305.2531,N,07740.4729,W,13.10,107.64,050924,,,A*40
$GPGGA,232857.000,4305.2529,N,07740.4716,W,1,08,1.05,164.1,M,-34.4,M,,*59
lng=-77.674545, lat=43.087547, altitude=164.10, speed=13.10, satellites=8, angle=107.6400, fixquality=1
$GPRMC,232857.250,A,4305.2528,N,07740.4703,W,13.76,98.58,050924,,,A*7C
$GPGGA,232857.500,4305.2528,N,07740.4689,W,1,08,1.05,164.4,M,-34.4,M,,*5F
lng=-77.674507, lat=43.087547, altitude=164.10, speed=13.76, satellites=8, angle=98.5800, fixquality=1
$GPRMC,232857.750,A,4305.2529,N,07740.4675,W,14.19,90.04,050924,,,A*77
$GPGGA,232858.000,4305.2530,N,07740.4662,W,1,08,1.05,164.4,M,-34.4,M,,*59
lng=-77.674453, lat=43.087547, altitude=164.40, speed=14.19, satellites=8, angle=90.0400, fixquality=1
$GPRMC,232858.250,A,4305.2532,N,07740.4649,W,14.43,82.07,050924,,,A*77
$GPGGA,232858.500,4305.2538,N,07740.4636,W,1,08,1.05,164.4,M,-34.4,M,,*55
lng=-77.674415, lat=43.087558, altitude=164.40, speed=14.43, satellites=8, angle=82.0700, fixquality=1
$GPRMC,232858.750,A,4305.2543,N,07740.4623,W,14.93,68.08,050924,,,A*7E
$GPGGA,232859.000,4305.2550,N,07740.4611,W,1,08,1.05,164.4,M,-34.4,M,,*5A
lng=-77.674369, lat=43.087574, altitude=164.40, speed=14.93, satellites=8, angle=68.0800, fixquality=1
$GPRMC,232859.250,A,4305.2556,N,07740.4598,W,15.64,58.01,050924,,,A*7E
$GPGGA,232859.500,4305.2562,N,07740.4585,W,1,08,1.05,164.3,M,-34.4,M,,*57
lng=-77.674331, lat=43.087589, altitude=164.40, speed=15.64, satellites=8, angle=58.0100, fixquality=1
$GPRMC,232859.750,A,4305.2568,N,07740.4572,W,15.87,53.07,050924,,,A*72
$GPGGA,232900.000,4305.2575,N,07740.4560,W,1,08,1.05,163.8,M,-34.4,M,,*5E
lng=-77.674285, lat=43.087612, altitude=164.30, speed=15.87, satellites=8, angle=53.0700, fixquality=1
$GPRMC,232900.250,A,4305.2582,N,07740.4547,W,15.87,54.82,050924,,,A*72
$GPGGA,232900.500,4305.2587,N,07740.4534,W,1,08,1.05,163.9,M,-34.4,M,,*56
lng=-77.674240, lat=43.087638, altitude=163.80, speed=15.87, satellites=8, angle=54.8200, fixquality=1
$GPRMC,232900.750,A,4305.2593,N,07740.4521,W,15.58,56.49,050924,,,A*70
$GPGGA,232901.000,4305.2598,N,07740.4505,W,1,08,1.05,163.9,M,-34.4,M,,*5E
