Vers 72
USE_SERIAL_FEEDBACK=true
DEVELOPMENT_MODE=false
USE_RMC_ONLY=false

$GPRMC,201435.750,A,4305.1648,N,07740.8477,W,0.11,269.60,060924,,,A*7C
$GPGGA,201436.000,4305.1647,N,07740.8476,W,1,05,1.60,171.1,M,-34.4,M,,*59
lng=-77.680793, lat=43.086082, altitude=166.70, speed=0.11, satellites=5, angle=269.6000, fixquality=1
$GPRMC,201436.250,A,4305.1646,N,07740.8476,W,0.07,305.39,060924,,,A*75
$GPGGA,201436.500,4305.1646,N,07740.8475,W,1,05,1.60,171.3,M,-34.4,M,,*5C
lng=-77.680793, lat=43.086074, altitude=171.10, speed=0.07, satellites=5, angle=305.3900, fixquality=1
$GPGGA,201441.750,4305.1643,N,07740.8464,W,1,05,1.60,173.2,M,-34.4,M,,*5D
$GPRMC,201441.750,A,4305.1643,N,07740.8464,W,0.00,51.62,060924,,,A*4D
lng=-77.680770, lat=43.086067, altitude=173.20, speed=0.02, satellites=5, angle=202.1500, fixquality=1
$GPGGA,201442.000,4305.1643,N,07740.8463,W,1,05,1.60,173.3,M,-34.4,M,,*5A
$GPRMC,201442.000,A,4305.1643,N,07740.8463,W,0.06,153.93,060924,,,A*70
lng=-77.680770, lat=43.086067, altitude=173.30, speed=0.00, satellites=5, angle=51.6200, fixquality=1
$GPGGA,201727.000,4305.1637,N,07740.8475,W,1,09,0.94,172.0,M,-34.4,M,,*5A
$GPRMC,201727.000,A,4305.1637,N,07740.8475,W,2.68,241.42,060924,,,A*72
lng=-77.680793, lat=43.086059, altitude=172.00, speed=1.44, satellites=9, angle=245.2300, fixquality=1
$GPGGA,201727.250,4305.1636,N,07740.8478,W,1,09,0.94,172.0,M,-34.4,M,,*51
$GPRMC,201727.250,A,4305.1636,N,07740.8478,W,3.42,244.82,060924,,,A*79
lng=-77.680793, lat=43.086059, altitude=172.00, speed=2.68, satellites=9, angle=241.4200, fixquality=1
$GPGGA,201727.500,4305.1635,N,07740.8481,W,1,09,0.94,172.0,M,-34.4,M,,*56
$GPRMC,201727.500,A,4305.1635,N,07740.8481,W,4.03,249.13,060924,,,A*79
lng=-77.680801, lat=43.086059, altitude=172.00, speed=3.42, satellites=9, angle=244.8200, fixquality=1
$GPGGA,201727.750,4305.1634,N,07740.8485,W,1,09,0.94,171.9,M,-34.4,M,,*5E
$GPRMC,201727.750,A,4305.1634,N,07740.8485,W,4.47,254.06,060924,,,A*73
lng=-77.680809, lat=43.086059, altitude=171.90, speed=4.03, satellites=9, angle=249.1300, fixquality=1
$GPGGA,201728.000,4305.1634,N,07740.8490,W,1,09,0.95,172.0,M,-34.4,M,,*5C
$GPRMC,201728.000,A,4305.1634,N,07740.8490,W,5.38,257.81,060924,,,A*7F
lng=-77.680816, lat=43.086059, altitude=172.00, speed=4.47, satellites=9, angle=254.0600, fixquality=1
$GPGGA,201728.250,4305.1633,N,07740.8496,W,1,09,0.95,172.0,M,-34.4,M,,*5A
$GPRMC,201728.250,A,4305.1633,N,07740.8496,W,5.94,257.55,060924,,,A*76
lng=-77.680824, lat=43.086051, altitude=172.00, speed=5.38, satellites=9, angle=257.8100, fixquality=1
$GPGGA,201728.500,4305.1633,N,07740.8502,W,1,09,0.95,172.0,M,-34.4,M,,*54
$GPRMC,201728.500,A,4305.1633,N,07740.8502,W,6.40,259.44,060924$GPGGA,201728.750,4305.1633,N,07740.8508,W,1,09,0.95,172.0,M,-34.4,M,,*59
lng=-77.680831, lat=43.086051, altitude=172.00, speed=5.94, satellites=9, angle=257.5500, fixquality=1
$GPRMC,201729.000,A,4305.1632,N,07740.8515,W,7.45,264.55,060924,,,A*75
$GPGGA,201729.250,4305.1632,N,07740.8523,W,1,09,0.95,172.1,M,-34.4,M,,*54
lng=-77.680862, lat=43.086051, altitude=172.00, speed=7.45, satellites=9, angle=264.5500, fixquality=1
$GPRMC,201729.500,A,4305.1632,N,07740.8531,W,8.65,267.94,060924,,,A*75
$GPGGA,201729.750,4305.1633,N,07740.8540,W,1,09,0.95,172.1,M,-34.4,M,,*55
lng=-77.680885, lat=43.086051, altitude=172.10, speed=8.65, satellites=9, angle=267.9400, fixquality=1
$GPRMC,201730.000,A,4305.1633,N,07740.8549,W,9.53,269.62,060924,,,A*75
$GPGGA,201730.250,4305.1633,N,07740.8558,W,1,09,0.95,172.3,M,-34.4,M,,*53
lng=-77.680915, lat=43.086051, altitude=172.10, speed=9.53, satellites=9, angle=269.6200, fixquality=1
$GPRMC,201730.500,A,4305.1634,N,07740.8567,W,10.24,272.15,060924,,,A*49
$GPGGA,201730.750,4305.1635,N,07740.8577,W,1,09,0.95,172.3,M,-34.4,M,,*5D
lng=-77.680946, lat=43.086059, altitude=172.30, speed=10.24, satellites=9, angle=272.1500, fixquality=1
$GPRMC,201731.000,A,4305.1636,N,07740.8587,W,10.78,272.37,060924,,,A*48
$GPGGA,201731.250,4305.1637,N,07740.8598,W,1,09,0.95,172.3,M,-34.4,M,,*5A
lng=-77.680984, lat=43.086059, altitude=172.30, speed=10.78, satellites=9, angle=272.3700, fixquality=1
$GPRMC,201731.500,A,4305.1639,N,07740.8608,W,11.11,273.38,060924,,,A*46
$GPGGA,201731.750,4305.1640,N,07740.8619,W,1,09,0.95,172.4,M,-34.4,M,,*52
lng=-77.681015, lat=43.086067, altitude=172.30, speed=11.11, satellites=9, angle=273.3800, fixquality=1
$GPRMC,201732.000,A,4305.1641,N,07740.8630,W,11.63,273.67,060924,,,A*4B
$GPGGA,201732.250,4305.1642,N,07740.8641,W,1,09,0.95,172.4,M,-34.4,M,,*5B
lng=-77.681045, lat=43.086067, altitude=172.40, speed=11.63, satellites=9, angle=273.6700, fixquality=1
$GPRMC,201732.500,A,4305.1644,N,07740.8653,W,12.13,274.13,060924,,,A*4E
$GPGGA,201732.750,4305.1645,N,07740.8664,W,1,09,0.95,172.5,M,-34.4,M,,*5F
lng=-77.681083, lat=43.086074, altitude=172.40, speed=12.13, satellites=9, angle=274.1300, fixquality=1
$GPRMC,201733.000,A,4305.1646,N,07740.8676,W,12.16,273.71,060924,,,A*49
$GPGGA,201733.250,4305.1647,N,07740.8688,W,1,09,0.95,172.4,M,-34.4,M,,*5A
lng=-77.681129, lat=43.086074, altitude=172.50, speed=12.16, satellites=9, angle=273.7100, fixquality=1
$GPRMC,201733.500,A,4305.1648,N,07740.8699,W,12.18,273.12,060924,,,A*48
$GPGGA,201733.750,4305.1649,N,07740.8711,W,1,09,0.95,172.4,M,-34.4,M,,*50
lng=-77.681167, lat=43.086082, altitude=172.40, speed=12.18, satellites=9, angle=273.1200, fixquality=1
$GPRMC,201734.000,A,4305.1650,N,07740.8722,W,12.15,272.60,060924,,,A*4B
$GPGGA,201734.250,4305.1651,N,07740.8733,W,1,09,0.95,172.2,M,-34.4,M,,*5D
lng=-77.681198, lat=43.086082, altitude=172.40, speed=12.15, satellites=9, angle=272.6000, fixquality=1
$GPRMC,201734.500,A,4305.1652,N,07740.8745,W,11.92,271.56,060924,,,A*47
$GPGGA,201734.750,4305.1653,N,07740.8756,W,1,09,0.95,172.1,M,-34.4,M,,*5A
lng=-77.681243, lat=43.086082, altitude=172.20, speed=11.92, satellites=9, angle=271.5600, fixquality=1
$GPRMC,201735.000,A,4305.1654,N,07740.8767,W,11.67,272.27,060924,,,A*4A
$GPGGA,201735.250,4305.1655,N,07740.8778,W,1,09,0.95,172.0,M,-34.4,M,,*55
lng=-77.681274, lat=43.086093, altitude=172.10, speed=11.67, satellites=9, angle=272.2700, fixquality=1
$GPRMC,201735.500,A,4305.1656,N,07740.8789,W,11.44,274.71,060924,,,A*49
$GPGGA,201735.750,4305.1657,N,07740.8800,W,1,09,0.95,171.9,M,-34.4,M,,*58
lng=-77.681312, lat=43.086093, altitude=172.00, speed=11.44, satellites=9, angle=274.7100, fixquality=1
$GPRMC,201736.000,A,4305.1659,N,07740.8810,W,11.20,277.72,060924,,,A*4D
$GPGGA,201736.250,4305.1662,N,07740.8820,W,1,09,0.94,171.8,M,-34.4,M,,*5A
lng=-77.681350, lat=43.086101, altitude=171.90, speed=11.20, satellites=9, angle=277.7200, fixquality=1
$GPRMC,201736.500,A,4305.1664,N,07740.8830,W,10.97,285.10,060924,,,A*40
$GPGGA,201736.750,4305.1667,N,07740.8840,W,1,09,0.94,171.7,M,-34.4,M,,*53
lng=-77.681381, lat=43.086109, altitude=171.80, speed=10.97, satellites=9, angle=285.1000, fixquality=1
$GPRMC,201737.000,A,4305.1670,N,07740.8849,W,10.62,291.13,060924,,,A*43
$GPGGA,201737.250,4305.1674,N,07740.8858,W,1,09,0.95,171.7,M,-34.4,M,,*5D
lng=-77.681411, lat=43.086116, altitude=171.70, speed=10.62, satellites=9, angle=291.1300, fixquality=1
$GPRMC,201737.500,A,4305.1679,N,07740.8866,W,10.42,303.58,060924,,,A*45
$GPGGA,201737.750,4305.1685,N,07740.8873,W,1,09,0.95,171.5,M,-34.4,M,,*5D
lng=-77.681442, lat=43.086132, altitude=171.70, speed=10.42, satellites=9, angle=303.5800, fixquality=1
$GPRMC,201738.000,A,4305.1691,N,07740.8878,W,9.93,318.96,060924,,,A*7A
$GPGGA,201738.250,4305.1699,N,07740.8883,W,1,09,0.95,171.4,M,-34.4,M,,*54
lng=-77.681465, lat=43.086147, altitude=171.50, speed=9.93, satellites=9, angle=318.9600, fixquality=1
$GPRMC,201738.500,A,4305.1707,N,07740.8886,W,9.93,334.00,060924,,,A*71
$GPGGA,201738.750,4305.1716,N,07740.8889,W,1,09,0.95,171.2,M,-34.4,M,,*5B
lng=-77.681480, lat=43.086181, altitude=171.40, speed=9.93, satellites=9, angle=334.0000, fixquality=1
$GPRMC,201739.000,A,4305.1726,N,07740.8890,W,10.90,345.91,060924,,,A*44
$GPGGA,201739.250,4305.1736,N,07740.8890,W,1,09,0.95,171.0,M,-34.4,M,,*57
lng=-77.681488, lat=43.086204, altitude=171.20, speed=10.90, satellites=9, angle=345.9100, fixquality=1
$GPRMC,201739.500,A,4305.1746,N,07740.8890,W,12.25,354.94,060924,,,A*4E
$GPGGA,201739.750,4305.1757,N,07740.8889,W,1,09,0.95,170.8,M,-34.4,M,,*54
lng=-77.681488, lat=43.086246, altitude=171.00, speed=12.25, satellites=9, angle=354.9400, fixquality=1
$GPRMC,201740.000,A,4305.1767,N,07740.8888,W,13.25,359.19,060924,,,A*46
$GPGGA,201740.250,4305.1777,N,07740.8887,W,1,09,0.95,170.6,M,-34.4,M,,*5D
lng=-77.681480, lat=43.086280, altitude=170.80, speed=13.25, satellites=9, angle=359.1900, fixquality=1
$GPRMC,201740.500,A,4305.1788,N,07740.8885,W,14.16,3.04,060924,,,A*48
$GPGGA,201740.750,4305.1798,N,07740.8883,W,1,09,0.95,170.4,M,-34.4,M,,*5F
lng=-77.681480, lat=43.086311, altitude=170.60, speed=14.16, satellites=9, angle=3.0400, fixquality=1
$GPRMC,201741.000,A,4305.1809,N,07740.8882,W,14.94,3.75,060924,,,A*41
$GPGGA,201741.250,4305.1821,N,07740.8880,W,1,09,0.94,170.2,M,-34.4,M,,*52
lng=-77.681472, lat=43.086345, altitude=170.40, speed=14.94, satellites=9, angle=3.7500, fixquality=1
$GPRMC,201741.500,A,4305.1832,N,07740.8878,W,15.98,3.38,060924,,,A*4D
$GPGGA,201741.750,4305.1844,N,07740.8876,W,1,09,0.95,169.9,M,-34.4,M,,*5F
lng=-77.681465, lat=43.086383, altitude=170.20, speed=15.98, satellites=9, angle=3.3800, fixquality=1
$GPRMC,201742.000,A,4305.1856,N,07740.8875,W,16.57,2.64,060924,,,A*4C
$GPGGA,201742.250,4305.1868,N,07740.8874,W,1,09,0.95,169.5,M,-34.4,M,,*59
lng=-77.681465, lat=43.086425, altitude=169.90, speed=16.57, satellites=9, angle=2.6400, fixquality=1
$GPRMC,201742.500,A,4305.1880,N,07740.8872,W,17.07,2.25,060924,,,A*44
$GPGGA,201742.750,4305.1892,N,07740.8871,W,1,09,0.95,169.2,M,-34.4,M,,*5B
lng=-77.681449, lat=43.086467, altitude=169.50, speed=17.07, satellites=9, angle=2.2500, fixquality=1
$GPRMC,201743.000,A,4305.1904,N,07740.8869,W,17.29,1.59,060924,,,A*43
$GPGGA,201743.250,4305.1916,N,07740.8868,W,1,09,0.95,168.8,M,-34.4,M,,*51
lng=-77.681442, lat=43.086505, altitude=169.20, speed=17.29, satellites=9, angle=1.5900, fixquality=1
$GPRMC,201743.500,A,4305.1928,N,07740.8866,W,17.38,1.19,060924,,,A*43
$GPGGA,201743.750,4305.1940,N,07740.8865,W,1,09,0.95,168.5,M,-34.4,M,,*57
lng=-77.681442, lat=43.086547, altitude=168.80, speed=17.38, satellites=9, angle=1.1900, fixquality=1
$GPRMC,201744.000,A,4305.1952,N,07740.8864,W,17.37,0.91,060924,,,A*40
$GPGGA,201744.250,4305.1964,N,07740.8864,W,1,09,0.95,168.2,M,-34.4,M,,*55
lng=-77.681434, lat=43.086589, altitude=168.50, speed=17.37, satellites=9, angle=0.9100, fixquality=1
$GPRMC,201744.500,A,4305.1976,N,07740.8863,W,17.38,359.99,060924,,,A*4C
$GPGGA,201744.750,4305.1988,N,07740.8863,W,1,09,0.95,167.9,M,-34.4,M,,*51
lng=-77.681434, lat=43.086627, altitude=168.20, speed=17.38, satellites=9, angle=359.9900, fixquality=1
$GPRMC,201745.000,A,4305.2000,N,07740.8862,W,17.34,358.95,060924,,,A*43
$GPGGA,201745.250,4305.2012,N,07740.8862,W,1,09,0.95,167.7,M,-34.4,M,,*53
lng=-77.681434, lat=43.086669, altitude=167.90, speed=17.34, satellites=9, angle=358.9500, fixquality=1
$GPRMC,201745.500,A,4305.2024,N,07740.8862,W,17.13,359.69,060924,,,A*47
$GPGGA,201745.750,4305.2036,N,07740.8861,W,1,09,0.95,167.6,M,-34.4,M,,*52
lng=-77.681434, lat=43.086711, altitude=167.70, speed=17.13, satellites=9, angle=359.6900, fixquality=1
$GPRMC,201746.000,A,4305.2048,N,07740.8861,W,17.03,0.15,060924,,,A*4D
$GPGGA,201746.250,4305.2061,N,07740.8860,W,1,09,0.95,167.4,M,-34.4,M,,*55
lng=-77.681434, lat=43.086742, altitude=167.60, speed=17.03, satellites=9, angle=0.1500, fixquality=1
$GPRMC,201746.500,A,4305.2073,N,07740.8859,W,17.36,358.90,060924,,,A*4E
$GPGGA,201746.750,4305.2086,N,07740.8860,W,1,09,0.94,167.3,M,-34.4,M,,*5F
lng=-77.681427, lat=43.086791, altitude=167.40, speed=17.36, satellites=9, angle=358.9000, fixquality=1
$GPRMC,201747.000,A,4305.2099,N,07740.8860,W,17.10,358.86,060924,,,A*47
$GPGGA,201747.250,4305.2112,N,07740.8860,W,1,09,0.95,167.0,M,-34.4,M,,*55
lng=-77.681434, lat=43.086833, altitude=167.30, speed=17.10, satellites=9, angle=358.8600, fixquality=1
$GPRMC,201747.500,A,4305.2124,N,07740.8860,W,17.10,358.76,060924,,,A*4A
$GPGGA,201747.750,4305.2136,N,07740.8860,W,1,09,0.95,166.7,M,-34.4,M,,*50
lng=-77.681434, lat=43.086872, altitude=167.00, speed=17.10, satellites=9, angle=358.7600, fixquality=1
$GPRMC,201748.000,A,4305.2148,N,07740.8861,W,17.04,358.20,060924,,,A*4D
$GPGGA,201748.250,4305.2160,N,07740.8862,W,1,09,0.95,166.4,M,-34.4,M,,*58
lng=-77.681434, lat=43.086914, altitude=166.70, speed=17.04, satellites=9, angle=358.2000, fixquality=1
$GPRMC,201748.500,A,4305.2171,N,07740.8862,W,16.84,357.11,060924,,,A*45
$GPGGA,201748.750,4305.2183,N,07740.8863,W,1,09,0.95,166.1,M,-34.4,M,,*54
lng=-77.681434, lat=43.086956, altitude=166.40, speed=16.84, satellites=9, angle=357.1100, fixquality=1
$GPRMC,201749.000,A,4305.2195,N,07740.8864,W,16.82,355.73,060924,,,A*4D
$GPGGA,201749.250,4305.2207,N,07740.8865,W,1,09,0.95,165.7,M,-34.4,M,,*5C
lng=-77.681434, lat=43.086994, altitude=166.10, speed=16.82, satellites=9, angle=355.7300, fixquality=1
$GPRMC,201749.500,A,4305.2219,N,07740.8867,W,16.77,354.15,060924,,,A*47
$GPGGA,201749.750,4305.2230,N,07740.8868,W,1,09,0.95,165.4,M,-34.4,M,,*53
lng=-77.681442, lat=43.087028, altitude=165.70, speed=16.77, satellites=9, angle=354.1500, fixquality=1
$GPRMC,201750.000,A,4305.2242,N,07740.8870,W,16.48,352.66,060924,,,A*4C
$GPGGA,201750.250,4305.2253,N,07740.8872,W,1,09,0.95,165.0,M,-34.4,M,,*54
lng=-77.681449, lat=43.087070, altitude=165.40, speed=16.48, satellites=9, angle=352.6600, fixquality=1
$GPRMC,201750.500,A,4305.2264,N,07740.8874,W,16.16,352.10,060924,,,A*43
$GPGGA,201750.750,4305.2275,N,07740.8876,W,1,09,0.95,164.7,M,-34.4,M,,*57
lng=-77.681449, lat=43.087108, altitude=165.00, speed=16.16, satellites=9, angle=352.1000, fixquality=1
$GPRMC,201751.000,A,4305.2285,N,07740.8879,W,15.94,350.72,060924,,,A*4A
$GPGGA,201751.250,4305.2296,N,07740.8882,W,1,09,0.95,164.5,M,-34.4,M,,*57
lng=-77.681465, lat=43.087142, altitude=164.70, speed=15.94, satellites=9, angle=350.7200, fixquality=1
$GPRMC,201751.500,A,4305.2307,N,07740.8885,W,15.95,350.22,060924,,,A*43
$GPGGA,201751.750,4305.2318,N,07740.8888,W,1,09,0.95,164.6,M,-34.4,M,,*5C
lng=-77.681480, lat=43.087173, altitude=164.50, speed=15.95, satellites=9, angle=350.2200, fixquality=1
$GPRMC,201752.000,A,4305.2329,N,07740.8891,W,15.84,350.25,060924,,,A*4B
$GPGGA,201752.250,4305.2340,N,07740.8895,W,1,09,0.95,164.5,M,-34.4,M,,*58
lng=-77.681488, lat=43.087215, altitude=164.60, speed=15.84, satellites=9, angle=350.2500, fixquality=1
$GPRMC,201752.500,A,4305.2350,N,07740.8897,W,15.19,351.10,060924,,,A*45
$GPGGA,201752.750,4305.2359,N,07740.8900,W,1,09,0.95,164.7,M,-34.4,M,,*5A
lng=-77.681495, lat=43.087245, altitude=164.50, speed=15.19, satellites=9, angle=351.1000, fixquality=1
$GPRMC,201753.000,A,4305.2368,N,07740.8902,W,13.43,352.94,060924,,,A*41
$GPGGA,201753.250,4305.2376,N,07740.8903,W,1,09,0.95,165.0,M,-34.4,M,,*56
lng=-77.681503, lat=43.087280, altitude=164.70, speed=13.43, satellites=9, angle=352.9400, fixquality=1
$GPRMC,201753.500,A,4305.2384,N,07740.8904,W,11.11,357.67,060924,,,A*4C
$GPGGA,201753.750,4305.2391,N,07740.8903,W,1,09,0.95,165.1,M,-34.4,M,,*5B
lng=-77.681510, lat=43.087303, altitude=165.00, speed=11.11, satellites=9, angle=357.6700, fixquality=1
$GPRMC,201754.000,A,4305.2398,N,07740.8904,W,10.15,3.70,060924,,,A*42
$GPGGA,201754.250,4305.2404,N,07740.8904,W,1,09,0.95,165.4,M,-34.4,M,,*50
lng=-77.681510, lat=43.087329, altitude=165.10, speed=10.15, satellites=9, angle=3.7000, fixquality=1
$GPRMC,201754.500,A,4305.2410,N,07740.8904,W,8.79,10.85,060924,,,A*4B
$GPGGA,201754.750,4305.2416,N,07740.8902,W,1,09,0.95,165.4,M,-34.4,M,,*50
lng=-77.681510, lat=43.087352, altitude=165.40, speed=8.79, satellites=9, angle=10.8500, fixquality=1
$GPRMC,201755.000,A,4305.2422,N,07740.8900,W,8.56,13.84,060924,,,A*45
$GPGGA,201755.250,4305.2428,N,07740.8898,W,1,09,0.94,165.5,M,-34.4,M,,*5B
lng=-77.681503, lat=43.087368, altitude=165.40, speed=8.56, satellites=9, angle=13.8400, fixquality=1
$GPRMC,201755.500,A,4305.2434,N,07740.8895,W,8.62,17.77,060924,,,A*45
$GPGGA,201755.750,4305.2440,N,07740.8892,W,1,09,0.95,165.6,M,-34.4,M,,*58
lng=-77.681495, lat=43.087387, altitude=165.50, speed=8.62, satellites=9, angle=17.7700, fixquality=1
$GPRMC,201756.000,A,4305.2446,N,07740.8888,W,8.90,26.65,060924,,,A*46
$GPGGA,201756.250,4305.2451,N,07740.8883,W,1,09,0.94,165.8,M,-34.4,M,,*51
lng=-77.681480, lat=43.087409, altitude=165.60, speed=8.90, satellites=9, angle=26.6500, fixquality=1
$GPRMC,201756.500,A,4305.2457,N,07740.8878,W,9.50,34.56,060924,,,A*42
$GPGGA,201756.750,4305.2462,N,07740.8871,W,1,09,0.95,166.2,M,-34.4,M,,*51
lng=-77.681465, lat=43.087425, altitude=165.80, speed=9.50, satellites=9, angle=34.5600, fixquality=1
$GPRMC,201757.000,A,4305.2466,N,07740.8864,W,10.23,43.16,060924,,,A*71
$GPGGA,201757.250,4305.2471,N,07740.8855,W,1,09,0.95,166.3,M,-34.4,M,,*50
lng=-77.681434, lat=43.087444, altitude=166.20, speed=10.23, satellites=9, angle=43.1600, fixquality=1
$GPRMC,201757.500,A,4305.2475,N,07740.8846,W,11.27,54.89,060924,,,A*73
$GPGGA,201757.750,4305.2478,N,07740.8836,W,1,09,0.94,166.6,M,-34.4,M,,*5D
lng=-77.681411, lat=43.087459, altitude=166.30, speed=11.27, satellites=9, angle=54.8900, fixquality=1
$GPRMC,201758.000,A,4305.2482,N,07740.8824,W,12.25,63.20,060924,,,A*73
$GPGGA,201758.250,4305.2485,N,07740.8813,W,1,09,0.95,166.7,M,-34.4,M,,*52
lng=-77.681373, lat=43.087467, altitude=166.60, speed=12.25, satellites=9, angle=63.2000, fixquality=1
$GPRMC,201758.500,A,4305.2489,N,07740.8800,W,13.48,69.96,060924,,,A*76
$GPGGA,201758.750,4305.2493,N,07740.8788,W,1,09,0.94,167.2,M,-34.4,M,,*58
lng=-77.681327, lat=43.087482, altitude=166.70, speed=13.48, satellites=9, angle=69.9600, fixquality=1
$GPRMC,201759.000,A,4305.2496,N,07740.8774,W,14.80,74.25,060924,,,A*77
$GPGGA,201759.250,4305.2500,N,07740.8760,W,1,08,1.06,168.1,M,-34.4,M,,*56
lng=-77.681289, lat=43.087490, altitude=167.20, speed=14.80, satellites=9, angle=74.2500, fixquality=1
$GPRMC,201759.500,A,4305.2502,N,07740.8745,W,16.24,77.95,060924,,,A*78
$GPGGA,201759.750,4305.2505,N,07740.8730,W,1,08,1.06,168.7,M,-34.4,M,,*55
lng=-77.681243, lat=43.087501, altitude=168.10, speed=16.24, satellites=8, angle=77.9500, fixquality=1
$GPRMC,201800.000,A,4305.2508,N,07740.8714,W,17.39,78.15,060924,,,A*7A
$GPGGA,201800.250,4305.2511,N,07740.8697,W,1,08,1.06,169.2,M,-34.4,M,,*5E
lng=-77.681190, lat=43.087516, altitude=168.70, speed=17.39, satellites=8, angle=78.1500, fixquality=1
$GPRMC,201800.500,A,4305.2513,N,07740.8680,W,18.38,73.90,060924,,,A*71
$GPGGA,201800.750,4305.2517,N,07740.8663,W,1,08,1.06,169.1,M,-34.4,M,,*55
lng=-77.681137, lat=43.087524, altitude=169.20, speed=18.38, satellites=8, angle=73.9000, fixquality=1
$GPRMC,201801.000,A,4305.2520,N,07740.8645,W,19.47,73.81,060924,,,A*75
$GPGGA,201801.250,4305.2524,N,07740.8627,W,1,09,0.95,169.3,M,-34.4,M,,*59
lng=-77.681068, lat=43.087532, altitude=169.10, speed=19.47, satellites=8, angle=73.8100, fixquality=1
$GPRMC,201801.500,A,4305.2527,N,07740.8608,W,20.17,73.98,060924,,,A*79
$GPGGA,201801.750,4305.2531,N,07740.8590,W,1,08,1.06,169.4,M,-34.4,M,,*5A
lng=-77.681015, lat=43.087547, altitude=169.30, speed=20.17, satellites=9, angle=73.9800, fixquality=1
$GPRMC,201802.000,A,4305.2534,N,07740.8571,W,20.50,74.97,060924,,,A*7B
$GPGGA,201802.250,4305.2538,N,07740.8551,W,1,09,0.95,169.4,M,-34.4,M,,*52
lng=-77.680946, lat=43.087558, altitude=169.40, speed=20.50, satellites=8, angle=74.9700, fixquality=1
$GPRMC,201802.500,A,4305.2540,N,07740.8531,W,20.74,75.71,060924,,,A*76
$GPGGA,201802.750,4305.2543,N,07740.8512,W,1,09,0.95,169.4,M,-34.4,M,,*5C
lng=-77.680885, lat=43.087566, altitude=169.40, speed=20.74, satellites=9, angle=75.7100, fixquality=1
$GPRMC,201803.000,A,4305.2546,N,07740.8492,W,20.97,76.42,060924,,,A*72
$GPGGA,201803.250,4305.2549,N,07740.8471,W,1,09,0.94,169.2,M,-34.4,M,,*51
lng=-77.680816, lat=43.087574, altitude=169.40, speed=20.97, satellites=9, angle=76.4200, fixquality=1
$GPRMC,201803.500,A,4305.2552,N,07740.8451,W,21.23,76.43,060924,,,A*72
$GPGGA,201803.750,4305.2555,N,07740.8431,W,1,09,0.95,169.0,M,-34.4,M,,*5E
lng=-77.680755, lat=43.087589, altitude=169.20, speed=21.23, satellites=9, angle=76.4300, fixquality=1
$GPRMC,201804.000,A,4305.2557,N,07740.8410,W,21.56,77.57,060924,,,A*76
$GPGGA,201804.250,4305.2560,N,07740.8390,W,1,09,0.95,168.8,M,-34.4,M,,*5F
lng=-77.680679, lat=43.087596, altitude=169.00, speed=21.56, satellites=9, angle=77.5700, fixquality=1
$GPRMC,201804.500,A,4305.2563,N,07740.8369,W,21.93,79.12,060924,,,A*7B
$GPGGA,201804.750,4305.2565,N,07740.8348,W,1,09,0.94,168.9,M,-34.4,M,,*5A
lng=-77.680618, lat=43.087604, altitude=168.80, speed=21.93, satellites=9, angle=79.1200, fixquality=1
$GPRMC,201805.000,A,4305.2567,N,07740.8328,W,22.11,81.03,060924,,,A*70
$GPGGA,201805.250,4305.2569,N,07740.8307,W,1,09,0.95,168.9,M,-34.4,M,,*58
lng=-77.680549, lat=43.087612, altitude=168.90, speed=22.11, satellites=9, angle=81.0300, fixquality=1
$GPRMC,201805.500,A,4305.2570,N,07740.8286,W,22.05,82.83,060924,,,A*78
$GPGGA,201805.750,4305.2572,N,07740.8266,W,1,09,0.95,168.8,M,-34.4,M,,*50
lng=-77.680473, lat=43.087612, altitude=168.90, speed=22.05, satellites=9, angle=82.8300, fixquality=1
$GPRMC,201806.000,A,4305.2573,N,07740.8246,W,21.67,84.01,060924,,,A*7A
$GPGGA,201806.250,4305.2574,N,07740.8226,W,1,09,0.95,168.8,M,-34.4,M,,*54
lng=-77.680412, lat=43.087623, altitude=168.80, speed=21.67, satellites=9, angle=84.0100, fixquality=1
$GPRMC,201806.500,A,4305.2575,N,07740.8206,W,21.24,85.42,060924,,,A*7C
$GPGGA,201806.750,4305.2576,N,07740.8186,W,1,09,0.95,168.8,M,-34.4,M,,*5A
lng=-77.680343, lat=43.087623, altitude=168.80, speed=21.24, satellites=9, angle=85.4200, fixquality=1
$GPRMC,201807.000,A,4305.2576,N,07740.8166,W,20.82,85.68,060924,,,A*7B
$GPGGA,201807.250,4305.2577,N,07740.8146,W,1,09,0.95,168.8,M,-34.4,M,,*53
lng=-77.680274, lat=43.087631, altitude=168.80, speed=20.82, satellites=9, angle=85.6800, fixquality=1
$GPRMC,201807.500,A,4305.2578,N,07740.8126,W,20.74,85.64,060924,,,A*71
$GPGGA,201807.750,4305.2579,N,07740.8107,W,1,09,0.95,168.7,M,-34.4,M,,*52
lng=-77.680206, lat=43.087631, altitude=168.80, speed=20.74, satellites=9, angle=85.6400, fixquality=1
$GPRMC,201808.000,A,4305.2580,N,07740.8087,W,20.66,86.02,060924,,,A*76
$GPGGA,201808.250,4305.2581,N,07740.8068,W,1,08,1.13,168.5,M,-34.4,M,,*5B
lng=-77.680145, lat=43.087631, altitude=168.70, speed=20.66, satellites=9, angle=86.0200, fixquality=1
$GPRMC,201808.500,A,4305.2581,N,07740.8048,W,20.32,86.70,060924,,,A*75
$GPGGA,201808.750,4305.2582,N,07740.8029,W,1,09,0.95,168.5,M,-34.4,M,,*56
lng=-77.680076, lat=43.087638, altitude=168.50, speed=20.32, satellites=8, angle=86.7000, fixquality=1
$GPRMC,201809.000,A,4305.2582,N,07740.8010,W,19.53,86.97,060924,,,A*7B
$GPGGA,201809.250,4305.2581,N,07740.7992,W,1,09,0.94,168.5,M,-34.4,M,,*56
lng=-77.680015, lat=43.087638, altitude=168.50, speed=19.53, satellites=9, angle=86.9700, fixquality=1
$GPRMC,201809.500,A,4305.2581,N,07740.7973,W,18.83,87.72,060924,,,A*78
$GPGGA,201809.750,4305.2581,N,07740.7955,W,1,08,1.13,168.5,M,-34.4,M,,*57
lng=-77.679954, lat=43.087638, altitude=168.50, speed=18.83, satellites=9, angle=87.7200, fixquality=1
$GPRMC,201810.000,A,4305.2580,N,07740.7936,W,18.75,89.21,060924,,,A*74
$GPGGA,201810.250,4305.2579,N,07740.7918,W,1,09,0.95,168.5,M,-34.4,M,,*5A
lng=-77.679893, lat=43.087631, altitude=168.50, speed=18.75, satellites=8, angle=89.2100, fixquality=1
$GPRMC,201810.500,A,4305.2579,N,07740.7900,W,18.51,88.35,060924,,,A*70
$GPGGA,201810.750,4305.2579,N,07740.7882,W,1,09,0.95,168.5,M,-34.4,M,,*5D
lng=-77.679832, lat=43.087631, altitude=168.50, speed=18.51, satellites=9, angle=88.3500, fixquality=1
$GPRMC,201811.000,A,4305.2578,N,07740.7865,W,17.97,88.38,060924,,,A*7F
$GPGGA,201811.250,4305.2578,N,07740.7848,W,1,09,0.95,168.4,M,-34.4,M,,*5F
lng=-77.679779, lat=43.087631, altitude=168.50, speed=17.97, satellites=9, angle=88.3800, fixquality=1
$GPRMC,201811.500,A,4305.2578,N,07740.7830,W,18.19,90.16,060924,,,A*76
$GPGGA,201811.750,4305.2578,N,07740.7813,W,1,09,0.95,168.4,M,-34.4,M,,*54
lng=-77.679718, lat=43.087631, altitude=168.40, speed=18.19, satellites=9, angle=90.1600, fixquality=1
$GPRMC,201812.000,A,4305.2578,N,07740.7796,W,17.95,90.14,060924,,,A*7A
$GPGGA,201812.250,4305.2578,N,07740.7780,W,1,09,0.94,168.4,M,-34.4,M,,*56
lng=-77.679664, lat=43.087631, altitude=168.40, speed=17.95, satellites=9, angle=90.1400, fixquality=1
$GPRMC,201812.500,A,4305.2578,N,07740.7764,W,16.89,90.01,060924,,,A*7A
$GPGGA,201812.750,4305.2578,N,07740.7748,W,1,09,0.94,168.4,M,-34.4,M,,*57
lng=-77.679603, lat=43.087631, altitude=168.40, speed=16.89, satellites=9, angle=90.0100, fixquality=1
$GPRMC,201813.000,A,4305.2578,N,07740.7735,W,15.14,91.80,060924,,,A*75
$GPGGA,201813.250,4305.2578,N,07740.7720,W,1,09,0.95,168.8,M,-34.4,M,,*50
lng=-77.679557, lat=43.087631, altitude=168.40, speed=15.14, satellites=9, angle=91.8000, fixquality=1
$GPRMC,201813.500,A,4305.2579,N,07740.7707,W,13.39,90.10,060924,,,A*71
$GPGGA,201813.750,4305.2579,N,07740.7694,W,1,08,1.13,168.5,M,-34.4,M,,*59
lng=-77.679512, lat=43.087631, altitude=168.80, speed=13.39, satellites=9, angle=90.1000, fixquality=1
$GPRMC,201814.000,A,4305.2579,N,07740.7682,W,11.20,88.72,060924,,,A*78
$GPGGA,201814.250,4305.2579,N,07740.7671,W,1,08,1.14,168.3,M,-34.4,M,,*51
lng=-77.679466, lat=43.087631, altitude=168.50, speed=11.20, satellites=8, angle=88.7200, fixquality=1
$GPRMC,201814.500,A,4305.2579,N,07740.7662,W,9.26,88.52,060924,,,A*4E
$GPGGA,201814.750,4305.2579,N,07740.7653,W,1,09,0.94,168.3,M,-34.4,M,,*5C
lng=-77.679435, lat=43.087631, altitude=168.30, speed=9.26, satellites=8, angle=88.5200, fixquality=1
$GPRMC,201815.000,A,4305.2579,N,07740.7644,W,8.83,90.24,060924,,,A*48
$GPGGA,201815.250,4305.2578,N,07740.7635,W,1,09,0.95,168.1,M,-34.4,M,,*5A
lng=-77.679405, lat=43.087631, altitude=168.30, speed=8.83, satellites=9, angle=90.2400, fixquality=1
$GPRMC,201815.500,A,4305.2578,N,07740.7626,W,9.00,88.57,060924,,,A*4F
$GPGGA,201815.750,4305.2578,N,07740.7617,W,1,09,0.94,168.0,M,-34.4,M,,*5F
lng=-77.679374, lat=43.087631, altitude=168.10, speed=9.00, satellites=9, angle=88.5700, fixquality=1
$GPRMC,201816.000,A,4305.2578,N,07740.7607,W,10.03,89.16,060924,,,A*75
$GPGGA,201816.250,4305.2578,N,07740.7597,W,1,09,0.95,167.9,M,-34.4,M,,*55
lng=-77.679344, lat=43.087631, altitude=168.00, speed=10.03, satellites=9, angle=89.1600, fixquality=1
$GPRMC,201816.500,A,4305.2578,N,07740.7586,W,10.93,88.23,060924,,,A*74
$GPGGA,201816.750,4305.2578,N,07740.7575,W,1,09,0.94,167.9,M,-34.4,M,,*5D
lng=-77.679313, lat=43.087631, altitude=167.90, speed=10.93, satellites=9, angle=88.2300, fixquality=1
$GPRMC,201817.000,A,4305.2577,N,07740.7564,W,11.99,89.78,060924,,,A*77
$GPGGA,201817.250,4305.2576,N,07740.7552,W,1,09,0.95,167.5,M,-34.4,M,,*5F
lng=-77.679275, lat=43.087631, altitude=167.90, speed=11.99, satellites=9, angle=89.7800, fixquality=1
$GPRMC,201817.500,A,4305.2576,N,07740.7540,W,13.02,89.93,060924,,,A*70
$GPGGA,201817.750,4305.2576,N,07740.7528,W,1,09,0.94,167.7,M,-34.4,M,,*54
lng=-77.679229, lat=43.087631, altitude=167.50, speed=13.02, satellites=9, angle=89.9300, fixquality=1
$GPRMC,201818.000,A,4305.2576,N,07740.7515,W,13.47,88.94,060924,,,A*7D
$GPGGA,201818.250,4305.2576,N,07740.7502,W,1,09,0.94,167.7,M,-34.4,M,,*56
lng=-77.679191, lat=43.087631, altitude=167.70, speed=13.47, satellites=9, angle=88.9400, fixquality=1
$GPRMC,201818.500,A,4305.2576,N,07740.7489,W,14.02,88.16,060924,,,A*70
$GPGGA,201818.750,4305.2576,N,07740.7475,W,1,09,0.95,167.6,M,-34.4,M,,*52
lng=-77.679153, lat=43.087631, altitude=167.70, speed=14.02, satellites=9, angle=88.1600, fixquality=1
$GPRMC,201819.000,A,4305.2576,N,07740.7461,W,14.85,88.97,060924,,,A*74
$GPGGA,201819.250,4305.2577,N,07740.7447,W,1,09,0.94,167.6,M,-34.4,M,,*57
lng=-77.679100, lat=43.087631, altitude=167.60, speed=14.85, satellites=9, angle=88.9700, fixquality=1
$GPRMC,201819.500,A,4305.2577,N,07740.7433,W,15.41,88.99,060924,,,A*70
$GPGGA,201819.750,4305.2577,N,07740.7418,W,1,08,1.13,167.6,M,-34.4,M,,*57
lng=-77.679054, lat=43.087631, altitude=167.60, speed=15.41, satellites=9, angle=88.9900, fixquality=1
$GPRMC,201820.000,A,4305.2577,N,07740.7403,W,15.83,88.24,060924,,,A*74
$GPGGA,201820.250,4305.2578,N,07740.7388,W,1,08,1.14,167.6,M,-34.4,M,,*5E
lng=-77.679000, lat=43.087631, altitude=167.60, speed=15.83, satellites=8, angle=88.2400, fixquality=1
$GPRMC,201820.500,A,4305.2579,N,07740.7372,W,16.42,88.66,060924,,,A*76
$GPGGA,201820.750,4305.2579,N,07740.7356,W,1,09,0.94,167.5,M,-34.4,M,,*52
lng=-77.678955, lat=43.087631, altitude=167.60, speed=16.42, satellites=8, angle=88.6600, fixquality=1
$GPRMC,201821.000,A,4305.2579,N,07740.7340,W,17.10,89.83,060924,,,A*7F
$GPGGA,201821.250,4305.2579,N,07740.7323,W,1,09,0.95,167.5,M,-34.4,M,,*55
lng=-77.678901, lat=43.087631, altitude=167.50, speed=17.10, satellites=9, angle=89.8300, fixquality=1
$GPRMC,201821.500,A,4305.2579,N,07740.7307,W,17.43,89.49,060924,,,A*79
$GPGGA,201821.750,4305.2579,N,07740.7290,W,1,09,0.94,167.6,M,-34.4,M,,*5B
lng=-77.678840, lat=43.087631, altitude=167.50, speed=17.43, satellites=9, angle=89.4900, fixquality=1
$GPRMC,201822.000,A,4305.2580,N,07740.7272,W,17.84,89.52,060924,,,A*7B
$GPGGA,201822.250,4305.2580,N,07740.7255,W,1,09,0.94,167.6,M,-34.4,M,,*52
lng=-77.678787, lat=43.087631, altitude=167.60, speed=17.84, satellites=9, angle=89.5200, fixquality=1
$GPRMC,201822.500,A,4305.2581,N,07740.7237,W,18.43,89.56,060924,,,A*7E
$GPGGA,201822.750,4305.2581,N,07740.7220,W,1,09,0.95,167.6,M,-34.4,M,,*55
lng=-77.678726, lat=43.087638, altitude=167.60, speed=18.43, satellites=9, angle=89.5600, fixquality=1
$GPRMC,201823.000,A,4305.2581,N,07740.7202,W,18.89,89.70,060924,,,A*7E
$GPGGA,201823.250,4305.2581,N,07740.7184,W,1,09,0.95,167.7,M,-34.4,M,,*5D
lng=-77.678672, lat=43.087638, altitude=167.60, speed=18.89, satellites=9, angle=89.7000, fixquality=1
$GPRMC,201823.500,A,4305.2582,N,07740.7166,W,19.17,89.11,060924,,,A*78
$GPGGA,201823.750,4305.2582,N,07740.7148,W,1,09,0.95,167.7,M,-34.4,M,,*5B
lng=-77.678611, lat=43.087638, altitude=167.70, speed=19.17, satellites=9, angle=89.1100, fixquality=1
$GPRMC,201824.000,A,4305.2582,N,07740.7129,W,19.19,88.54,060924,,,A*7F
$GPGGA,201824.250,4305.2582,N,07740.7111,W,1,09,0.94,167.7,M,-34.4,M,,*54
lng=-77.678550, lat=43.087638, altitude=167.70, speed=19.19, satellites=9, angle=88.5400, fixquality=1
$GPRMC,201824.500,A,4305.2582,N,07740.7093,W,19.30,88.81,060924,,,A*79
$GPGGA,201824.750,4305.2583,N,07740.7074,W,1,09,0.95,167.7,M,-34.4,M,,*53
lng=-77.678489, lat=43.087638, altitude=167.70, speed=19.30, satellites=9, angle=88.8100, fixquality=1
$GPRMC,201825.000,A,4305.2583,N,07740.7056,W,19.48,88.56,060924,,,A*70
$GPGGA,201825.250,4305.2583,N,07740.7037,W,1,09,0.95,167.7,M,-34.4,M,,*50
lng=-77.678428, lat=43.087638, altitude=167.70, speed=19.48, satellites=9, angle=88.5600, fixquality=1
$GPRMC,201825.500,A,4305.2584,N,07740.7019,W,19.44,88.94,060924,,,A*7B
$GPGGA,201825.750,4305.2584,N,07740.7001,W,1,09,0.95,167.9,M,-34.4,M,,*59
lng=-77.678359, lat=43.087638, altitude=167.70, speed=19.44, satellites=9, angle=88.9400, fixquality=1
$GPRMC,201826.000,A,4305.2585,N,07740.6983,W,19.51,88.65,060924,,,A*7D
$GPGGA,201826.250,4305.2585,N,07740.6964,W,1,09,0.95,167.9,M,-34.4,M,,*55
lng=-77.678306, lat=43.087638, altitude=167.90, speed=19.51, satellites=9, angle=88.6500, fixquality=1
$GPRMC,201826.500,A,4305.2585,N,07740.6946,W,19.53,88.76,060924,,,A*71
$GPGGA,201826.750,4305.2586,N,07740.6927,W,1,09,0.95,167.9,M,-34.4,M,,*54
lng=-77.678245, lat=43.087638, altitude=167.90, speed=19.53, satellites=9, angle=88.7600, fixquality=1
$GPRMC,201827.000,A,4305.2586,N,07740.6909,W,19.26,88.62,060924,,,A*7A
$GPGGA,201827.250,4305.2587,N,07740.6891,W,1,08,1.14,167.9,M,-34.4,M,,*54
lng=-77.678184, lat=43.087646, altitude=167.90, speed=19.26, satellites=9, angle=88.6200, fixquality=1
$GPRMC,201827.500,A,4305.2587,N,07740.6873,W,18.76,88.46,060924,,,A*70
$GPGGA,201827.750,4305.2587,N,07740.6855,W,1,09,0.95,167.9,M,-34.4,M,,*50
lng=-77.678123, lat=43.087646, altitude=167.90, speed=18.76, satellites=8, angle=88.4600, fixquality=1
$GPRMC,201828.000,A,4305.2588,N,07740.6838,W,18.28,88.07,060924,,,A*74
$GPGGA,201828.250,4305.2588,N,07740.6820,W,1,09,0.95,168.0,M,-34.4,M,,*51
lng=-77.678062, lat=43.087646, altitude=167.90, speed=18.28, satellites=9, angle=88.0700, fixquality=1
$GPRMC,201828.500,A,4305.2588,N,07740.6803,W,17.93,87.19,060924,,,A*76
$GPGGA,201828.750,4305.2589,N,07740.6786,W,1,09,0.95,168.0,M,-34.4,M,,*56
lng=-77.678001, lat=43.087646, altitude=168.00, speed=17.93, satellites=9, angle=87.1900, fixquality=1
$GPRMC,201829.000,A,4305.2589,N,07740.6770,W,17.78,89.33,060924,,,A*7B
$GPGGA,201829.250,4305.2589,N,07740.6753,W,1,09,0.94,168.0,M,-34.4,M,,*5B
lng=-77.677947, lat=43.087646, altitude=168.00, speed=17.78, satellites=9, angle=89.3300, fixquality=1
$GPRMC,201829.500,A,4305.2589,N,07740.6736,W,17.68,91.42,060924,,,A*72
$GPGGA,201829.750,4305.2589,N,07740.6720,W,1,09,0.94,168.0,M,-34.4,M,,*5A
lng=-77.677894, lat=43.087646, altitude=168.00, speed=17.68, satellites=9, angle=91.4200, fixquality=1
$GPRMC,201830.000,A,4305.2588,N,07740.6703,W,17.31,91.77,060924,,,A*72
$GPGGA,201830.250,4305.2589,N,07740.6688,W,1,09,0.95,168.1,M,-34.4,M,,*54
lng=-77.677841, lat=43.087646, altitude=168.00, speed=17.31, satellites=9, angle=91.7700, fixquality=1
$GPRMC,201830.500,A,4305.2589,N,07740.6673,W,16.69,90.07,060924,,,A*7A
$GPGGA,201830.750,4305.2590,N,07740.6658,W,1,09,0.94,168.2,M,-34.4,M,,*56
lng=-77.677787, lat=43.087646, altitude=168.10, speed=16.69, satellites=9, angle=90.0700, fixquality=1
$GPRMC,201831.000,A,4305.2591,N,07740.6644,W,16.24,88.01,060924,,,A*75
$GPGGA,201831.250,4305.2591,N,07740.6629,W,1,09,0.94,168.4,M,-34.4,M,,*53
lng=-77.677742, lat=43.087654, altitude=168.20, speed=16.24, satellites=9, angle=88.0100, fixquality=1
$GPRMC,201831.500,A,4305.2591,N,07740.6615,W,15.85,88.92,060924,,,A*76
$GPGGA,201831.750,4305.2591,N,07740.6601,W,1,08,1.06,168.4,M,-34.4,M,,*57
lng=-77.677696, lat=43.087654, altitude=168.40, speed=15.85, satellites=9, angle=88.9200, fixquality=1
$GPRMC,201832.000,A,4305.2591,N,07740.6586,W,15.44,88.53,060924,,,A*79
$GPGGA,201832.250,4305.2592,N,07740.6572,W,1,09,0.95,168.5,M,-34.4,M,,*5E
lng=-77.677642, lat=43.087654, altitude=168.40, speed=15.44, satellites=8, angle=88.5300, fixquality=1
$GPRMC,201832.500,A,4305.2592,N,07740.6558,W,15.07,88.57,060924,,,A*7F
$GPGGA,201832.750,4305.2592,N,07740.6544,W,1,09,0.95,168.5,M,-34.4,M,,*5E
lng=-77.677597, lat=43.087654, altitude=168.50, speed=15.07, satellites=9, angle=88.5700, fixquality=1
$GPRMC,201833.000,A,4305.2592,N,07740.6530,W,14.80,88.35,060924,,,A*7F
$GPGGA,201833.250,4305.2592,N,07740.6516,W,1,08,1.06,168.6,M,-34.4,M,,*54
lng=-77.677543, lat=43.087654, altitude=168.50, speed=14.80, satellites=9, angle=88.3500, fixquality=1
$GPRMC,201833.500,A,4305.2592,N,07740.6503,W,14.37,87.64,060924,,,A*7D
$GPGGA,201833.750,4305.2592,N,07740.6490,W,1,09,0.94,168.6,M,-34.4,M,,*55
lng=-77.677505, lat=43.087654, altitude=168.60, speed=14.37, satellites=8, angle=87.6400, fixquality=1
$GPRMC,201834.000,A,4305.2592,N,07740.6477,W,13.99,85.40,060924,,,A*7A
$GPGGA,201834.250,4305.2592,N,07740.6464,W,1,08,1.06,168.7,M,-34.4,M,,*56
lng=-77.677459, lat=43.087654, altitude=168.60, speed=13.99, satellites=9, angle=85.4000, fixquality=1
$GPRMC,201834.500,A,4305.2591,N,07740.6451,W,13.71,87.65,060924,,,A*7B
$GPGGA,201834.750,4305.2592,N,07740.6438,W,1,08,1.06,168.7,M,-34.4,M,,*5A
lng=-77.677413, lat=43.087654, altitude=168.70, speed=13.71, satellites=8, angle=87.6500, fixquality=1
$GPRMC,201835.000,A,4305.2592,N,07740.6426,W,13.43,87.65,060924,,,A*7D
$GPGGA,201835.250,4305.2593,N,07740.6413,W,1,09,0.94,168.7,M,-34.4,M,,*5D
lng=-77.677375, lat=43.087654, altitude=168.70, speed=13.43, satellites=8, angle=87.6500, fixquality=1
$GPRMC,201835.500,A,4305.2593,N,07740.6401,W,13.03,87.36,060924,,,A*7E
$GPGGA,201835.750,4305.2593,N,07740.6389,W,1,09,0.94,168.8,M,-34.4,M,,*53
lng=-77.677337, lat=43.087654, altitude=168.70, speed=13.03, satellites=9, angle=87.3600, fixquality=1
$GPRMC,201836.000,A,4305.2593,N,07740.6377,W,11.97,88.65,060924,,,A*78
$GPGGA,201836.250,4305.2592,N,07740.6366,W,1,09,0.94,168.9,M,-34.4,M,,*54
lng=-77.677291, lat=43.087654, altitude=168.80, speed=11.97, satellites=9, angle=88.6500, fixquality=1
$GPRMC,201836.500,A,4305.2593,N,07740.6355,W,10.81,89.82,060924,,,A*73
$GPGGA,201836.750,4305.2593,N,07740.6345,W,1,09,0.95,169.0,M,-34.4,M,,*58
lng=-77.677261, lat=43.087654, altitude=168.90, speed=10.81, satellites=9, angle=89.8200, fixquality=1
$GPRMC,201837.000,A,4305.2593,N,07740.6335,W,10.44,90.71,060924,,,A*7C
$GPGGA,201837.250,4305.2593,N,07740.6326,W,1,09,0.95,169.0,M,-34.4,M,,*59
lng=-77.677223, lat=43.087654, altitude=169.00, speed=10.44, satellites=9, angle=90.7100, fixquality=1
$GPRMC,201837.500,A,4305.2592,N,07740.6316,W,10.03,89.87,060924,,,A*7B
$GPGGA,201837.750,4305.2592,N,07740.6306,W,1,09,0.94,169.0,M,-34.4,M,,*5E
lng=-77.677200, lat=43.087654, altitude=169.00, speed=10.03, satellites=9, angle=89.8700, fixquality=1
$GPRMC,201838.000,A,4305.2592,N,07740.6297,W,9.64,89.90,060924,,,A*46
$GPGGA,201838.250,4305.2592,N,07740.6287,W,1,09,0.95,169.0,M,-34.4,M,,*5D
lng=-77.677162, lat=43.087654, altitude=169.00, speed=9.64, satellites=9, angle=89.9000, fixquality=1
$GPRMC,201838.500,A,4305.2593,N,07740.6278,W,9.43,88.81,060924,,,A*47
$GPGGA,201838.750,4305.2594,N,07740.6269,W,1,09,0.95,169.0,M,-34.4,M,,*5E
lng=-77.677131, lat=43.087654, altitude=169.00, speed=9.43, satellites=9, angle=88.8100, fixquality=1
$GPRMC,201839.000,A,4305.2595,N,07740.6260,W,9.21,88.82,060924,,,A*4B
$GPGGA,201839.250,4305.2595,N,07740.6252,W,1,09,0.94,169.1,M,-34.4,M,,*53
lng=-77.677101, lat=43.087654, altitude=169.00, speed=9.21, satellites=9, angle=88.8200, fixquality=1
$GPRMC,201839.500,A,4305.2596,N,07740.6243,W,8.87,88.94,060924,,,A*46
$GPGGA,201839.750,4305.2596,N,07740.6235,W,1,09,0.95,169.0,M,-34.4,M,,*54
lng=-77.677078, lat=43.087661, altitude=169.10, speed=8.87, satellites=9, angle=88.9400, fixquality=1
$GPRMC,201840.000,A,4305.2596,N,07740.6227,W,8.18,90.49,060924,,,A*40
$GPGGA,201840.250,4305.2595,N,07740.6219,W,1,09,0.94,169.0,M,-34.4,M,,*53
lng=-77.677040, lat=43.087661, altitude=169.00, speed=8.18, satellites=9, angle=90.4900, fixquality=1
$GPRMC,201840.500,A,4305.2595,N,07740.6212,W,6.64,91.07,060924,,,A*4E
$GPGGA,201840.750,4305.2595,N,07740.6207,W,1,09,0.94,169.0,M,-34.4,M,,*59
lng=-77.677017, lat=43.087654, altitude=169.00, speed=6.64, satellites=9, angle=91.0700, fixquality=1
$GPRMC,201841.000,A,4305.2595,N,07740.6202,W,5.12,89.81,060924,,,A*4E
$GPGGA,201841.250,4305.2595,N,07740.6197,W,1,08,1.06,169.1,M,-34.4,M,,*5D
lng=-77.677001, lat=43.087654, altitude=169.00, speed=5.12, satellites=9, angle=89.8100, fixquality=1
$GPRMC,201841.500,A,4305.2595,N,07740.6193,W,4.12,88.60,060924,,,A*4F
$GPGGA,201841.750,4305.2595,N,07740.6190,W,1,08,1.06,169.1,M,-34.4,M,,*5F
lng=-77.676986, lat=43.087654, altitude=169.10, speed=4.12, satellites=8, angle=88.6000, fixquality=1
$GPRMC,201842.000,A,4305.2595,N,07740.6186,W,3.65,85.18,060924,,,A*48
$GPGGA,201842.250,4305.2595,N,07740.6183,W,1,08,1.05,169.1,M,-34.4,M,,*58
lng=-77.676979, lat=43.087654, altitude=169.10, speed=3.65, satellites=8, angle=85.1800, fixquality=1
$GPRMC,201842.500,A,4305.2595,N,07740.6180,W,3.26,90.72,060924,,,A*44
$GPGGA,201842.750,4305.2595,N,07740.6177,W,1,09,0.94,169.1,M,-34.4,M,,*5E
lng=-77.676971, lat=43.087654, altitude=169.10, speed=3.26, satellites=8, angle=90.7200, fixquality=1
$GPRMC,201843.000,A,4305.2595,N,07740.6175,W,2.77,89.70,060924,,,A*45
$GPGGA,201843.250,4305.2595,N,07740.6172,W,1,09,0.94,169.1,M,-34.4,M,,*5F
lng=-77.676963, lat=43.087654, altitude=169.10, speed=2.77, satellites=9, angle=89.7000, fixquality=1
$GPRMC,201843.500,A,4305.2594,N,07740.6170,W,2.12,89.70,060924,,,A*47
$GPGGA,201843.750,4305.2594,N,07740.6168,W,1,09,0.94,169.2,M,-34.4,M,,*53
lng=-77.676956, lat=43.087654, altitude=169.10, speed=2.12, satellites=9, angle=89.7000, fixquality=1
$GPGGA,201844.750,4305.2594,N,07740.6164,W,1,09,0.94,169.2,M,-34.4,M,,*58
$GPRMC,201844.750,A,4305.2594,N,07740.6164,W,1.51,89.70,060924,,,A*46
lng=-77.676933, lat=43.087654, altitude=169.20, speed=1.28, satellites=9, angle=89.7000, fixquality=1
$GPGGA,201845.000,4305.2594,N,07740.6163,W,1,09,0.94,169.2,M,-34.4,M,,*5C
$GPRMC,201845.000,A,4305.2594,N,07740.6163,W,2.16,89.70,060924,,,A*42
lng=-77.676933, lat=43.087654, altitude=169.20, speed=1.51, satellites=9, angle=89.7000, fixquality=1
$GPRMC,201845.250,A,4305.2594,N,07740.6160,W,2.76,89.70,060924,,,A*40
$GPGGA,201845.500,4305.2594,N,07740.6158,W,1,09,0.94,169.1,M,-34.4,M,,*52
lng=-77.676933, lat=43.087654, altitude=169.10, speed=2.76, satellites=9, angle=89.7000, fixquality=1
$GPRMC,201845.750,A,4305.2594,N,07740.6154,W,4.32,90.28,060924,,,A*41
$GPGGA,201846.000,4305.2594,N,07740.6150,W,1,09,0.95,169.1,M,-34.4,M,,*5D
lng=-77.676918, lat=43.087654, altitude=169.10, speed=4.32, satellites=9, angle=90.2800, fixquality=1
$GPRMC,201846.250,A,4305.2595,N,07740.6146,W,5.65,89.67,060924,,,A*45
$GPGGA,201846.500,4305.2596,N,07740.6140,W,1,09,0.95,169.3,M,-34.4,M,,*59
lng=-77.676910, lat=43.087654, altitude=169.10, speed=5.65, satellites=9, angle=89.6700, fixquality=1
$GPRMC,201846.750,A,4305.2597,N,07740.6134,W,7.06,89.98,060924,,,A*40
$GPGGA,201847.000,4305.2597,N,07740.6127,W,1,09,0.95,169.3,M,-34.4,M,,*5D
lng=-77.676887, lat=43.087661, altitude=169.30, speed=7.06, satellites=9, angle=89.9800, fixquality=1
$GPRMC,201847.250,A,4305.2597,N,07740.6120,W,8.28,89.39,060924,,,A*49
$GPGGA,201847.500,4305.2597,N,07740.6112,W,1,09,0.95,169.2,M,-34.4,M,,*5F
lng=-77.676864, lat=43.087661, altitude=169.30, speed=8.28, satellites=9, angle=89.3900, fixquality=1
$GPRMC,201847.750,A,4305.2597,N,07740.6104,W,9.29,89.75,060924,,,A*42
$GPGGA,201848.000,4305.2598,N,07740.6095,W,1,09,0.94,169.2,M,-34.4,M,,*55
lng=-77.676841, lat=43.087661, altitude=169.20, speed=9.29, satellites=9, angle=89.7500, fixquality=1
$GPRMC,201848.250,A,4305.2598,N,07740.6086,W,10.38,88.97,060924,,,A*79
$GPGGA,201848.500,4305.2598,N,07740.6076,W,1,08,1.06,169.2,M,-34.4,M,,*56
lng=-77.676803, lat=43.087661, altitude=169.20, speed=10.38, satellites=9, angle=88.9700, fixquality=1
$GPRMC,201848.750,A,4305.2598,N,07740.6065,W,11.27,87.63,060924,,,A*7A
$GPGGA,201849.000,4305.2599,N,07740.6055,W,1,08,1.06,169.2,M,-34.4,M,,*52
lng=-77.676773, lat=43.087661, altitude=169.20, speed=11.27, satellites=8, angle=87.6300, fixquality=1
$GPRMC,201849.250,A,4305.2599,N,07740.6043,W,12.15,87.71,060924,,,A*7A
$GPGGA,201849.500,4305.2599,N,07740.6031,W,1,08,1.06,169.2,M,-34.4,M,,*55
lng=-77.676742, lat=43.087661, altitude=169.20, speed=12.15, satellites=8, angle=87.7100, fixquality=1
$GPRMC,201849.750,A,4305.2599,N,07740.6020,W,12.76,88.16,060924,,,A*71
$GPGGA,201850.000,4305.2599,N,07740.6007,W,1,09,0.95,169.2,M,-34.4,M,,*57
lng=-77.676704, lat=43.087661, altitude=169.20, speed=12.76, satellites=8, angle=88.1600, fixquality=1
$GPRMC,201850.250,A,4305.2599,N,07740.5995,W,13.26,87.96,060924,,,A*7B
$GPGGA,201850.500,4305.2599,N,07740.5982,W,1,09,0.95,169.2,M,-34.4,M,,*55
lng=-77.676658, lat=43.087661, altitude=169.20, speed=13.26, satellites=9, angle=87.9600, fixquality=1
$GPRMC,201850.750,A,4305.2600,N,07740.5969,W,13.87,87.59,060924,,,A*76
$GPGGA,201851.000,4305.2600,N,07740.5956,W,1,09,0.95,169.3,M,-34.4,M,,*5A
lng=-77.676612, lat=43.087661, altitude=169.20, speed=13.87, satellites=9, angle=87.5900, fixquality=1
$GPRMC,201851.250,A,4305.2600,N,07740.5942,W,14.33,87.91,060924,,,A*77
$GPGGA,201851.500,4305.2600,N,07740.5928,W,1,09,0.94,169.3,M,-34.4,M,,*57
lng=-77.676567, lat=43.087661, altitude=169.30, speed=14.33, satellites=9, angle=87.9100, fixquality=1
$GPRMC,201851.750,A,4305.2601,N,07740.5914,W,14.97,87.55,060924,,,A*76
$GPGGA,201852.000,4305.2601,N,07740.5899,W,1,09,0.94,169.3,M,-34.4,M,,*5B
lng=-77.676521, lat=43.087669, altitude=169.30, speed=14.97, satellites=9, angle=87.5500, fixquality=1
$GPRMC,201852.250,A,4305.2602,N,07740.5884,W,15.52,88.14,060924,,,A*79
$GPGGA,201852.500,4305.2602,N,07740.5869,W,1,09,0.94,169.3,M,-34.4,M,,*52
lng=-77.676475, lat=43.087669, altitude=169.30, speed=15.52, satellites=9, angle=88.1400, fixquality=1
$GPRMC,201852.750,A,4305.2603,N,07740.5854,W,15.96,88.04,060924,,,A*79
$GPGGA,201853.000,4305.2603,N,07740.5839,W,1,09,0.94,169.4,M,-34.4,M,,*55
lng=-77.676422, lat=43.087669, altitude=169.30, speed=15.96, satellites=9, angle=88.0400, fixquality=1
$GPRMC,201853.250,A,4305.2604,N,07740.5823,W,16.49,87.86,060924,,,A*7E
$GPGGA,201853.500,4305.2604,N,07740.5807,W,1,09,0.94,169.4,M,-34.4,M,,*5A
lng=-77.676376, lat=43.087669, altitude=169.40, speed=16.49, satellites=9, angle=87.8600, fixquality=1
$GPRMC,201853.750,A,4305.2605,N,07740.5790,W,16.83,88.23,060924,,,A*7B
$GPGGA,201854.000,4305.2605,N,07740.5773,W,1,09,0.94,169.3,M,-34.4,M,,*52
lng=-77.676315, lat=43.087680, altitude=169.40, speed=16.83, satellites=9, angle=88.2300, fixquality=1
$GPRMC,201854.250,A,4305.2605,N,07740.5756,W,17.28,88.20,060924,,,A*70
$GPGGA,201854.500,4305.2606,N,07740.5739,W,1,09,0.95,169.3,M,-34.4,M,,*5B
lng=-77.676261, lat=43.087680, altitude=169.30, speed=17.28, satellites=9, angle=88.2000, fixquality=1
$GPRMC,201854.750,A,4305.2606,N,07740.5722,W,17.70,88.43,060924,,,A*7D
$GPGGA,201855.000,4305.2606,N,07740.5705,W,1,09,0.94,169.3,M,-34.4,M,,*51
lng=-77.676200, lat=43.087680, altitude=169.30, speed=17.70, satellites=9, angle=88.4300, fixquality=1
$GPRMC,201855.250,A,4305.2606,N,07740.5687,W,18.03,89.01,060924,,,A*7B
$GPGGA,201855.500,4305.2606,N,07740.5670,W,1,09,0.94,169.3,M,-34.4,M,,*57
lng=-77.676147, lat=43.087680, altitude=169.30, speed=18.03, satellites=9, angle=89.0100, fixquality=1
$GPRMC,201855.750,A,4305.2607,N,07740.5653,W,18.24,88.74,060924,,,A*70
$GPGGA,201856.000,4305.2607,N,07740.5635,W,1,09,0.94,169.3,M,-34.4,M,,*51
lng=-77.676094, lat=43.087680, altitude=169.30, speed=18.24, satellites=9, angle=88.7400, fixquality=1
$GPRMC,201856.250,A,4305.2607,N,07740.5617,W,18.19,88.23,060924,,,A*7A
$GPGGA,201856.500,4305.2608,N,07740.5600,W,1,09,0.95,169.3,M,-34.4,M,,*5C
lng=-77.676025, lat=43.087680, altitude=169.30, speed=18.19, satellites=9, angle=88.2300, fixquality=1
$GPRMC,201856.750,A,4305.2608,N,07740.5583,W,17.78,89.31,060924,,,A*74
$GPGGA,201857.000,4305.2608,N,07740.5566,W,1,09,0.94,169.3,M,-34.4,M,,*5A
lng=-77.675971, lat=43.087680, altitude=169.30, speed=17.78, satellites=9, angle=89.3100, fixquality=1
$GPRMC,201857.250,A,4305.2609,N,07740.5549,W,17.57,90.13,060924,,,A*72
$GPGGA,201857.500,4305.2609,N,07740.5532,W,1,09,0.94,169.2,M,-34.4,M,,*5E
lng=-77.675910, lat=43.087680, altitude=169.30, speed=17.57, satellites=9, angle=90.1300, fixquality=1
$GPRMC,201857.750,A,4305.2608,N,07740.5516,W,17.17,89.69,060924,,,A*7D
$GPGGA,201858.000,4305.2608,N,07740.5500,W,1,09,0.94,169.1,M,-34.4,M,,*57
lng=-77.675865, lat=43.087680, altitude=169.20, speed=17.17, satellites=9, angle=89.6900, fixquality=1
$GPRMC,201858.250,A,4305.2608,N,07740.5484,W,16.80,90.02,060924,,,A*77
$GPGGA,201858.500,4305.2608,N,07740.5468,W,1,09,0.94,169.1,M,-34.4,M,,*5D
lng=-77.675804, lat=43.087680, altitude=169.10, speed=16.80, satellites=9, angle=90.0200, fixquality=1
$GPRMC,201858.750,A,4305.2608,N,07740.5452,W,16.45,89.10,060924,,,A*7B
$GPGGA,201859.000,4305.2608,N,07740.5436,W,1,09,0.94,169.2,M,-34.4,M,,*51
lng=-77.675758, lat=43.087680, altitude=169.10, speed=16.45, satellites=9, angle=89.1000, fixquality=1
$GPRMC,201859.250,A,4305.2608,N,07740.5421,W,16.02,89.77,060924,,,A*79
$GPGGA,201859.500,4305.2608,N,07740.5406,W,1,09,0.95,169.1,M,-34.4,M,,*55
lng=-77.675697, lat=43.087680, altitude=169.20, speed=16.02, satellites=9, angle=89.7700, fixquality=1
$GPRMC,201859.750,A,4305.2608,N,07740.5390,W,15.72,89.87,060924,,,A*7A
$GPGGA,201900.000,4305.2608,N,07740.5375,W,1,09,0.95,169.1,M,-34.4,M,,*5E
lng=-77.675651, lat=43.087680, altitude=169.10, speed=15.72, satellites=9, angle=89.8700, fixquality=1
$GPRMC,201900.250,A,4305.2608,N,07740.5360,W,15.31,89.25,060924,,,A*72
$GPGGA,201900.500,4305.2608,N,07740.5346,W,1,09,0.94,169.2,M,-34.4,M,,*59
lng=-77.675605, lat=43.087680, altitude=169.10, speed=15.31, satellites=9, angle=89.2500, fixquality=1
$GPRMC,201900.750,A,4305.2608,N,07740.5332,W,14.94,92.28,060924,,,A*79
$GPGGA,201901.000,4305.2608,N,07740.5318,W,1,09,0.94,169.3,M,-34.4,M,,*57
lng=-77.675552, lat=43.087680, altitude=169.20, speed=14.94, satellites=9, angle=92.2800, fixquality=1
$GPRMC,201901.250,A,4305.2608,N,07740.5304,W,14.59,87.74,060924,,,A*74
$GPGGA,201901.500,4305.2608,N,07740.5290,W,1,08,1.06,169.4,M,-34.4,M,,*5F
lng=-77.675506, lat=43.087680, altitude=169.30, speed=14.59, satellites=9, angle=87.7400, fixquality=1
$GPRMC,201901.750,A,4305.2609,N,07740.5275,W,14.29,86.69,060924,,,A*7D
$GPGGA,201902.000,4305.2610,N,07740.5262,W,1,09,0.94,169.5,M,-34.4,M,,*57
lng=-77.675453, lat=43.087680, altitude=169.40, speed=14.29, satellites=8, angle=86.6900, fixquality=1
$GPRMC,201902.250,A,4305.2610,N,07740.5248,W,14.01,87.03,060924,,,A*7A
$GPGGA,201902.500,4305.2611,N,07740.5234,W,1,08,1.06,169.6,M,-34.4,M,,*58
lng=-77.675415, lat=43.087688, altitude=169.50, speed=14.01, satellites=9, angle=87.0300, fixquality=1
$GPRMC,201902.750,A,4305.2611,N,07740.5221,W,13.93,87.53,060924,,,A*78
$GPGGA,201903.000,4305.2611,N,07740.5208,W,1,08,1.06,169.7,M,-34.4,M,,*52
lng=-77.675369, lat=43.087688, altitude=169.60, speed=13.93, satellites=8, angle=87.5300, fixquality=1
$GPRMC,201903.250,A,4305.2611,N,07740.5194,W,13.93,88.14,060924,,,A*7D
$GPGGA,201903.500,4305.2611,N,07740.5181,W,1,08,1.06,169.7,M,-34.4,M,,*55
lng=-77.675323, lat=43.087688, altitude=169.70, speed=13.93, satellites=8, angle=88.1400, fixquality=1
$GPRMC,201903.750,A,4305.2610,N,07740.5168,W,13.97,88.35,060924,,,A*7D
$GPGGA,201904.000,4305.2610,N,07740.5154,W,1,08,1.06,169.7,M,-34.4,M,,*5E
lng=-77.675277, lat=43.087688, altitude=169.70, speed=13.97, satellites=8, angle=88.3500, fixquality=1
$GPRMC,201904.250,A,4305.2611,N,07740.5141,W,14.03,87.65,060924,,,A*75
$GPGGA,201904.500,4305.2611,N,07740.5128,W,1,08,1.14,169.7,M,-34.4,M,,*52
lng=-77.675239, lat=43.087688, altitude=169.70, speed=14.03, satellites=8, angle=87.6500, fixquality=1
$GPRMC,201904.750,A,4305.2612,N,07740.5115,W,14.05,87.10,060924,,,A*76
$GPGGA,201905.000,4305.2612,N,07740.5101,W,1,08,1.14,169.7,M,-34.4,M,,*5E
lng=-77.675193, lat=43.087688, altitude=169.70, speed=14.05, satellites=8, angle=87.1000, fixquality=1
$GPRMC,201905.250,A,4305.2612,N,07740.5088,W,13.64,86.48,060924,,,A*7B
$GPGGA,201905.500,4305.2612,N,07740.5074,W,1,07,1.28,169.6,M,-34.4,M,,*59
lng=-77.675148, lat=43.087688, altitude=169.70, speed=13.64, satellites=8, angle=86.4800, fixquality=1
$GPRMC,201905.750,A,4305.2612,N,07740.5062,W,13.37,86.33,060924,,,A*70
$GPGGA,201906.000,4305.2611,N,07740.5049,W,1,09,0.95,169.5,M,-34.4,M,,*58
lng=-77.675102, lat=43.087688, altitude=169.60, speed=13.37, satellites=7, angle=86.3300, fixquality=1
$GPRMC,201906.250,A,4305.2611,N,07740.5036,W,12.96,88.34,060924,,,A*77
$GPGGA,201906.500,4305.2611,N,07740.5024,W,1,09,0.94,169.4,M,-34.4,M,,*56
lng=-77.675056, lat=43.087688, altitude=169.50, speed=12.96, satellites=9, angle=88.3400, fixquality=1
$GPRMC,201906.750,A,4305.2611,N,07740.5012,W,12.96,90.59,060924,,,A*76
$GPGGA,201907.000,4305.2611,N,07740.4999,W,1,09,0.94,169.3,M,-34.4,M,,*5B
lng=-77.675018, lat=43.087688, altitude=169.40, speed=12.96, satellites=9, angle=90.5900, fixquality=1
$GPRMC,201907.250,A,4305.2610,N,07740.4988,W,12.82,94.14,060924,,,A*70
$GPGGA,201907.500,4305.2610,N,07740.4976,W,1,09,0.94,169.3,M,-34.4,M,,*5E
lng=-77.674980, lat=43.087688, altitude=169.30, speed=12.82, satellites=9, angle=94.1400, fixquality=1
$GPRMC,201907.750,A,4305.2609,N,07740.4964,W,12.54,95.60,060924,,,A*76
$GPGGA,201908.000,4305.2608,N,07740.4952,W,1,09,0.94,169.5,M,-34.4,M,,*5D
lng=-77.674942, lat=43.087680, altitude=169.30, speed=12.54, satellites=9, angle=95.6000, fixquality=1
$GPRMC,201908.250,A,4305.2607,N,07740.4941,W,12.37,97.83,060924,,,A*7F
$GPGGA,201908.500,4305.2606,N,07740.4929,W,1,09,0.94,169.4,M,-34.4,M,,*5B
lng=-77.674903, lat=43.087680, altitude=169.50, speed=12.37, satellites=9, angle=97.8300, fixquality=1
$GPRMC,201908.750,A,4305.2604,N,07740.4917,W,13.07,105.00,060924,,,A*49
$GPGGA,201909.000,4305.2601,N,07740.4905,W,1,09,0.94,169.4,M,-34.4,M,,*56
lng=-77.674858, lat=43.087669, altitude=169.40, speed=13.07, satellites=9, angle=105.0000, fixquality=1
$GPRMC,201909.250,A,4305.2597,N,07740.4892,W,13.11,107.37,060924,,,A*49
$GPGGA,201909.500,4305.2594,N,07740.4879,W,1,09,0.94,169.3,M,-34.4,M,,*51
lng=-77.674819, lat=43.087661, altitude=169.40, speed=13.11, satellites=9, angle=107.3700, fixquality=1
$GPRMC,201909.750,A,4305.2591,N,07740.4867,W,13.12,108.85,060924,,,A*45
$GPGGA,201910.000,4305.2587,N,07740.4855,W,1,09,0.95,169.4,M,-34.4,M,,*56
lng=-77.674781, lat=43.087654, altitude=169.30, speed=13.12, satellites=9, angle=108.8500, fixquality=1
$GPRMC,201910.250,A,4305.2584,N,07740.4844,W,13.17,113.30,060924,,,A*4C
$GPGGA,201910.500,4305.2581,N,07740.4833,W,1,09,0.95,169.6,M,-34.4,M,,*57
lng=-77.674736, lat=43.087638, altitude=169.40, speed=13.17, satellites=9, angle=113.3000, fixquality=1
$GPRMC,201910.750,A,4305.2579,N,07740.4822,W,13.19,115.96,060924,,,A*4F
$GPGGA,201911.000,4305.2576,N,07740.4811,W,1,09,0.95,169.9,M,-34.4,M,,*54
lng=-77.674705, lat=43.087631, altitude=169.60, speed=13.19, satellites=9, angle=115.9600, fixquality=1
$GPRMC,201911.250,A,4305.2573,N,07740.4799,W,13.69,119.44,060924,,,A*4A
$GPGGA,201911.500,4305.2568,N,07740.4787,W,1,09,0.94,170.2,M,-34.4,M,,*5C
lng=-77.674667, lat=43.087623, altitude=169.90, speed=13.69, satellites=9, angle=119.4400, fixquality=1
$GPRMC,201911.750,A,4305.2564,N,07740.4776,W,13.99,120.07,060924,,,A*4A
$GPGGA,201912.000,4305.2559,N,07740.4764,W,1,09,0.94,170.4,M,-34.4,M,,*53
lng=-77.674629, lat=43.087604, altitude=170.20, speed=13.99, satellites=9, angle=120.0700, fixquality=1
$GPRMC,201912.250,A,4305.2554,N,07740.4751,W,14.24,116.50,060924,,,A*4C
$GPGGA,201912.500,4305.2550,N,07740.4737,W,1,09,0.94,170.5,M,-34.4,M,,*58
lng=-77.674583, lat=43.087589, altitude=170.40, speed=14.24, satellites=9, angle=116.5000, fixquality=1
$GPRMC,201912.750,A,4305.2547,N,07740.4724,W,14.85,111.43,060924,,,A*47
$GPGGA,201913.000,4305.2544,N,07740.4710,W,1,09,0.94,170.7,M,-34.4,M,,*5E
lng=-77.674537, lat=43.087581, altitude=170.50, speed=14.85, satellites=9, angle=111.4300, fixquality=1
$GPRMC,201913.250,A,4305.2542,N,07740.4696,W,15.15,100.15,060924,,,A*45
$GPGGA,201913.500,4305.2540,N,07740.4682,W,1,09,0.95,170.4,M,-34.4,M,,*57
lng=-77.674491, lat=43.087574, altitude=170.70, speed=15.15, satellites=9, angle=100.1500, fixquality=1
$GPRMC,201913.750,A,4305.2539,N,07740.4668,W,15.04,92.11,060924,,,A*73
$GPGGA,201914.000,4305.2540,N,07740.4653,W,1,09,0.94,170.2,M,-34.4,M,,*5E
lng=-77.674446, lat=43.087566, altitude=170.40, speed=15.04, satellites=9, angle=92.1100, fixquality=1
$GPRMC,201914.250,A,4305.2542,N,07740.4638,W,15.45,76.96,060924,,,A*78
$GPGGA,201914.500,4305.2545,N,07740.4624,W,1,09,0.94,169.9,M,-34.4,M,,*5D
lng=-77.674400, lat=43.087574, altitude=170.20, speed=15.45, satellites=9, angle=76.9600, fixquality=1
$GPRMC,201914.750,A,4305.2549,N,07740.4611,W,15.72,66.67,060924,,,A*76
$GPGGA,201915.000,4305.2553,N,07740.4597,W,1,09,0.94,169.6,M,-34.4,M,,*5A
lng=-77.674346, lat=43.087581, altitude=169.90, speed=15.72, satellites=9, angle=66.6700, fixquality=1
$GPRMC,201915.250,A,4305.2558,N,07740.4584,W,16.39,57.68,060924,,,A*7C
$GPGGA,201915.500,4305.2564,N,07740.4571,W,1,09,0.94,169.1,M,-34.4,M,,*54
lng=-77.674308, lat=43.087596, altitude=169.60, speed=16.39, satellites=9, angle=57.6800, fixquality=1
$GPRMC,201915.750,A,4305.2570,N,07740.4557,W,16.95,55.32,060924,,,A*76
$GPGGA,201916.000,4305.2576,N,07740.4544,W,1,09,0.94,168.8,M,-34.4,M,,*5F
lng=-77.674263, lat=43.087612, altitude=169.10, speed=16.95, satellites=9, angle=55.3200, fixquality=1
$GPRMC,201916.250,A,4305.2582,N,07740.4529,W,17.45,58.07,060924,,,A*73
$GPGGA,201916.500,4305.2588,N,07740.4515,W,1,09,0.94,168.6,M,-34.4,M,,*51
lng=-77.674217, lat=43.087638, altitude=168.80, speed=17.45, satellites=9, angle=58.0700, fixquality=1
$GPRMC,201916.750,A,4305.2594,N,07740.4499,W,17.70,62.00,060924,,,A*73
$GPGGA,201917.000,4305.2599,N,07740.4484,W,1,09,0.94,168.5,M,-34.4,M,,*5F
lng=-77.674163, lat=43.087654, altitude=168.60, speed=17.70, satellites=9, angle=62.0000, fixquality=1
$GPRMC,201917.250,A,4305.2603,N,07740.4468,W,17.78,70.83,060924,,,A*74
$GPGGA,201917.500,4305.2606,N,07740.4451,W,1,09,0.94,168.4,M,-34.4,M,,*56
lng=-77.674110, lat=43.087669, altitude=168.50, speed=17.78, satellites=9, angle=70.8300, fixquality=1
$GPRMC,201917.750,A,4305.2609,N,07740.4434,W,18.36,76.68,060924,,,A*74
$GPGGA,201918.000,4305.2611,N,07740.4416,W,1,09,0.95,168.4,M,-34.4,M,,*58
lng=-77.674057, lat=43.087680, altitude=168.40, speed=18.36, satellites=9, angle=76.6800, fixquality=1
$GPRMC,201918.250,A,4305.2612,N,07740.4399,W,19.17,84.31,060924,,,A*77
$GPGGA,201918.500,4305.2614,N,07740.4380,W,1,09,0.94,168.6,M,-34.4,M,,*53
lng=-77.673995, lat=43.087688, altitude=168.40, speed=19.17, satellites=9, angle=84.3100, fixquality=1
$GPRMC,201918.750,A,4305.2615,N,07740.4361,W,19.54,87.59,060924,,,A*78
$GPGGA,201919.000,4305.2615,N,07740.4342,W,1,09,0.94,168.7,M,-34.4,M,,*59
lng=-77.673934, lat=43.087696, altitude=168.60, speed=19.54, satellites=9, angle=87.5900, fixquality=1
$GPRMC,201919.250,A,4305.2615,N,07740.4323,W,20.41,90.76,060924,,,A*7F
$GPGGA,201919.500,4305.2615,N,07740.4303,W,1,09,0.94,168.7,M,-34.4,M,,*59
lng=-77.673866, lat=43.087696, altitude=168.70, speed=20.41, satellites=9, angle=90.7600, fixquality=1
$GPRMC,201919.750,A,4305.2615,N,07740.4283,W,20.95,91.48,060924,,,A*74
$GPGGA,201920.000,4305.2615,N,07740.4263,W,1,09,0.94,168.8,M,-34.4,M,,*5E
lng=-77.673805, lat=43.087696, altitude=168.70, speed=20.95, satellites=9, angle=91.4800, fixquality=1
$GPRMC,201920.250,A,4305.2615,N,07740.4242,W,21.49,92.49,060924,,,A*74
$GPGGA,201920.500,4305.2615,N,07740.4222,W,1,09,0.95,169.0,M,-34.4,M,,*56
lng=-77.673736, lat=43.087696, altitude=168.80, speed=21.49, satellites=9, angle=92.4900, fixquality=1
$GPRMC,201920.750,A,4305.2616,N,07740.4201,W,21.83,91.38,060924,,,A*76
$GPGGA,201921.000,4305.2616,N,07740.4180,W,1,09,0.94,169.1,M,-34.4,M,,*5A
lng=-77.673667, lat=43.087696, altitude=169.00, speed=21.83, satellites=9, angle=91.3800, fixquality=1
$GPRMC,201921.250,A,4305.2617,N,07740.4159,W,22.33,89.61,060924,,,A*70
$GPGGA,201921.500,4305.2617,N,07740.4137,W,1,09,0.94,169.3,M,-34.4,M,,*50
lng=-77.673599, lat=43.087696, altitude=169.10, speed=22.33, satellites=9, angle=89.6100, fixquality=1
$GPRMC,201921.750,A,4305.2618,N,07740.4115,W,23.02,88.45,060924,,,A*76
$GPGGA,201922.000,4305.2619,N,07740.4093,W,1,09,0.94,169.4,M,-34.4,M,,*50
lng=-77.673530, lat=43.087696, altitude=169.30, speed=23.02, satellites=9, angle=88.4500, fixquality=1
$GPRMC,201922.250,A,4305.2620,N,07740.4070,W,23.57,86.92,060924,,,A*7D
$GPGGA,201922.500,4305.2621,N,07740.4047,W,1,09,0.94,169.4,M,-34.4,M,,*57
lng=-77.673454, lat=43.087703, altitude=169.40, speed=23.57, satellites=9, angle=86.9200, fixquality=1
$GPRMC,201922.750,A,4305.2622,N,07740.4024,W,24.12,87.53,060924,,,A*71
$GPGGA,201923.000,4305.2623,N,07740.4000,W,1,09,0.95,169.4,M,-34.4,M,,*53
lng=-77.673370, lat=43.087703, altitude=169.40, speed=24.12, satellites=9, angle=87.5300, fixquality=1
$GPRMC,201923.250,A,4305.2623,N,07740.3977,W,24.79,88.77,060924,,,A*78
$GPGGA,201923.500,4305.2624,N,07740.3953,W,1,09,0.94,169.5,M,-34.4,M,,*59
lng=-77.673294, lat=43.087703, altitude=169.40, speed=24.79, satellites=9, angle=88.7700, fixquality=1
$GPRMC,201923.750,A,4305.2625,N,07740.3930,W,25.15,88.96,060924,,,A*7C
$GPGGA,201924.000,4305.2626,N,07740.3906,W,1,09,0.94,169.6,M,-34.4,M,,*5A
lng=-77.673217, lat=43.087711, altitude=169.50, speed=25.15, satellites=9, angle=88.9600, fixquality=1
$GPRMC,201924.250,A,4305.2627,N,07740.3882,W,25.55,88.55,060924,,,A*7F
