Vers 72
USE_SERIAL_FEEDBACK=true
DEVELOPMENT_MODE=false
USE_RMC_ONLY=false

$GPRMC,145205.750,A,4308.3097,N,07726.2754,W,3.33,1.89,070924,,,A*70
$GPGGA,145206.000,4308.3099,N,07726.2755,W,1,03,55.76,184.6,M,-34.4,M,,*60
lng=-77.437919, lat=43.138492, altitude=184.40, speed=3.33, satellites=3, angle=1.8900, fixquality=1
$GPRMC,145206.500,A,4308.3103,N,07726.2756,W,3.30,2.96,070924,,,A*74
$GPGGA,145206.750,4308.3105,N,07726.2756,W,1,03,55.77,184.7,M,-34.4,M,,*65
lng=-77.437919, lat=43.138500, altitude=184.60, speed=3.30, satellites=3, angle=2.9600, fixquality=1
$GPRMC,145207.000,A,4308.3107,N,07726.2756,W,3.21,4.33,070924,,,A*7D
$GPGGA,145207.250,4308.3108,N,07726.2757,W,1,03,55.77,184.7,M,-34.4,M,,*6D
lng=-77.437919, lat=43.138507, altitude=184.70, speed=3.21, satellites=3, angle=4.3300, fixquality=1
$GPRMC,145207.500,A,4308.3110,N,07726.2757,W,3.10,4.42,070924,,,A*7B
$GPGGA,145207.750,4308.3112,N,07726.2757,W,1,03,3.52,184.5,M,-34.4,M,,*55
lng=-77.437934, lat=43.138515, altitude=184.70, speed=3.10, satellites=3, angle=4.4200, fixquality=1
$GPRMC,145208.000,A,4308.3114,N,07726.2758,W,3.02,1.54,070924,,,A*7B
$GPGGA,145208.250,4308.3116,N,07726.2758,W,1,03,55.78,184.5,M,-34.4,M,,*6F
lng=-77.437934, lat=43.138526, altitude=184.50, speed=3.02, satellites=3, angle=1.5400, fixquality=1
$GPRMC,145208.500,A,4308.3118,N,07726.2759,W,3.00,359.60,070924,,,A*78
$GPGGA,145208.750,4308.3120,N,07726.2760,W,1,03,55.79,184.5,M,-34.4,M,,*65
lng=-77.437934, lat=43.138534, altitude=184.50, speed=3.00, satellites=3, angle=359.6000, fixquality=1
$GPRMC,145209.000,A,4308.3122,N,07726.2760,W,3.02,358.93,070924,,,A*70
$GPGGA,145209.250,4308.3124,N,07726.2760,W,1,03,55.79,184.5,M,-34.4,M,,*65
lng=-77.437934, lat=43.138534, altitude=184.50, speed=3.02, satellites=3, angle=358.9300, fixquality=1
$GPRMC,145209.500,A,4308.3126,N,07726.2758,W,3.03,1.69,070924,,,A*71
$GPGGA,145209.750,4308.3128,N,07726.2757,W,1,03,55.80,184.6,M,-34.4,M,,*6D
lng=-77.437934, lat=43.138542, altitude=184.50, speed=3.03, satellites=3, angle=1.6900, fixquality=1
$GPRMC,145210.000,A,4308.3131,N,07726.2755,W,3.32,5.18,070924,,,A*77
$GPGGA,145210.250,4308.3133,N,07726.2753,W,1,03,55.80,184.6,M,-34.4,M,,*6E
lng=-77.437919, lat=43.138549, altitude=184.60, speed=3.32, satellites=3, angle=5.1800, fixquality=1
$GPRMC,145210.500,A,4308.3135,N,07726.2752,W,3.36,6.97,070924,,,A*71
$GPGGA,145210.750,4308.3137,N,07726.2751,W,1,03,55.81,184.6,M,-34.4,M,,*6C
lng=-77.437919, lat=43.138557, altitude=184.60, speed=3.36, satellites=3, angle=6.9700, fixquality=1
$GPRMC,145211.000,A,4308.3138,N,07726.2749,W,3.39,9.79,070924,,,A*72
$GPGGA,145211.250,4308.3140,N,07726.2748,W,1,03,55.81,184.7,M,-34.4,M,,*61
lng=-77.437911, lat=43.138565, altitude=184.60, speed=3.39, satellites=3, angle=9.7900, fixquality=1
$GPRMC,145211.500,A,4308.3142,N,07726.2746,W,3.44,13.40,070924,,,A*4E
$GPGGA,145211.750,4308.3144,N,07726.2745,W,1,03,55.81,184.8,M,-34.4,M,,*62
lng=-77.437904, lat=43.138565, altitude=184.70, speed=3.44, satellites=3, angle=13.4000, fixquality=1
$GPRMC,145212.000,A,4308.3146,N,07726.2744,W,3.50,15.46,070924,,,A*4B
$GPGGA,145212.087,4308.3146,N,07726.2743,W,1,03,3.52,184.5,M,-3GPRMC,145212.087,A,4308.3146,N,07726.2743,W,3.51,16.16,070924,,,A*44
lng=-77.437904, lat=43.138572, altitude=184.80, speed=3.50, satellites=3, angle=15.4600, fixquality=1
$GPRMC,145212.500,A,4308.3149,N,07726.2740,W,3.39,23.29,070924,,,A*46
$GPGGA,145212.750,4308.3150,N,07726.2737,W,1,03,3.52,184.6,M,-34.4,M,,*52
lng=-77.437896, lat=43.138584, altitude=184.80, speed=3.39, satellites=3, angle=23.2900, fixquality=1
$GPRMC,145213.000,A,4308.3150,N,07726.2734,W,2.84,57.00,070924,,,A*46
$GPGGA,145213.250,4308.3151,N,07726.2732,W,1,03,3.52,184.6,M,-34.4,M,,*52
lng=-77.437889, lat=43.138584, altitude=184.60, speed=2.84, satellites=3, angle=57.0000, fixquality=1
$GPRMC,145213.500,A,4308.3151,N,07726.2729,W,2.84,61.52,070924,,,A*4C
$GPGGA,145213.750,4308.3152,N,07726.2728,W,1,03,3.52,184.6,M,-34.4,M,,*5F
lng=-77.437881, lat=43.138584, altitude=184.60, speed=2.84, satellites=3, angle=61.5200, fixquality=1
$GPRMC,145214.000,A,4308.3153,N,07726.2727,W,2.41,58.44,070924,,,A*46
$GPGGA,145214.250,4308.3153,N,07726.2725,W,1,03,3.52,184.6,M,-34.4,M,,*51
lng=-77.437873, lat=43.138591, altitude=184.60, speed=2.41, satellites=3, angle=58.4400, fixquality=1
$GPGGA,145216.750,4308.3153,N,07726.2739,W,1,03,3.51,184.5,M,-34.4,M,,*5B
$GPRMC,145216.750,A,4308.3153,N,07726.2739,W,1.10,289.12,070924,,,A*73
lng=-77.437896, lat=43.138591, altitude=184.50, speed=0.83, satellites=3, angle=289.4800, fixquality=1
$GPGGA,145217.000,4308.3154,N,07726.2742,W,1,03,3.52,184.5,M,-34.4,M,,*50
$GPRMC,145217.000,A,4308.3154,N,07726.2742,W,1.29,287.74,070924$GPGGA,145217.250,4308.3154,N,07726.2745,W,1,03,3.52,184.5,M,-34.4,M,,*50
lng=-77.437904, lat=43.138591, altitude=184.50, speed=1.10, satellites=3, angle=289.1200, fixquality=1
$GPGGA,145217.750,4308.3156,N,07726.2759,W,1,03,3.51,184.5,M,-34.4,M,,*59
$GPRMC,145217.750,A,4308.3156,N,07726.2759,W,2.46,290.81,070924,,,A*73
lng=-77.437934, lat=43.138591, altitude=184.50, speed=1.91, satellites=3, angle=292.1100, fixquality=1
$GPGGA,145218.000,4308.3157,N,07726.2766,W,1,03,3.52,184.6,M,-34.4,M,,*59
$GPRMC,145218.000,A,4308.3157,N,07726.2766,W,2.86,289.96,070924,,,A*71
lng=-77.437942, lat=43.138599, altitude=184.60, speed=2.46, satellites=3, angle=290.8100, fixquality=1
$GPRMC,145218.500,A,4308.3158,N,07726.2781,W,4.30,291.15,070924,,,A*7B
$GPGGA,145218.750,4308.3159,N,07726.2790,W,1,03,3.51,184.6,M,-34.4,M,,*5F
lng=-77.437973, lat=43.138599, altitude=184.60, speed=4.30, satellites=3, angle=291.1500, fixquality=1
$GPRMC,145219.000,A,4308.3160,N,07726.2799,W,6.20,292.80,070924,,,A*71
$GPGGA,145219.250,4308.3161,N,07726.2807,W,1,03,3.51,184.6,M,-34.4,M,,*51
lng=-77.437995, lat=43.138599, altitude=184.60, speed=6.20, satellites=3, angle=292.8000, fixquality=1
$GPRMC,145219.500,A,4308.3163,N,07726.2817,W,7.50,291.86,070924,,,A*7D
$GPGGA,145219.750,4308.3163,N,07726.2828,W,1,03,3.52,184.7,M,-34.4,M,,*59
lng=-77.438026, lat=43.138607, altitude=184.60, speed=7.50, satellites=3, angle=291.8600, fixquality=1
$GPRMC,145220.000,A,4308.3164,N,07726.2839,W,8.62,286.42,070924,,,A*79
$GPGGA,145220.250,4308.3165,N,07726.2848,W,1,03,3.51,184.7,M,-34.4,M,,*55
lng=-77.438064, lat=43.138607, altitude=184.70, speed=8.62, satellites=3, angle=286.4200, fixquality=1
$GPRMC,145220.500,A,4308.3166,N,07726.2860,W,9.50,284.39,070924,,,A*7C
$GPGGA,145220.750,4308.3168,N,07726.2872,W,1,03,3.51,184.7,M,-34.4,M,,*54
lng=-77.438102, lat=43.138607, altitude=184.70, speed=9.50, satellites=3, angle=284.3900, fixquality=1
$GPRMC,145221.000,A,4308.3170,N,07726.2885,W,11.09,285.14,070924,,,A*4F
$GPGGA,145221.250,4308.3172,N,07726.2897,W,1,03,3.51,184.7,M,-34.4,M,,*50
lng=-77.438140, lat=43.138614, altitude=184.70, speed=11.09, satellites=3, angle=285.1400, fixquality=1
$GPRMC,145221.500,A,4308.3174,N,07726.2910,W,11.94,285.30,070924,,,A*41
$GPGGA,145221.750,4308.3176,N,07726.2923,W,1,03,3.51,184.7,M,-34.4,M,,*5F
lng=-77.438186, lat=43.138622, altitude=184.70, speed=11.94, satellites=3, angle=285.3000, fixquality=1
$GPRMC,145222.000,A,4308.3180,N,07726.2937,W,13.07,287.98,070924,,,A*41
$GPGGA,145222.250,4308.3183,N,07726.2951,W,1,03,3.51,184.7,M,-34.4,M,,*56
lng=-77.438224, lat=43.138629, altitude=184.70, speed=13.07, satellites=3, angle=287.9800, fixquality=1
$GPRMC,145222.500,A,4308.3186,N,07726.2966,W,13.94,287.87,070924,,,A*42
$GPGGA,145222.750,4308.3190,N,07726.2981,W,1,03,3.51,184.7,M,-34.4,M,,*5C
lng=-77.438270, lat=43.138637, altitude=184.70, speed=13.94, satellites=3, angle=287.8700, fixquality=1
$GPRMC,145223.000,A,4308.3194,N,07726.2996,W,15.16,290.10,070924,,,A*4E
$GPGGA,145223.250,4308.3198,N,07726.3010,W,1,03,3.51,184.7,M,-34.4,M,,*50
lng=-77.438331, lat=43.138656, altitude=184.70, speed=15.16, satellites=3, angle=290.1000, fixquality=1
$GPRMC,145223.500,A,4308.3204,N,07726.3021,W,15.60,295.14,070924,,,A*45
$GPGGA,145223.750,4308.3211,N,07726.3034,W,1,03,3.51,184.7,M,-34.4,M,,*51
lng=-77.438369, lat=43.138671, altitude=184.70, speed=15.60, satellites=3, angle=295.1400, fixquality=1
$GPRMC,145224.000,A,4308.3216,N,07726.3050,W,16.61,299.31,070924,,,A*4B
$GPGGA,145224.082,4308.3218,N,07726.3055,W,1,03,3.52,184.7,M,-34.4,M,,*53
lng=-77.438423, lat=43.138694, altitude=184.70, speed=16.61, satellites=3, angle=299.3100, fixquality=1
$GPRMC,145224.500,A,4308.3227,N,07726.3081,W,17.22,299.25,070924,,,A*43
$GPGGA,145224.750,4308.3233,N,07726.3098,W,1,03,3.51,184.7,M,-34.4,M,,*50
lng=-77.438468, lat=43.138713, altitude=184.70, speed=17.22, satellites=3, angle=299.2500, fixquality=1
$GPRMC,145225.000,A,4308.3239,N,07726.3113,W,17.99,299.95,070924,,,A*49
$GPGGA,145225.250,4308.3245,N,07726.3128,W,1,03,3.51,184.7,M,-34.4,M,,*5F
lng=-77.438522, lat=43.138729, altitude=184.70, speed=17.99, satellites=3, angle=299.9500, fixquality=1
$GPRMC,145225.500,A,4308.3252,N,07726.3144,W,18.34,299.90,070924,,,A*4E
$GPGGA,145225.750,4308.3259,N,07726.3159,W,1,03,3.51,184.7,M,-34.4,M,,*51
lng=-77.438575, lat=43.138751, altitude=184.70, speed=18.34, satellites=3, angle=299.9000, fixquality=1
$GPRMC,145226.000,A,4308.3265,N,07726.3175,W,18.90,300.32,070924,,,A*49
$GPGGA,145226.250,4308.3272,N,07726.3190,W,1,03,3.51,184.7,M,-34.4,M,,*5B
lng=-77.438621, lat=43.138778, altitude=184.70, speed=18.90, satellites=3, angle=300.3200, fixquality=1
$GPRMC,145226.500,A,4308.3279,N,07726.3207,W,19.47,300.33,070924,,,A*4D
$GPGGA,145226.750,4308.3287,N,07726.3222,W,1,03,3.51,184.7,M,-34.4,M,,*5E
lng=-77.438682, lat=43.138801, altitude=184.70, speed=19.47, satellites=3, angle=300.3300, fixquality=1
$GPRMC,145227.000,A,4308.3294,N,07726.3237,W,19.73,300.74,070924,,,A*4D
$GPGGA,145227.250,4308.3301,N,07726.3253,W,1,03,3.51,184.7,M,-34.4,M,,*53
lng=-77.438728, lat=43.138828, altitude=184.70, speed=19.73, satellites=3, angle=300.7400, fixquality=1
$GPRMC,145227.500,A,4308.3308,N,07726.3271,W,20.12,300.34,070924,,,A*47
$GPGGA,145227.750,4308.3317,N,07726.3286,W,1,03,3.51,184.7,M,-34.4,M,,*59
lng=-77.438789, lat=43.138843, altitude=184.70, speed=20.12, satellites=3, angle=300.3400, fixquality=1
$GPRMC,145228.000,A,4308.3325,N,07726.3302,W,20.56,302.88,070924,,,A*42
$GPGGA,145228.250,4308.3334,N,07726.3316,W,1,03,3.51,184.7,M,-34.4,M,,*5A
lng=-77.438835, lat=43.138874, altitude=184.70, speed=20.56, satellites=3, angle=302.8800, fixquality=1
$GPRMC,145228.500,A,4308.3342,N,07726.3331,W,20.59,303.85,070924,,,A*45
$GPGGA,145228.750,4308.3351,N,07726.3347,W,1,03,3.51,184.7,M,-34.4,M,,*58
lng=-77.438880, lat=43.138900, altitude=184.70, speed=20.59, satellites=3, angle=303.8500, fixquality=1
$GPRMC,145229.000,A,4308.3359,N,07726.3363,W,21.12,304.83,070924,,,A*43
$GPGGA,145229.250,4308.3368,N,07726.3381,W,1,03,3.51,184.7,M,-34.4,M,,*5C
lng=-77.438941, lat=43.138931, altitude=184.70, speed=21.12, satellites=3, angle=304.8300, fixquality=1
$GPRMC,145229.500,A,4308.3377,N,07726.3398,W,21.74,305.15,070924,,,A*40
$GPGGA,145229.750,4308.3386,N,07726.3414,W,1,03,3.51,184.7,M,-34.4,M,,*52
lng=-77.438995, lat=43.138965, altitude=184.70, speed=21.74, satellites=3, angle=305.1500, fixquality=1
$GPRMC,145230.000,A,4308.3395,N,07726.3431,W,22.01,305.90,070924,,,A*49
$GPGGA,145230.083,4308.3398,N,07726.3436,W,1,03,3.51,184.7,M,-34.4,M,,*5C
lng=-77.439056, lat=43.138988, altitude=184.70, speed=22.01, satellites=3, angle=305.9000, fixquality=1
$GPRMC,145230.500,V,,,,,22.43,305.11,070924,,,N*70
$GPGGA,145230.750,,,,,0,04,,,M,,M,,*7F
lng=-77.439064, lat=43.138996, altitude=184.70, speed=22.43, satellites=3, angle=305.1100, fixquality=1
$GPRMC,145230.750,V,,,,,22.39,304.90,070924,,,N*72
$GPGGA,145231.000,,,,,0,04,,,M,,M,,*7C
lng=-77.439064, lat=43.138996, altitude=184.70, speed=22.39, satellites=4, angle=304.9000, fixquality=0
$GPGGA,145250.000,4308.4437,N,07726.3782,W,1,04,21.21,185.4,M,-34.4,M,,*6A
$GPRMC,145250.000,A,4308.4437,N,07726.3782,W,19.14,6.82,070924,$GPGGA,145250.250,4308.4449,N,07726.3778,W,1,04,21.21,185.4,M,-34.4,M,,*61
lng=-77.439643, lat=43.140731, altitude=185.40, speed=19.55, satellites=4, angle=6.8400, fixquality=1
$GPRMC,145250.500,A,4308.4461,N,07726.3772,W,18.66,7.04,070924,,,A*41
$GPGGA,145250.750,4308.4472,N,07726.3766,W,1,04,21.23,185.5,M,-34.4,M,,*60
lng=-77.439620, lat=43.140769, altitude=185.40, speed=18.66, satellites=4, angle=7.0400, fixquality=1
$GPRMC,145251.000,A,4308.4483,N,07726.3761,W,18.07,7.40,070924,,,A*4C
$GPGGA,145251.250,4308.4495,N,07726.3757,W,1,04,21.24,185.6,M,-34.4,M,,*6B
lng=-77.439598, lat=43.140804, altitude=185.50, speed=18.07, satellites=4, angle=7.4000, fixquality=1
$GPRMC,145251.500,A,4308.4506,N,07726.3752,W,17.60,7.93,070924,,,A*45
$GPGGA,145251.750,4308.4516,N,07726.3747,W,1,04,21.26,185.6,M,-34.4,M,,*67
lng=-77.439582, lat=43.140846, altitude=185.60, speed=17.60, satellites=4, angle=7.9300, fixquality=1
$GPRMC,145252.000,A,4308.4525,N,07726.3743,W,16.82,8.81,070924,,,A*43
$GPGGA,145252.250,4308.4534,N,07726.3739,W,1,04,21.27,185.7,M,-34.4,M,,*68
lng=-77.439575, lat=43.140876, altitude=185.60, speed=16.82, satellites=4, angle=8.8100, fixquality=1
$GPRMC,145252.500,A,4308.4543,N,07726.3735,W,16.05,9.19,070924,,,A*48
$GPGGA,145252.750,4308.4548,N,07726.3731,W,1,04,21.28,185.8,M,-34.4,M,,*6E
lng=-77.439559, lat=43.140903, altitude=185.70, speed=16.05, satellites=4, angle=9.1900, fixquality=1
$GPRMC,145253.000,A,4308.4551,N,07726.3729,W,14.06,10.30,070924,,,A*70
$GPGGA,145253.250,4308.4556,N,07726.3725,W,1,04,21.30,185.8,M,-34.4,M,,*69
lng=-77.439552, lat=43.140918, altitude=185.80, speed=14.06, satellites=4, angle=10.3000, fixquality=1
$GPRMC,145253.500,A,4308.4556,N,07726.3720,W,11.95,13.40,070924,,,A*70
$GPGGA,145253.750,4308.4559,N,07726.3716,W,1,04,21.31,185.8,M,-34.4,M,,*62
lng=-77.439537, lat=43.140926, altitude=185.80, speed=11.95, satellites=4, angle=13.4000, fixquality=1
$GPRMC,145254.000,A,4308.4562,N,07726.3713,W,10.53,16.37,070924,,,A*7B
$GPGGA,145254.250,4308.4565,N,07726.3710,W,1,04,2.31,185.9,M,-34.4,M,,*59
lng=-77.439521, lat=43.140933, altitude=185.80, speed=10.53, satellites=4, angle=16.3700, fixquality=1
$GPRMC,145254.500,A,4308.4558,N,07726.3711,W,7.07,22.48,070924,,,A*4D
$GPGGA,145254.750,4308.4562,N,07726.3707,W,1,04,2.30,185.9,M,-34.4,M,,*5C
lng=-77.439521, lat=43.140926, altitude=185.90, speed=7.07, satellites=4, angle=22.4800, fixquality=1
$GPRMC,145255.000,A,4308.4558,N,07726.3710,W,4.26,26.58,070924,,,A*4D
$GPGGA,145255.250,4308.4558,N,07726.3708,W,1,04,2.30,185.9,M,-34.4,M,,*5E
lng=-77.439521, lat=43.140926, altitude=185.90, speed=4.26, satellites=4, angle=26.5800, fixquality=1
$GPRMC,145255.500,A,4308.4558,N,07726.3706,W,2.68,32.17,070924,,,A*4D
$GPGGA,145255.750,4308.4558,N,07726.3704,W,1,04,2.30,186.0,M,-34.4,M,,*5D
lng=-77.439506, lat=43.140926, altitude=185.90, speed=2.68, satellites=4, angle=32.1700, fixquality=1
$GPRMC,145256.000,A,4308.4559,N,07726.3700,W,1.49,32.17,070924,,,A*4C
$GPGGA,145256.250,4308.4559,N,07726.3697,W,1,04,2.30,186.0,M,-34.4,M,,*51
lng=-77.439498, lat=43.140933, altitude=186.00, speed=1.49, satellites=4, angle=32.1700, fixquality=1
$GPGGA,145257.250,4308.4558,N,07726.3688,W,1,04,2.30,186.1,M,-34.4,M,,*5E
$GPRMC,145257.250,A,4308.4558,N,07726.3688,W,0.66,32.17,070924,,,A*46
lng=-77.439476, lat=43.140926, altitude=186.10, speed=0.66, satellites=4, angle=32.1700, fixquality=1
$GPGGA,145257.500,4308.4558,N,07726.3687,W,1,04,2.30,186.2,M,-34.4,M,,*50
$GPRMC,145257.500,A,4308.4558,N,07726.3687,W,0.63,32.17,070924,,,A*4E
lng=-77.439476, lat=43.140926, altitude=186.20, speed=0.66, satellites=4, angle=32.1700, fixquality=1
$GPGGA,145301.500,4308.4569,N,07726.3678,W,1,04,2.30,186.0,M,-34.4,M,,*52
$GPRMC,145301.500,A,4308.4569,N,07726.3678,W,2.49,1.64,070924,,,A*70
lng=-77.439460, lat=43.140949, altitude=186.00, speed=2.10, satellites=4, angle=15.0800, fixquality=1
$GPGGA,145301.750,4308.4573,N,07726.3682,W,1,04,21.53,186.0,M,-34.4,M,,*6F
$GPRMC,145301.750,A,4308.4573,N,07726.3682,W,3.05,348.28,070924,,,A*76
lng=-77.439468, lat=43.140956, altitude=186.00, speed=2.49, satellites=4, angle=1.6400, fixquality=1
$GPGGA,145302.000,4308.4577,N,07726.3687,W,1,04,21.54,186.0,M,-34.4,M,,*68
$GPRMC,145302.000,A,4308.4577,N,07726.3687,W,3.99,339.10,070924,,,A*7E
lng=-77.439476, lat=43.140956, altitude=186.00, speed=3.05, satellites=4, angle=348.2800, fixquality=1
$GPGGA,145302.250,4308.4582,N,07726.3692,W,1,04,2.30,186.1,M,-34.4,M,,*53
$GPRMC,145302.250,A,4308.4582,N,07726.3692,W,4.83,336.92,070924,,,A*7E
lng=-77.439483, lat=43.140968, altitude=186.10, speed=3.99, satellites=4, angle=339.1000, fixquality=1
$GPGGA,145302.500,4308.4586,N,07726.3700,W,1,04,2.30,186.1,M,-34.4,M,,*5F
$GPRMC,145302.500,A,4308.4586,N,07726.3700,W,5.60,328.25,070924,,,A*7D
lng=-77.439498, lat=43.140975, altitude=186.10, speed=4.83, satellites=4, angle=336.9200, fixquality=1
$GPGGA,145302.750,4308.4591,N,07726.3711,W,1,04,2.30,186.1,M,-34.4,M,,*5E
$GPRMC,145302.750,A,4308.4591,N,07726.3711,W,6.75,322.91,070924,,,A*7E
lng=-77.439521, lat=43.140983, altitude=186.10, speed=5.60, satellites=4, angle=328.2500, fixquality=1
$GPGGA,145303.000,4308.4595,N,07726.3722,W,1,04,21.56,186.1,M,-34.4,M,,*68
$GPRMC,145303.000,A,4308.4595,N,07726.3722,W,7.60,315.07,070924,,,A*77
lng=-77.439537, lat=43.140991, altitude=186.10, speed=6.75, satellites=4, angle=322.9100, fixquality=1
$GPGGA,145303.250,4308.4602,N,07726.3731,W,1,04,2.30,186.1,M,-34.4,M,,*51
$GPRMC,145303.250,A,4308.4602,N,07726.3731,W,8.18,317.38,070924,,,A*71
lng=-77.439552, lat=43.140998, altitude=186.10, speed=7.60, satellites=4, angle=315.0700, fixquality=1
$GPGGA,145303.500,4308.4607,N,07726.3742,W,1,04,2.30,186.1,M,-34.4,M,,*52
$GPRMC,145303.500,A,4308.4607,N,07726.3742,W,8.75,313.56,070924,,,A*75
lng=-77.439567, lat=43.141014, altitude=186.10, speed=8.18, satellites=4, angle=317.3800, fixquality=1
$GPGGA,145303.750,4308.4612,N,07726.3760,W,1,04,21.57,186.2,M,-34.4,M,,*62
$GPRMC,145303.750,A,4308.4612,N,07726.3760,W,10.14,305.94,070924,,,A*41
lng=-77.439598, lat=43.141025, altitude=186.20, speed=8.75, satellites=4, angle=313.5600, fixquality=1
$GPGGA,145304.000,4308.4617,N,07726.3774,W,1,04,21.59,186.2,M,-34.4,M,,*69
$GPRMC,145304.000,A,4308.4617,N,07726.3774,W,11.00,302.89,070924,,,A*4B
lng=-77.439620, lat=43.141033, altitude=186.20, speed=10.14, satellites=4, angle=305.9400, fixquality=1
$GPGGA,145304.250,4308.4621,N,07726.3787,W,1,04,2.30,186.2,M,-34.4,M,,*59
$GPRMC,145304.250,A,4308.4621,N,07726.3787,W,11.63,300.19,070924,,,A*4B
lng=-77.439651, lat=43.141033, altitude=186.20, speed=11.00, satellites=4, angle=302.8900, fixquality=1
$GPGGA,145304.500,4308.4625,N,07726.3802,W,1,04,2.30,186.2,M,-34.4,M,,*5D
$GPRMC,145304.500,A,4308.4625,N,07726.3802,W,12.37,296.93,070924,,,A*41
lng=-77.439674, lat=43.141040, altitude=186.20, speed=11.63, satellites=4, angle=300.1900, fixquality=1
$GPGGA,145304.750,4308.4629,N,07726.3817,W,1,04,2.30,186.2,M,-34.4,M,,*52
$GPRMC,145304.750,A,4308.4629,N,07726.3817,W,13.00,294.09,070924,,,A*4A
lng=-77.439697, lat=43.141048, altitude=186.20, speed=12.37, satellites=4, angle=296.9300, fixquality=1
$GPGGA,145305.000,4308.4633,N,07726.3833,W,1,04,2.30,186.2,M,-34.4,M,,*5C
$GPRMC,145305.000,A,4308.4633,N,07726.3833,W,13.53,291.67,070924,,,A*4F
lng=-77.439720, lat=43.141056, altitude=186.20, speed=13.00, satellites=4, angle=294.0900, fixquality=1
$GPGGA,145305.250,4308.4636,N,07726.3849,W,1,04,2.30,186.2,M,-34.4,M,,*53
$GPRMC,145305.250,A,4308.4636,N,07726.3849,W,14.15,289.49,070924,,,A*40
lng=-77.439743, lat=43.141056, altitude=186.20, speed=13.53, satellites=4, angle=291.6700, fixquality=1
$GPGGA,145305.500,4308.4639,N,07726.3865,W,1,04,21.63,186.2,M,-34.4,M,,*67
$GPRMC,145305.500,A,4308.4639,N,07726.3865,W,14.54,287.11,070924,,,A*45
lng=-77.439781, lat=43.141063, altitude=186.20, speed=14.15, satellites=4, angle=289.4900, fixquality=1
$GPGGA,145305.750,4308.4641,N,07726.3881,W,1,04,21.64,186.2,M,-34.4,M,,*62
$GPRMC,145305.750,A,4308.4641,N,07726.3881,W,14.60,284.58,070924,,,A*4E
lng=-77.439804, lat=43.141063, altitude=186.20, speed=14.54, satellites=4, angle=287.1100, fixquality=1
$GPGGA,145306.000,4308.4644,N,07726.3897,W,1,04,21.65,186.2,M,-34.4,M,,*60
$GPRMC,145306.000,A,4308.4644,N,07726.3897,W,14.86,282.66,070924,,,A*4E
lng=-77.439826, lat=43.141071, altitude=186.20, speed=14.60, satellites=4, angle=284.5800, fixquality=1
$GPGGA,145306.250,4308.4645,N,07726.3914,W,1,04,2.30,186.1,M,-34.4,M,,*5E
$GPRMC,145306.250,A,4308.4645,N,07726.3914,W,14.93,281.23,070924,,,A*44
lng=-77.439857, lat=43.141071, altitude=186.10, speed=14.86, satellites=4, angle=282.6600, fixquality=1
$GPGGA,145306.500,4308.4646,N,07726.3931,W,1,04,21.66,186.1,M,-34.4,M,,*6A
$GPRMC,145306.500,A,4308.4646,N,07726.3931,W,15.19,278.37,070924,,,A*42
lng=-77.439888, lat=43.141071, altitude=186.10, speed=14.93, satellites=4, angle=281.2300, fixquality=1
$GPGGA,145306.750,4308.4647,N,07726.3948,W,1,04,2.30,186.1,M,-34.4,M,,*50
$GPRMC,145306.750,A,4308.4647,N,07726.3948,W,15.42,276.44,070924,,,A*4E
lng=-77.439918, lat=43.141078, altitude=186.10, speed=15.19, satellites=4, angle=278.3700, fixquality=1
$GPGGA,145307.000,4308.4648,N,07726.3965,W,1,04,21.67,186.1,M,-34.4,M,,*60
$GPRMC,145307.000,A,4308.4648,N,07726.3965,W,15.62,275.39,070924,,,A*46
lng=-77.439941, lat=43.141078, altitude=186.10, speed=15.42, satellites=4, angle=276.4400, fixquality=1
$GPGGA,145307.250,4308.4648,N,07726.3983,W,1,04,2.30,186.1,M,-34.4,M,,*5C
$GPRMC,145307.250,A,4308.4648,N,07726.3983,W,15.70,274.87,070924,,,A*4E
lng=-77.439971, lat=43.141078, altitude=186.10, speed=15.62, satellites=4, angle=275.3900, fixquality=1
$GPGGA,145307.500,4308.4649,N,07726.4001,W,1,04,21.69,186.1,M,-34.4,M,,*66
$GPRMC,145307.500,A,4308.4649,N,07726.4001,W,15.86,274.55,070924,,,A*4F
lng=-77.439994, lat=43.141078, altitude=186.10, speed=15.70, satellites=4, angle=274.8700, fixquality=1
$GPGGA,145307.750,4308.4650,N,07726.4018,W,1,04,21.69,186.1,M,-34.4,M,,*61
$GPRMC,145307.750,A,4308.4650,N,07726.4018,W,15.91,274.56,070924,,,A*4D
lng=-77.440032, lat=43.141078, altitude=186.10, speed=15.86, satellites=4, angle=274.5500, fixquality=1
$GPGGA,145308.000,4308.4650,N,07726.4036,W,1,04,21.71,186.0,M,-34.4,M,,*68
$GPRMC,145308.000,A,4308.4650,N,07726.4036,W,15.99,274.53,07092$GPGGA,145308.250,4308.4651,N,07726.4053,W,1,04,2.30,186.0,M,-34.4,M,,*59
lng=-77.440063, lat=43.141078, altitude=186.00, speed=15.91, satellites=4, angle=274.5600, fixquality=1
$GPRMC,145308.500,A,4308.4652,N,07726.4071,W,16.11,274.75,070924,,,A*42
$GPGGA,145308.750,4308.4653,N,07726.4087,W,1,04,2.30,186.0,M,-34.4,M,,*57
lng=-77.440116, lat=43.141090, altitude=186.00, speed=16.11, satellites=4, angle=274.7500, fixquality=1
$GPRMC,145309.000,A,4308.4654,N,07726.4104,W,16.13,275.00,070924,,,A*42
$GPGGA,145309.250,4308.4655,N,07726.4119,W,1,04,2.30,186.0,M,-34.4,M,,*53
lng=-77.440170, lat=43.141090, altitude=186.00, speed=16.13, satellites=4, angle=275.0000, fixquality=1
$GPRMC,145309.500,A,4308.4657,N,07726.4135,W,16.07,275.09,070924,,,A*4A
$GPGGA,145309.750,4308.4658,N,07726.4151,W,1,04,21.76,185.9,M,-34.4,M,,*6E
lng=-77.440223, lat=43.141098, altitude=186.00, speed=16.07, satellites=4, angle=275.0900, fixquality=1
$GPRMC,145310.000,A,4308.4660,N,07726.4167,W,15.99,275.81,070924,,,A*40
$GPGGA,145310.250,4308.4662,N,07726.4183,W,1,04,2.30,185.9,M,-34.4,M,,*56
lng=-77.440277, lat=43.141098, altitude=185.90, speed=15.99, satellites=4, angle=275.8100, fixquality=1
$GPRMC,145310.500,A,4308.4663,N,07726.4198,W,15.70,276.28,070924,,,A*41
$GPGGA,145310.750,4308.4665,N,07726.4213,W,1,04,21.77,185.9,M,-34.4,M,,*6C
lng=-77.440330, lat=43.141105, altitude=185.90, speed=15.70, satellites=4, angle=276.2800, fixquality=1
$GPRMC,145311.000,A,4308.4666,N,07726.4227,W,14.84,276.14,070924,,,A*42
$GPGGA,145311.250,4308.4667,N,07726.4241,W,1,04,2.30,185.8,M,-34.4,M,,*5E
lng=-77.440383, lat=43.141113, altitude=185.90, speed=14.84, satellites=4, angle=276.1400, fixquality=1
$GPRMC,145311.500,A,4308.4668,N,07726.4255,W,13.76,276.38,070924,,,A*48
$GPGGA,145311.750,4308.4669,N,07726.4267,W,1,04,2.30,185.8,M,-34.4,M,,*51
lng=-77.440422, lat=43.141113, altitude=185.80, speed=13.76, satellites=4, angle=276.3800, fixquality=1
$GPRMC,145312.000,A,4308.4670,N,07726.4278,W,12.20,276.71,070924,,,A*47
$GPGGA,145312.250,4308.4671,N,07726.4289,W,1,04,2.30,185.8,M,-34.4,M,,*5E
lng=-77.440460, lat=43.141113, altitude=185.80, speed=12.20, satellites=4, angle=276.7100, fixquality=1
$GPRMC,145312.500,A,4308.4672,N,07726.4299,W,10.61,276.92,070924,,,A*45
$GPGGA,145312.750,4308.4672,N,07726.4307,W,1,04,2.30,185.7,M,-34.4,M,,*50
lng=-77.440498, lat=43.141120, altitude=185.80, speed=10.61, satellites=4, angle=276.9200, fixquality=1
$GPRMC,145313.000,A,4308.4673,N,07726.4314,W,8.62,275.69,070924,,,A*79
$GPGGA,145313.250,4308.4674,N,07726.4321,W,1,04,2.30,185.7,M,-34.4,M,,*56
lng=-77.440528, lat=43.141120, altitude=185.70, speed=8.62, satellites=4, angle=275.6900, fixquality=1
$GPRMC,145313.500,A,4308.4675,N,07726.4326,W,6.72,275.88,070924,,,A*7B
$GPGGA,145313.750,4308.4676,N,07726.4330,W,1,04,21.87,185.7,M,-34.4,M,,*6C
lng=-77.440544, lat=43.141120, altitude=185.70, speed=6.72, satellites=4, angle=275.8800, fixquality=1
$GPRMC,145314.000,A,4308.4677,N,07726.4334,W,4.91,275.12,070924,,,A*74
$GPGGA,145314.250,4308.4678,N,07726.4339,W,1,04,2.30,185.6,M,-34.4,M,,*55
lng=-77.440559, lat=43.141128, altitude=185.70, speed=4.91, satellites=4, angle=275.1200, fixquality=1
$GPRMC,145314.500,A,4308.4678,N,07726.4341,W,3.56,274.38,070924,,,A*79
$GPGGA,145314.750,4308.4678,N,07726.4344,W,1,04,2.30,185.6,M,-34.4,M,,*5A
lng=-77.440567, lat=43.141128, altitude=185.60, speed=3.56, satellites=4, angle=274.3800, fixquality=1
$GPRMC,145315.000,A,4308.4679,N,07726.4345,W,1.84,274.38,070924,,,A*75
$GPGGA,145315.250,4308.4679,N,07726.4346,W,1,04,2.30,185.6,M,-34.4,M,,*5D
lng=-77.440574, lat=43.141128, altitude=185.60, speed=1.84, satellites=4, angle=274.3800, fixquality=1
$GPGGA,145318.750,4308.4685,N,07726.4332,W,1,06,1.48,183.6,M,-34.4,M,,*5D
$GPRMC,145318.750,A,4308.4685,N,07726.4332,W,0.11,274.38,070924,,,A*74
lng=-77.440551, lat=43.141136, altitude=183.60, speed=0.04, satellites=6, angle=274.3800, fixquality=1
$GPGGA,145319.000,4308.4684,N,07726.4329,W,1,06,1.48,183.2,M,-34.4,M,,*51
$GPRMC,145319.000,A,4308.4684,N,07726.4329,W,0.07,274.38,07092
lng=-77.440551, lat=43.141136, altitude=183.20, speed=0.11, satellites=6, angle=274.3800, fixquality=1
$GPRMC,145332.250,A,4308.4687,N,07726.4335,W,2.74,279.66,070924,,,A*7B
$GPGGA,145332.500,4308.4689,N,07726.4332,W,1,07,1.39,182.0,M,-34.4,M,,*5E
lng=-77.440559, lat=43.141147, altitude=182.30, speed=2.74, satellites=7, angle=279.6600, fixquality=1
$GPRMC,145332.750,A,4308.4691,N,07726.4331,W,3.40,280.73,070924,,,A*79
$GPGGA,145333.000,4308.4693,N,07726.4332,W,1,07,1.39,181.6,M,-34.4,M,,*54
lng=-77.440551, lat=43.141155, altitude=182.00, speed=3.40, satellites=7, angle=280.7300, fixquality=1
$GPRMC,145333.250,A,4308.4694,N,07726.4333,W,3.61,276.53,070924,,,A*72
$GPGGA,145333.500,4308.4695,N,07726.4335,W,1,07,1.39,181.3,M,-34.4,M,,*55
lng=-77.440551, lat=43.141155, altitude=181.60, speed=3.61, satellites=7, angle=276.5300, fixquality=1
$GPRMC,145333.750,A,4308.4696,N,07726.4337,W,3.76,277.94,070924,,,A*7D
$GPGGA,145334.000,4308.4698,N,07726.4340,W,1,07,1.39,181.0,M,-34.4,M,,*5B
lng=-77.440559, lat=43.141162, altitude=181.30, speed=3.76, satellites=7, angle=277.9400, fixquality=1
$GPRMC,145334.250,A,4308.4699,N,07726.4343,W,3.84,280.20,070924,,,A*79
$GPGGA,145334.500,4308.4700,N,07726.4346,W,1,07,1.39,180.8,M,-34.4,M,,*51
lng=-77.440567, lat=43.141162, altitude=181.00, speed=3.84, satellites=7, angle=280.2000, fixquality=1
$GPRMC,145334.750,A,4308.4700,N,07726.4348,W,3.90,277.33,070924,,,A*79
$GPGGA,145335.000,4308.4701,N,07726.4351,W,1,07,1.39,180.5,M,-34.4,M,,*5F
lng=-77.440574, lat=43.141170, altitude=180.80, speed=3.90, satellites=7, angle=277.3300, fixquality=1
$GPRMC,145335.250,A,4308.4701,N,07726.4355,W,4.35,275.38,070924,,,A*71
$GPGGA,145335.500,4308.4702,N,07726.4359,W,1,07,1.39,180.4,M,-34.4,M,,*50
lng=-77.440589, lat=43.141170, altitude=180.50, speed=4.35, satellites=7, angle=275.3800, fixquality=1
$GPRMC,145335.750,A,4308.4702,N,07726.4363,W,5.75,278.06,070924,,,A*77
$GPGGA,145336.000,4308.4703,N,07726.4369,W,1,07,1.39,180.2,M,-34.4,M,,*52
lng=-77.440605, lat=43.141170, altitude=180.40, speed=5.75, satellites=7, angle=278.0600, fixquality=1
$GPRMC,145336.250,A,4308.4704,N,07726.4374,W,7.65,278.65,070924,,,A*77
$GPGGA,145336.500,4308.4705,N,07726.4382,W,1,07,1.39,179.7,M,-34.4,M,,*57
lng=-77.440628, lat=43.141170, altitude=180.20, speed=7.65, satellites=7, angle=278.6500, fixquality=1
$GPRMC,145336.750,A,4308.4707,N,07726.4389,W,9.29,278.22,070924,,,A*76
$GPGGA,145337.000,4308.4708,N,07726.4398,W,1,07,1.39,179.3,M,-34.4,M,,*51
lng=-77.440650, lat=43.141178, altitude=179.70, speed=9.29, satellites=7, angle=278.2200, fixquality=1
$GPRMC,145337.250,A,4308.4709,N,07726.4407,W,10.96,276.47,070924,,,A*4C
$GPGGA,145337.500,4308.4709,N,07726.4417,W,1,07,1.39,178.7,M,-34.4,M,,*50
lng=-77.440681, lat=43.141178, altitude=179.30, speed=10.96, satellites=7, angle=276.4700, fixquality=1
$GPRMC,145337.750,A,4308.4710,N,07726.4429,W,12.47,272.95,070924,,,A*48
$GPGGA,145338.000,4308.4710,N,07726.4441,W,1,07,1.39,178.1,M,-34.4,M,,*57
lng=-77.440711, lat=43.141185, altitude=178.70, speed=12.47, satellites=7, angle=272.9500, fixquality=1
$GPRMC,145338.250,A,4308.4710,N,07726.4454,W,13.73,269.83,070924,,,A*43
$GPGGA,145338.500,4308.4710,N,07726.4468,W,1,07,1.39,177.9,M,-34.4,M,,*5E
lng=-77.440757, lat=43.141185, altitude=178.10, speed=13.73, satellites=7, angle=269.8300, fixquality=1
$GPRMC,145338.750,A,4308.4711,N,07726.4481,W,14.15,268.50,070924,,,A*47
$GPGGA,145339.000,4308.4709,N,07726.4493,W,1,07,1.39,177.5,M,-34.4,M,,*5A
lng=-77.440803, lat=43.141185, altitude=177.90, speed=14.15, satellites=7, angle=268.5000, fixquality=1
$GPRMC,145339.250,A,4308.4707,N,07726.4507,W,14.56,265.06,070924,,,A*42
$GPGGA,145339.500,4308.4703,N,07726.4521,W,1,07,1.39,177.6,M,-34.4,M,,*5E
lng=-77.440841, lat=43.141178, altitude=177.50, speed=14.56, satellites=7, angle=265.0600, fixquality=1
$GPRMC,145339.750,A,4308.4699,N,07726.4536,W,15.64,256.60,070924,,,A*43
$GPGGA,145340.000,4308.4695,N,07726.4550,W,1,07,1.39,177.4,M,-34.4,M,,*5F
lng=-77.440895, lat=43.141162, altitude=177.60, speed=15.64, satellites=7, angle=256.6000, fixquality=1
$GPRMC,145340.250,A,4308.4686,N,07726.4566,W,16.38,249.99,070924,,,A*41
$GPGGA,145340.500,4308.4677,N,07726.4576,W,1,07,1.40,177.3,M,-34.4,M,,*5B
lng=-77.440940, lat=43.141147, altitude=177.40, speed=16.38, satellites=7, angle=249.9900, fixquality=1
$GPRMC,145340.750,A,4308.4668,N,07726.4591,W,17.72,241.57,070924,,,A*49
$GPGGA,145341.000,4308.4658,N,07726.4604,W,1,07,1.39,177.3,M,-34.4,M,,*5A
lng=-77.440986, lat=43.141113, altitude=177.30, speed=17.72, satellites=7, angle=241.5700, fixquality=1
$GPRMC,145341.250,A,4308.4652,N,07726.4615,W,17.79,233.11,070924,,,A*47
$GPGGA,145341.500,4308.4644,N,07726.4627,W,1,07,1.39,177.2,M,-34.4,M,,*52
lng=-77.441024, lat=43.141090, altitude=177.30, speed=17.79, satellites=7, angle=233.1100, fixquality=1
$GPRMC,145341.750,A,4308.4634,N,07726.4639,W,18.85,225.59,070924,,,A*4B
$GPGGA,145342.000,4308.4624,N,07726.4651,W,1,07,1.39,177.2,M,-34.4,M,,*53
lng=-77.441062, lat=43.141056, altitude=177.20, speed=18.85, satellites=7, angle=225.5900, fixquality=1
$GPRMC,145342.250,A,4308.4612,N,07726.4663,W,19.63,221.57,070924,,,A*45
$GPGGA,145342.500,4308.4599,N,07726.4675,W,1,07,1.39,177.2,M,-34.4,M,,*55
lng=-77.441108, lat=43.141025, altitude=177.20, speed=19.63, satellites=7, angle=221.5700, fixquality=1
$GPRMC,145342.750,A,4308.4585,N,07726.4687,W,20.37,217.41,070924,,,A*4E
$GPGGA,145343.000,4308.4571,N,07726.4698,W,1,07,1.39,177.1,M,-34.4,M,,*57
lng=-77.441146, lat=43.140975, altitude=177.20, speed=20.37, satellites=7, angle=217.4100, fixquality=1
$GPRMC,145343.250,A,4308.4557,N,07726.4708,W,20.71,213.67,070924,,,A*41
$GPGGA,145343.500,4308.4543,N,07726.4717,W,1,07,1.39,177.1,M,-34.4,M,,*55
lng=-77.441177, lat=43.140926, altitude=177.10, speed=20.71, satellites=7, angle=213.6700, fixquality=1
$GPRMC,145343.750,A,4308.4529,N,07726.4726,W,21.56,209.66,070924,,,A*4F
$GPGGA,145344.000,4308.4514,N,07726.4734,W,1,07,1.39,177.1,M,-34.4,M,,*54
lng=-77.441207, lat=43.140884, altitude=177.10, speed=21.56, satellites=7, angle=209.6600, fixquality=1
$GPRMC,145344.250,A,4308.4499,N,07726.4743,W,22.03,206.73,070924,,,A*4C
$GPGGA,145344.500,4308.4484,N,07726.4750,W,1,07,1.39,177.1,M,-34.4,M,,*5B
lng=-77.441238, lat=43.140827, altitude=177.10, speed=22.03, satellites=7, angle=206.7300, fixquality=1
$GPRMC,145344.750,A,4308.4468,N,07726.4758,W,23.03,204.35,070924,,,A*4C
$GPGGA,145345.000,4308.4451,N,07726.4766,W,1,07,1.39,177.1,M,-34.4,M,,*52
lng=-77.441261, lat=43.140781, altitude=177.10, speed=23.03, satellites=7, angle=204.3500, fixquality=1
$GPRMC,145345.250,A,4308.4435,N,07726.4774,W,23.90,202.69,070924,,,A*4B
$GPGGA,145345.500,4308.4418,N,07726.4782,W,1,07,1.39,177.2,M,-34.4,M,,*53
lng=-77.441291, lat=43.140724, altitude=177.10, speed=23.90, satellites=7, angle=202.6900, fixquality=1
$GPRMC,145345.750,A,4308.4400,N,07726.4791,W,25.37,202.06,070924,,,A*41
$GPGGA,145346.000,4308.4383,N,07726.4799,W,1,07,1.39,177.2,M,-34.4,M,,*5A
lng=-77.441314, lat=43.140666, altitude=177.20, speed=25.37, satellites=7, angle=202.0600, fixquality=1
$GPRMC,145346.250,A,4308.4365,N,07726.4808,W,26.57,201.43,070924,,,A*4B
$GPGGA,145346.500,4308.4346,N,07726.4816,W,1,07,1.39,177.2,M,-34.4,M,,*5E
lng=-77.441352, lat=43.140609, altitude=177.20, speed=26.57, satellites=7, angle=201.4300, fixquality=1
$GPRMC,145346.750,A,4308.4327,N,07726.4825,W,27.88,201.15,070924,,,A*47
$GPGGA,145347.000,4308.4308,N,07726.4834,W,1,07,1.39,177.3,M,-34.4,M,,*51
lng=-77.441375, lat=43.140544, altitude=177.20, speed=27.88, satellites=7, angle=201.1500, fixquality=1
$GPRMC,145347.250,A,4308.4289,N,07726.4843,W,28.62,200.84,070924,,,A*44
$GPGGA,145347.500,4308.4269,N,07726.4852,W,1,07,1.39,177.3,M,-34.4,M,,*52
lng=-77.441406, lat=43.140480, altitude=177.30, speed=28.62, satellites=7, angle=200.8400, fixquality=1
$GPRMC,145347.750,A,4308.4249,N,07726.4861,W,29.57,200.68,070924,,,A*48
$GPGGA,145348.000,4308.4229,N,07726.4871,W,1,07,1.39,177.3,M,-34.4,M,,*5D
lng=-77.441436, lat=43.140415, altitude=177.30, speed=29.57, satellites=7, angle=200.6800, fixquality=1
$GPRMC,145348.250,A,4308.4210,N,07726.4881,W,30.09,201.43,070924,,,A*4B
$GPGGA,145348.500,4308.4190,N,07726.4891,W,1,07,1.39,177.3,M,-34.4,M,,*57
lng=-77.441474, lat=43.140346, altitude=177.30, speed=30.09, satellites=7, angle=201.4300, fixquality=1
$GPRMC,145348.750,A,4308.4170,N,07726.4902,W,30.40,201.62,070924,,,A*4F
$GPGGA,145349.000,4308.4149,N,07726.4912,W,1,07,1.39,177.2,M,-34.4,M,,*5C
lng=-77.441505, lat=43.140281, altitude=177.30, speed=30.40, satellites=7, angle=201.6200, fixquality=1
$GPRMC,145349.250,A,4308.4129,N,07726.4922,W,30.61,200.88,070924,,,A*43
$GPGGA,145349.500,4308.4109,N,07726.4933,W,1,07,1.39,177.2,M,-34.4,M,,*5E
lng=-77.441535, lat=43.140216, altitude=177.20, speed=30.61, satellites=7, angle=200.8800, fixquality=1
$GPRMC,145349.750,A,4308.4088,N,07726.4942,W,31.17,200.60,070924,,,A*4C
$GPGGA,145350.000,4308.4067,N,07726.4952,W,1,07,1.39,177.1,M,-34.4,M,,*5E
lng=-77.441566, lat=43.140144, altitude=177.20, speed=31.17, satellites=7, angle=200.6000, fixquality=1
$GPRMC,145350.250,A,4308.4046,N,07726.4962,W,31.42,200.13,070924,,,A*45
$GPGGA,145350.500,4308.4026,N,07726.4972,W,1,07,1.39,177.0,M,-34.4,M,,*5D
lng=-77.441604, lat=43.140079, altitude=177.10, speed=31.42, satellites=7, angle=200.1300, fixquality=1
$GPRMC,145350.750,A,4308.4005,N,07726.4982,W,31.45,200.11,070924,,,A*4C
$GPGGA,145351.000,4308.3985,N,07726.4992,W,1,07,1.39,176.9,M,-34.4,M,,*58
lng=-77.441635, lat=43.140007, altitude=177.00, speed=31.45, satellites=7, angle=200.1100, fixquality=1
$GPRMC,145351.250,A,4308.3964,N,07726.5002,W,31.24,199.71,070924,,,A*43
$GPGGA,145351.500,4308.3944,N,07726.5011,W,1,07,1.39,176.8,M,-34.4,M,,*52
lng=-77.441665, lat=43.139942, altitude=176.90, speed=31.24, satellites=7, angle=199.7100, fixquality=1
$GPRMC,145351.750,A,4308.3923,N,07726.5020,W,31.26,198.80,070924,,,A*48
$GPGGA,145352.000,4308.3902,N,07726.5028,W,1,07,1.39,176.8,M,-34.4,M,,*5C
lng=-77.441696, lat=43.139869, altitude=176.80, speed=31.26, satellites=7, angle=198.8000, fixquality=1
$GPRMC,145352.250,A,4308.3881,N,07726.5036,W,31.37,197.66,070924,,,A*47
$GPGGA,145352.500,4308.3859,N,07726.5043,W,1,07,1.39,176.7,M,-34.4,M,,*54
lng=-77.441726, lat=43.139804, altitude=176.80, speed=31.37, satellites=7, angle=197.6600, fixquality=1
$GPRMC,145352.750,A,4308.3836,N,07726.5049,W,31.45,195.67,070924,,,A*40
$GPGGA,145353.000,4308.3814,N,07726.5055,W,1,07,1.39,176.7,M,-34.4,M,,*5E
lng=-77.441749, lat=43.139728, altitude=176.70, speed=31.45, satellites=7, angle=195.6700, fixquality=1
$GPRMC,145353.250,A,4308.3792,N,07726.5060,W,31.67,194.05,070924,,,A*4B
$GPGGA,145353.500,4308.3770,N,07726.5066,W,1,07,1.39,176.6,M,-34.4,M,,*57
lng=-77.441764, lat=43.139656, altitude=176.70, speed=31.67, satellites=7, angle=194.0500, fixquality=1
$GPRMC,145353.750,A,4308.3748,N,07726.5071,W,31.71,192.44,070924,,,A*4D
$GPGGA,145354.000,4308.3724,N,07726.5074,W,1,07,1.39,176.5,M,-34.4,M,,*54
lng=-77.441787, lat=43.139583, altitude=176.60, speed=31.71, satellites=7, angle=192.4400, fixquality=1
$GPRMC,145354.250,A,4308.3700,N,07726.5078,W,32.15,191.57,070924,,,A*4A
$GPGGA,145354.500,4308.3677,N,07726.5082,W,1,07,1.39,176.5,M,-34.4,M,,*5F
lng=-77.441795, lat=43.139503, altitude=176.50, speed=32.15, satellites=7, angle=191.5700, fixquality=1
$GPRMC,145354.750,A,4308.3654,N,07726.5087,W,32.22,190.91,070924,,,A*40
$GPGGA,145355.000,4308.3631,N,07726.5092,W,1,07,1.39,176.4,M,-34.4,M,,*59
lng=-77.441810, lat=43.139419, altitude=176.50, speed=32.22, satellites=7, angle=190.9100, fixquality=1
$GPRMC,145355.250,A,4308.3608,N,07726.5097,W,32.43,190.62,070924,,,A*47
$GPGGA,145355.500,4308.3585,N,07726.5102,W,1,07,1.39,176.4,M,-34.4,M,,*58
lng=-77.441825, lat=43.139347, altitude=176.40, speed=32.43, satellites=7, angle=190.6200, fixquality=1
$GPRMC,145355.750,A,4308.3562,N,07726.5107,W,32.59,190.22,070924,,,A*4A
$GPGGA,145356.000,4308.3538,N,07726.5112,W,1,07,1.39,176.4,M,-34.4,M,,*59
lng=-77.441848, lat=43.139266, altitude=176.40, speed=32.59, satellites=7, angle=190.2200, fixquality=1
$GPRMC,145356.250,A,4308.3514,N,07726.5117,W,34.03,189.52,070924,,,A*4A
$GPGGA,145356.500,4308.3491,N,07726.5122,W,1,07,1.39,176.4,M,-34.4,M,,*5D
lng=-77.441864, lat=43.139194, altitude=176.40, speed=34.03, satellites=7, angle=189.5200, fixquality=1
$GPRMC,145356.750,A,4308.3467,N,07726.5126,W,34.24,188.38,070924,,,A*40
$GPGGA,145357.000,4308.3443,N,07726.5130,W,1,07,1.39,176.5,M,-34.4,M,,*54
lng=-77.441879, lat=43.139110, altitude=176.40, speed=34.24, satellites=7, angle=188.3800, fixquality=1
$GPRMC,145357.250,A,4308.3419,N,07726.5134,W,34.44,187.86,070924,,,A*42
$GPGGA,145357.500,4308.3394,N,07726.5137,W,1,07,1.39,176.6,M,-34.4,M,,*58
lng=-77.441886, lat=43.139030, altitude=176.50, speed=34.44, satellites=7, angle=187.8600, fixquality=1
$GPRMC,145357.750,A,4308.3369,N,07726.5140,W,34.81,186.88,070924,,,A*42
$GPGGA,145358.000,4308.3345,N,07726.5144,W,1,07,1.39,176.6,M,-34.4,M,,*5A
lng=-77.441902, lat=43.138950, altitude=176.60, speed=34.81, satellites=7, angle=186.8800, fixquality=1
$GPRMC,145358.250,A,4308.3321,N,07726.5148,W,34.80,186.51,070924,,,A*49
$GPGGA,145358.500,4308.3297,N,07726.5151,W,1,07,1.39,176.7,M,-34.4,M,,*54
lng=-77.441909, lat=43.138866, altitude=176.60, speed=34.80, satellites=7, angle=186.5100, fixquality=1
$GPRMC,145358.750,A,4308.3273,N,07726.5155,W,34.83,185.85,070924,,,A*4F
$GPGGA,145359.000,4308.3249,N,07726.5158,W,1,07,1.39,176.8,M,-34.4,M,,*55
lng=-77.441925, lat=43.138786, altitude=176.70, speed=34.83, satellites=7, angle=185.8500, fixquality=1
$GPRMC,145359.250,A,4308.3224,N,07726.5162,W,35.14,185.66,070924,,,A*4F
$GPGGA,145359.500,4308.3199,N,07726.5165,W,1,07,1.39,176.8,M,-34.4,M,,*50
lng=-77.441932, lat=43.138706, altitude=176.80, speed=35.14, satellites=7, angle=185.6600, fixquality=1
$GPRMC,145359.750,A,4308.3174,N,07726.5167,W,35.87,184.71,070924,,,A*44
$GPGGA,145400.000,4308.3149,N,07726.5169,W,1,07,1.39,176.9,M,-34.4,M,,*5E
lng=-77.441940, lat=43.138622, altitude=176.80, speed=35.87, satellites=7, angle=184.7100, fixquality=1
$GPRMC,145400.250,A,4308.3123,N,07726.5171,W,36.44,184.09,070924,,,A*4C
$GPGGA,145400.500,4308.3097,N,07726.5173,W,1,07,1.39,177.0,M,-34.4,M,,*5A
lng=-77.441947, lat=43.138542, altitude=176.90, speed=36.44, satellites=7, angle=184.0900, fixquality=1
$GPRMC,145400.750,A,4308.3071,N,07726.5174,W,36.73,182.82,070924,,,A*4B
$GPGGA,145401.000,4308.3045,N,07726.5171,W,1,07,1.39,176.8,M,-34.4,M,,*5A
lng=-77.441963, lat=43.138450, altitude=177.00, speed=36.73, satellites=7, angle=182.8200, fixquality=1
$GPRMC,145401.250,A,4308.3019,N,07726.5173,W,37.18,182.48,070924,,,A*4C
$GPGGA,145401.500,4308.2994,N,07726.5176,W,1,07,1.39,176.9,M,-34.4,M,,*5D
lng=-77.441947, lat=43.138362, altitude=176.80, speed=37.18, satellites=7, angle=182.4800, fixquality=1
$GPRMC,145401.750,A,4308.2967,N,07726.5178,W,37.59,182.94,070924,,,A*47
$GPGGA,145402.000,4308.2941,N,07726.5179,W,1,07,1.39,177.0,M,-34.4,M,,*54
lng=-77.441963, lat=43.138282, altitude=176.90, speed=37.59, satellites=7, angle=182.9400, fixquality=1
$GPRMC,145402.250,A,4308.2915,N,07726.5181,W,37.68,182.58,070924,,,A*40
$GPGGA,145402.500,4308.2889,N,07726.5183,W,1,07,1.39,177.2,M,-34.4,M,,*53
lng=-77.441970, lat=43.138191, altitude=177.00, speed=37.68, satellites=7, angle=182.5800, fixquality=1
$GPRMC,145402.750,A,4308.2863,N,07726.5185,W,37.76,182.40,070924,,,A*47
$GPGGA,145403.000,4308.2836,N,07726.5186,W,1,07,1.39,177.3,M,-34.4,M,,*57
lng=-77.441978, lat=43.138103, altitude=177.20, speed=37.76, satellites=7, angle=182.4000, fixquality=1
$GPRMC,145403.250,A,4308.2810,N,07726.5187,W,38.00,182.10,070924,,,A*4E
$GPGGA,145403.500,4308.2784,N,07726.5188,W,1,07,1.39,177.5,M,-34.4,M,,*5C
lng=-77.441978, lat=43.138011, altitude=177.30, speed=38.00, satellites=7, angle=182.1000, fixquality=1
$GPRMC,145403.750,A,4308.2759,N,07726.5189,W,37.60,181.45,070924,,,A*4D
$GPGGA,145404.000,4308.2734,N,07726.5190,W,1,07,1.39,177.7,M,-34.4,M,,*5E
lng=-77.441986, lat=43.137931, altitude=177.50, speed=37.60, satellites=7, angle=181.4500, fixquality=1
$GPRMC,145404.250,A,4308.2709,N,07726.5192,W,37.62,181.64,070924,,,A*41
$GPGGA,145404.500,4308.2683,N,07726.5193,W,1,07,1.39,177.9,M,-34.4,M,,*5B
lng=-77.441986, lat=43.137851, altitude=177.70, speed=37.62, satellites=7, angle=181.6400, fixquality=1
$GPRMC,145404.750,A,4308.2658,N,07726.5195,W,37.39,182.06,070924,,,A*4F
$GPGGA,145405.000,4308.2632,N,07726.5194,W,1,07,1.39,177.8,M,-34.4,M,,*53
lng=-77.441993, lat=43.137760, altitude=177.90, speed=37.39, satellites=7, angle=182.0600, fixquality=1
$GPRMC,145405.250,A,4308.2608,N,07726.5195,W,35.86,181.89,070924,,,A*4C
$GPGGA,145405.500,4308.2583,N,07726.5192,W,1,07,1.39,177.6,M,-34.4,M,,*57
lng=-77.441993, lat=43.137680, altitude=177.80, speed=35.86, satellites=7, angle=181.8900, fixquality=1
$GPRMC,145405.750,A,4308.2558,N,07726.5192,W,35.59,181.75,070924,,,A*49
$GPGGA,145406.000,4308.2534,N,07726.5192,W,1,07,1.39,177.7,M,-34.4,M,,*5C
lng=-77.441986, lat=43.137596, altitude=177.60, speed=35.59, satellites=7, angle=181.7500, fixquality=1
$GPRMC,145406.250,A,4308.2509,N,07726.5193,W,35.34,182.03,070924,,,A*43
$GPGGA,145406.500,4308.2485,N,07726.5194,W,1,07,1.39,177.7,M,-34.4,M,,*54
lng=-77.441993, lat=43.137516, altitude=177.70, speed=35.34, satellites=7, angle=182.0300, fixquality=1
$GPRMC,145406.750,A,4308.2460,N,07726.5195,W,35.38,182.21,070924,,,A*42
$GPGGA,145407.000,4308.2435,N,07726.5196,W,1,07,1.39,177.8,M,-34.4,M,,*56
lng=-77.441993, lat=43.137435, altitude=177.70, speed=35.38, satellites=7, angle=182.2100, fixquality=1
$GPRMC,145407.250,A,4308.2410,N,07726.5196,W,35.47,181.41,070924,,,A*4F
$GPGGA,145407.500,4308.2385,N,07726.5197,W,1,07,1.39,177.9,M,-34.4,M,,*5F
lng=-77.441993, lat=43.137351, altitude=177.80, speed=35.47, satellites=7, angle=181.4100, fixquality=1
$GPRMC,145407.750,A,4308.2359,N,07726.5197,W,35.54,181.27,070924,,,A*43
$GPGGA,145408.000,4308.2334,N,07726.5198,W,1,07,1.39,178.0,M,-34.4,M,,*56
lng=-77.441993, lat=43.137264, altitude=177.90, speed=35.54, satellites=7, angle=181.2700, fixquality=1
$GPRMC,145408.250,A,4308.2309,N,07726.5198,W,35.63,181.31,070924,,,A*40
$GPGGA,145408.500,4308.2284,N,07726.5199,W,1,07,1.39,178.1,M,-34.4,M,,*59
lng=-77.442001, lat=43.137184, altitude=178.00, speed=35.63, satellites=7, angle=181.3100, fixquality=1
$GPRMC,145408.750,A,4308.2260,N,07726.5200,W,35.71,181.58,070924,,,A*45
$GPGGA,145409.000,4308.2235,N,07726.5201,W,1,07,1.39,178.3,M,-34.4,M,,*57
lng=-77.442001, lat=43.137100, altitude=178.10, speed=35.71, satellites=7, angle=181.5800, fixquality=1
$GPRMC,145409.250,A,4308.2210,N,07726.5202,W,36.07,181.97,070924,,,A*45
$GPGGA,145409.500,4308.2184,N,07726.5204,W,1,07,1.39,178.4,M,-34.4,M,,*59
lng=-77.442001, lat=43.137020, altitude=178.30, speed=36.07, satellites=7, angle=181.9700, fixquality=1
$GPRMC,145409.750,A,4308.2158,N,07726.5205,W,36.31,181.91,070924,,,A*4B
$GPGGA,145410.000,4308.2132,N,07726.5205,W,1,07,1.39,178.5,M,-34.4,M,,*59
lng=-77.442008, lat=43.136928, altitude=178.40, speed=36.31, satellites=7, angle=181.9100, fixquality=1
$GPRMC,145410.250,A,4308.2107,N,07726.5206,W,36.12,181.56,070924,,,A*45
$GPGGA,145410.500,4308.2082,N,07726.5208,W,1,07,1.39,178.6,M,-34.4,M,,*58
lng=-77.442008, lat=43.136848, altitude=178.50, speed=36.12, satellites=7, angle=181.5600, fixquality=1
$GPRMC,145410.750,A,4308.2057,N,07726.5209,W,35.68,181.45,070924,,,A*47
$GPGGA,145411.000,4308.2033,N,07726.5211,W,1,07,1.39,178.6,M,-34.4,M,,*5E
lng=-77.442016, lat=43.136760, altitude=178.60, speed=35.68, satellites=7, angle=181.4500, fixquality=1
$GPRMC,145411.250,A,4308.2008,N,07726.5212,W,35.36,181.60,070924,,,A*4F
$GPGGA,145411.500,4308.1983,N,07726.5213,W,1,07,1.39,178.7,M,-34.4,M,,*59
lng=-77.442016, lat=43.136676, altitude=178.60, speed=35.36, satellites=7, angle=181.6000, fixquality=1
$GPRMC,145411.750,A,4308.1958,N,07726.5214,W,34.95,181.25,070924,,,A*4A
$GPGGA,145412.000,4308.1935,N,07726.5216,W,1,07,1.39,178.7,M,-34.4,M,,*57
lng=-77.442024, lat=43.136596, altitude=178.70, speed=34.95, satellites=7, angle=181.2500, fixquality=1
$GPRMC,145412.250,A,4308.1912,N,07726.5217,W,34.82,181.57,070924,,,A*42
$GPGGA,145412.500,4308.1888,N,07726.5219,W,1,07,1.39,178.7,M,-34.4,M,,*5A
lng=-77.442024, lat=43.136524, altitude=178.70, speed=34.82, satellites=7, angle=181.5700, fixquality=1
$GPRMC,145412.750,A,4308.1864,N,07726.5220,W,34.40,181.75,070924,,,A*4D
$GPGGA,145413.000,4308.1840,N,07726.5221,W,1,07,1.39,178.6,M,-34.4,M,,*50
lng=-77.442031, lat=43.136440, altitude=178.70, speed=34.40, satellites=7, angle=181.7500, fixquality=1
$GPRMC,145413.250,A,4308.1816,N,07726.5222,W,34.32,181.18,070924,,,A*40
$GPGGA,145413.500,4308.1793,N,07726.5223,W,1,07,1.39,178.6,M,-34.4,M,,*56
lng=-77.442031, lat=43.136360, altitude=178.60, speed=34.32, satellites=7, angle=181.1800, fixquality=1
$GPRMC,145413.750,A,4308.1768,N,07726.5219,W,34.10,181.05,070924,,,A*47
$GPGGA,145414.000,4308.1745,N,07726.5219,W,1,07,1.39,178.0,M,-34.4,M,,*50
lng=-77.442031, lat=43.136280, altitude=178.60, speed=34.10, satellites=7, angle=181.0500, fixquality=1
$GPRMC,145414.250,A,4308.1722,N,07726.5221,W,33.94,181.48,070924,,,A*42
$GPGGA,145414.500,4308.1698,N,07726.5223,W,1,07,1.39,177.9,M,-34.4,M,,*5B
lng=-77.442031, lat=43.136207, altitude=178.00, speed=33.94, satellites=7, angle=181.4800, fixquality=1
$GPRMC,145414.750,A,4308.1675,N,07726.5222,W,33.73,181.25,070924,,,A*45
$GPGGA,145415.000,4308.1652,N,07726.5218,W,1,07,1.39,177.4,M,-34.4,M,,*5C
lng=-77.442031, lat=43.136123, altitude=177.90, speed=33.73, satellites=7, angle=181.2500, fixquality=1
$GPRMC,145415.250,A,4308.1629,N,07726.5220,W,33.37,181.28,070924,,,A*47
$GPGGA,145415.500,4308.1609,N,07726.5222,W,1,07,1.39,177.4,M,-34.4,M,,*5E
lng=-77.442031, lat=43.136051, altitude=177.40, speed=33.37, satellites=7, angle=181.2800, fixquality=1
$GPRMC,145415.750,A,4308.1587,N,07726.5220,W,32.52,181.12,070924,,,A*4E
$GPGGA,145416.000,4308.1564,N,07726.5217,W,1,07,1.39,176.8,M,-34.4,M,,*5B
lng=-77.442031, lat=43.135978, altitude=177.40, speed=32.52, satellites=7, angle=181.1200, fixquality=1
$GPRMC,145416.250,A,4308.1543,N,07726.5218,W,32.12,180.77,070924,,,A*4D
$GPGGA,145416.500,4308.1522,N,07726.5219,W,1,07,1.39,176.8,M,-34.4,M,,*52
lng=-77.442031, lat=43.135906, altitude=176.80, speed=32.12, satellites=7, angle=180.7700, fixquality=1
$GPRMC,145416.750,A,4308.1499,N,07726.5216,W,32.05,180.18,070924,,,A*4F
$GPGGA,145417.000,4308.1476,N,07726.5213,W,1,07,1.39,176.3,M,-34.4,M,,*57
lng=-77.442024, lat=43.135829, altitude=176.80, speed=32.05, satellites=7, angle=180.1800, fixquality=1
$GPRMC,145417.250,A,4308.1453,N,07726.5210,W,32.09,180.10,070924,,,A*4F
$GPGGA,145417.500,4308.1431,N,07726.5208,W,1,07,1.39,175.7,M,-34.4,M,,*5C
lng=-77.442016, lat=43.135757, altitude=176.30, speed=32.09, satellites=7, angle=180.1000, fixquality=1
$GPRMC,145417.750,A,4308.1408,N,07726.5205,W,31.88,179.91,070924,,,A*45
$GPGGA,145418.000,4308.1386,N,07726.5203,W,1,07,1.39,175.2,M,-34.4,M,,*53
lng=-77.442008, lat=43.135677, altitude=175.70, speed=31.88, satellites=7, angle=179.9100, fixquality=1
$GPRMC,145418.250,A,4308.1365,N,07726.5203,W,31.62,180.03,070924,,,A*4C
$GPGGA,145418.500,4308.1343,N,07726.5201,W,1,07,1.39,175.0,M,-34.4,M,,*5F
lng=-77.442008, lat=43.135612, altitude=175.20, speed=31.62, satellites=7, angle=180.0300, fixquality=1
$GPRMC,145418.750,A,4308.1321,N,07726.5200,W,31.53,179.72,070924,,,A*48
$GPGGA,145419.000,4308.1301,N,07726.5201,W,1,07,1.39,174.6,M,-34.4,M,,*5A
lng=-77.442001, lat=43.135540, altitude=175.00, speed=31.53, satellites=7, angle=179.7200, fixquality=1
$GPRMC,145419.250,A,4308.1281,N,07726.5202,W,31.39,180.39,070924,,,A*40
$GPGGA,145419.500,4308.1260,N,07726.5201,W,1,07,1.39,174.4,M,-34.4,M,,*5B
lng=-77.442001, lat=43.135463, altitude=174.60, speed=31.39, satellites=7, angle=180.3900, fixquality=1
$GPRMC,145419.750,A,4308.1239,N,07726.5201,W,30.52,180.95,070924,,,A*4F
$GPGGA,145420.000,4308.1218,N,07726.5202,W,1,07,1.39,173.9,M,-34.4,M,,*52
lng=-77.442001, lat=43.135398, altitude=174.40, speed=30.52, satellites=7, angle=180.9500, fixquality=1
$GPRMC,145420.250,A,4308.1198,N,07726.5203,W,30.03,181.56,070924,,,A*40
$GPGGA,145420.500,4308.1177,N,07726.5204,W,1,07,1.39,173.7,M,-34.4,M,,*55
lng=-77.442008, lat=43.135326, altitude=173.90, speed=30.03, satellites=7, angle=181.5600, fixquality=1
$GPRMC,145420.750,A,4308.1156,N,07726.5204,W,29.70,182.38,070924,,,A*47
$GPGGA,145421.000,4308.1135,N,07726.5206,W,1,07,1.39,173.4,M,-34.4,M,,*56
lng=-77.442008, lat=43.135261, altitude=173.70, speed=29.70, satellites=7, angle=182.3800, fixquality=1
$GPRMC,145421.250,A,4308.1114,N,07726.5208,W,29.62,183.32,070924,,,A*41
$GPGGA,145421.500,4308.1094,N,07726.5210,W,1,07,1.39,173.1,M,-34.4,M,,*5B
lng=-77.442016, lat=43.135189, altitude=173.40, speed=29.62, satellites=7, angle=183.3200, fixquality=1
$GPRMC,145421.750,A,4308.1073,N,07726.5212,W,29.50,183.80,070924,,,A*47
$GPGGA,145422.000,4308.1053,N,07726.5213,W,1,07,1.39,172.9,M,-34.4,M,,*5C
lng=-77.442016, lat=43.135124, altitude=173.10, speed=29.50, satellites=7, angle=183.8000, fixquality=1
$GPRMC,145422.250,A,4308.1032,N,07726.5215,W,29.42,184.04,070924,,,A*4B
$GPGGA,145422.500,4308.1012,N,07726.5215,W,1,07,1.39,172.5,M,-34.4,M,,*56
lng=-77.442024, lat=43.135051, altitude=172.90, speed=29.42, satellites=7, angle=184.0400, fixquality=1
$GPRMC,145422.750,A,4308.0991,N,07726.5216,W,28.79,183.71,070924,,,A*40
$GPGGA,145423.000,4308.0971,N,07726.5217,W,1,07,1.39,172.1,M,-34.4,M,,*59
lng=-77.442024, lat=43.134986, altitude=172.50, speed=28.79, satellites=7, angle=183.7100, fixquality=1
$GPRMC,145423.250,A,4308.0951,N,07726.5218,W,28.43,182.62,070924,,,A*4C
$GPGGA,145423.500,4308.0931,N,07726.5219,W,1,07,1.39,171.9,M,-34.4,M,,*5D
lng=-77.442031, lat=43.134922, altitude=172.10, speed=28.43, satellites=7, angle=182.6200, fixquality=1
$GPRMC,145423.750,A,4308.0912,N,07726.5219,W,27.96,180.64,070924,,,A*4C
$GPGGA,145424.000,4308.0893,N,07726.5220,W,1,07,1.39,171.5,M,-34.4,M,,*50
lng=-77.442031, lat=43.134853, altitude=171.90, speed=27.96, satellites=7, angle=180.6400, fixquality=1
$GPRMC,145424.250,A,4308.0875,N,07726.5221,W,26.85,179.58,070924,,,A*4F
$GPGGA,145424.500,4308.0857,N,07726.5220,W,1,07,1.39,171.1,M,-34.4,M,,*59
lng=-77.442031, lat=43.134788, altitude=171.50, speed=26.85, satellites=7, angle=179.5800, fixquality=1
$GPRMC,145424.750,A,4308.0840,N,07726.5219,W,25.53,178.07,070924,,,A*44
$GPGGA,145425.000,4308.0825,N,07726.5219,W,1,07,1.39,170.4,M,-34.4,M,,*56
lng=-77.442031, lat=43.134731, altitude=171.10, speed=25.53, satellites=7, angle=178.0700, fixquality=1
$GPRMC,145425.250,A,4308.0809,N,07726.5218,W,24.06,177.84,070924,,,A*49
$GPGGA,145425.500,4308.0794,N,07726.5217,W,1,07,1.39,169.7,M,-34.4,M,,*53
lng=-77.442031, lat=43.134685, altitude=170.40, speed=24.06, satellites=7, angle=177.8400, fixquality=1
$GPRMC,145425.750,A,4308.0779,N,07726.5216,W,22.26,176.53,070924,,,A*45
$GPGGA,145426.000,4308.0765,N,07726.5214,W,1,07,1.39,169.1,M,-34.4,M,,*5E
lng=-77.442024, lat=43.134635, altitude=169.70, speed=22.26, satellites=7, angle=176.5300, fixquality=1
$GPRMC,145426.250,A,4308.0752,N,07726.5212,W,20.96,175.12,070924,,,A*41
$GPGGA,145426.500,4308.0739,N,07726.5210,W,1,07,1.39,168.6,M,-34.4,M,,*50
lng=-77.442016, lat=43.134586, altitude=169.10, speed=20.96, satellites=7, angle=175.1200, fixquality=1
$GPRMC,145426.750,A,4308.0727,N,07726.5209,W,19.47,174.94,070924,,,A*45
$GPGGA,145427.000,4308.0714,N,07726.5208,W,1,07,1.39,168.4,M,-34.4,M,,*50
lng=-77.442016, lat=43.134544, altitude=168.60, speed=19.47, satellites=7, angle=174.9400, fixquality=1
$GPRMC,145427.250,A,4308.0702,N,07726.5205,W,18.28,176.18,070924,,,A*44
$GPGGA,145427.500,4308.0690,N,07726.5203,W,1,07,1.39,168.2,M,-34.4,M,,*55
lng=-77.442008, lat=43.134506, altitude=168.40, speed=18.28, satellites=7, angle=176.1800, fixquality=1
$GPRMC,145427.750,A,4308.0678,N,07726.5201,W,17.03,176.39,070924,,,A*4C
$GPGGA,145428.000,4308.0667,N,07726.5202,W,1,07,1.39,168.0,M,-34.4,M,,*54
lng=-77.442001, lat=43.134464, altitude=168.20, speed=17.03, satellites=7, angle=176.3900, fixquality=1
$GPRMC,145428.250,A,4308.0658,N,07726.5205,W,16.19,180.65,070924,,,A*4A
$GPGGA,145428.500,4308.0651,N,07726.5209,W,1,07,1.39,167.7,M,-34.4,M,,*57
lng=-77.442008, lat=43.134433, altitude=168.00, speed=16.19, satellites=7, angle=180.6500, fixquality=1
$GPRMC,145428.750,A,4308.0649,N,07726.5217,W,14.36,193.01,070924,,,A*43
$GPGGA,145429.000,4308.0642,N,07726.5224,W,1,07,1.39,167.1,M,-34.4,M,,*58
lng=-77.442024, lat=43.134414, altitude=167.70, speed=14.36, satellites=7, angle=193.0100, fixquality=1
$GPRMC,145429.250,A,4308.0635,N,07726.5231,W,13.35,204.67,070924,,,A*41
$GPGGA,145429.500,4308.0626,N,07726.5236,W,1,07,1.39,166.8,M,-34.4,M,,*54
lng=-77.442047, lat=43.134391, altitude=167.10, speed=13.35, satellites=7, angle=204.6700, fixquality=1
$GPRMC,145429.750,A,4308.0620,N,07726.5242,W,12.43,210.27,070924,,,A*45
$GPGGA,145430.000,4308.0614,N,07726.5248,W,1,07,1.39,166.2,M,-34.4,M,,*5B
lng=-77.442070, lat=43.134365, altitude=166.80, speed=12.43, satellites=7, angle=210.2700, fixquality=1
$GPRMC,145430.250,A,4308.0611,N,07726.5257,W,12.22,225.14,070924,,,A*4F
$GPGGA,145430.500,4308.0610,N,07726.5270,W,1,07,1.39,165.8,M,-34.4,M,,*58
lng=-77.442100, lat=43.134349, altitude=166.20, speed=12.22, satellites=7, angle=225.1400, fixquality=1
$GPRMC,145430.750,A,4308.0609,N,07726.5282,W,12.01,242.66,070924,,,A*4E
$GPGGA,145431.000,4308.0608,N,07726.5295,W,1,07,1.39,165.3,M,-34.4,M,,*55
lng=-77.442138, lat=43.134349, altitude=165.80, speed=12.01, satellites=7, angle=242.6600, fixquality=1
$GPRMC,145431.250,A,4308.0606,N,07726.5306,W,12.85,248.94,070924,,,A*43
$GPGGA,145431.500,4308.0606,N,07726.5316,W,1,07,1.39,164.7,M,-34.4,M,,*51
lng=-77.442176, lat=43.134342, altitude=165.30, speed=12.85, satellites=7, angle=248.9400, fixquality=1
$GPRMC,145431.750,A,4308.0606,N,07726.5328,W,13.03,254.94,070924,,,A*48
$GPGGA,145432.000,4308.0607,N,07726.5340,W,1,07,1.39,164.1,M,-34.4,M,,*53
lng=-77.442214, lat=43.134342, altitude=164.70, speed=13.03, satellites=7, angle=254.9400, fixquality=1
$GPRMC,145432.250,A,4308.0608,N,07726.5353,W,12.61,261.53,070924,,,A*44
$GPGGA,145432.500,4308.0608,N,07726.5365,W,1,07,1.39,163.9,M,-34.4,M,,*51
lng=-77.442253, lat=43.134349, altitude=164.10, speed=12.61, satellites=7, angle=261.5300, fixquality=1
$GPRMC,145432.750,A,4308.0607,N,07726.5376,W,12.49,260.98,070924,,,A*45
$GPGGA,145433.000,4308.0607,N,07726.5387,W,1,07,1.39,163.7,M,-34.4,M,,*58
lng=-77.442291, lat=43.134342, altitude=163.90, speed=12.49, satellites=7, angle=260.9800, fixquality=1
$GPRMC,145433.250,A,4308.0605,N,07726.5398,W,12.04,259.24,070924,,,A*47
$GPGGA,145433.500,4308.0603,N,07726.5408,W,1,07,1.39,163.5,M,-34.4,M,,*5B
lng=-77.442337, lat=43.134342, altitude=163.70, speed=12.04, satellites=7, angle=259.2400, fixquality=1
$GPRMC,145433.750,A,4308.0601,N,07726.5418,W,12.06,253.07,070924,,,A*40
$GPGGA,145434.000,4308.0598,N,07726.5429,W,1,07,1.39,163.3,M,-34.4,M,,*5D
lng=-77.442367, lat=43.134334, altitude=163.50, speed=12.06, satellites=7, angle=253.0700, fixquality=1
$GPRMC,145434.250,A,4308.0595,N,07726.5439,W,12.41,248.85,070924,,,A*4C
$GPGGA,145434.500,4308.0592,N,07726.5450,W,1,07,1.39,163.1,M,-34.4,M,,*5E
lng=-77.442398, lat=43.134326, altitude=163.30, speed=12.41, satellites=7, angle=248.8500, fixquality=1
$GPRMC,145434.750,A,4308.0587,N,07726.5459,W,12.34,240.20,070924,,,A*49
$GPGGA,145435.000,4308.0582,N,07726.5467,W,1,07,1.39,162.8,M,-34.4,M,,*57
lng=-77.442428, lat=43.134311, altitude=163.10, speed=12.34, satellites=7, angle=240.2000, fixquality=1
$GPRMC,145435.250,A,4308.0577,N,07726.5476,W,12.07,230.03,070924,,,A*49
$GPGGA,145435.500,4308.0572,N,07726.5484,W,1,07,1.39,162.6,M,-34.4,M,,*5E
lng=-77.442459, lat=43.134292, altitude=162.80, speed=12.07, satellites=7, angle=230.0300, fixquality=1
$GPRMC,145435.750,A,4308.0565,N,07726.5492,W,12.36,220.90,070924,,,A*4C
$GPGGA,145436.000,4308.0561,N,07726.5500,W,1,07,1.39,162.4,M,-34.4,M,,*55
lng=-77.442489, lat=43.134277, altitude=162.60, speed=12.36, satellites=7, angle=220.9000, fixquality=1
$GPRMC,145436.250,A,4308.0555,N,07726.5508,W,12.35,214.36,070924,,,A*43
$GPGGA,145436.500,4308.0548,N,07726.5514,W,1,07,1.39,162.3,M,-34.4,M,,*59
lng=-77.442512, lat=43.134262, altitude=162.40, speed=12.35, satellites=7, angle=214.3600, fixquality=1
$GPRMC,145436.750,A,4308.0540,N,07726.5520,W,12.39,206.24,070924,,,A*44
$GPGGA,145437.000,4308.0533,N,07726.5525,W,1,07,1.39,162.1,M,-34.4,M,,*51
lng=-77.442527, lat=43.134235, altitude=162.30, speed=12.39, satellites=7, angle=206.2400, fixquality=1
$GPRMC,145437.250,A,4308.0525,N,07726.5529,W,12.39,200.61,070924,,,A*4D
$GPGGA,145437.500,4308.0516,N,07726.5532,W,1,07,1.39,161.8,M,-34.4,M,,*5F
lng=-77.442543, lat=43.134212, altitude=162.10, speed=12.39, satellites=7, angle=200.6100, fixquality=1
$GPRMC,145437.750,A,4308.0508,N,07726.5533,W,11.99,191.43,070924,,,A*4E
$GPGGA,145438.000,4308.0500,N,07726.5532,W,1,07,1.39,161.5,M,-34.4,M,,*5F
lng=-77.442550, lat=43.134178, altitude=161.80, speed=11.99, satellites=7, angle=191.4300, fixquality=1
$GPRMC,145438.250,A,4308.0490,N,07726.5530,W,11.76,180.49,070924,,,A*4C
$GPGGA,145438.500,4308.0481,N,07726.5528,W,1,07,1.39,161.4,M,-34.4,M,,*58
lng=-77.442550, lat=43.134147, altitude=161.50, speed=11.76, satellites=7, angle=180.4900, fixquality=1
$GPRMC,145438.750,A,4308.0473,N,07726.5524,W,12.17,163.70,070924,,,A*42
$GPGGA,145439.000,4308.0465,N,07726.5520,W,1,07,1.39,161.3,M,-34.4,M,,*59
lng=-77.442535, lat=43.134120, altitude=161.40, speed=12.17, satellites=7, angle=163.7000, fixquality=1
$GPRMC,145439.250,A,4308.0457,N,07726.5516,W,12.42,157.39,070924,,,A*4B
$GPGGA,145439.500,4308.0449,N,07726.5510,W,1,07,1.39,161.2,M,-34.4,M,,*50
